flight_id,label,timestamp,att_roll,att_pitch,att_yaw,pos_lat,pos_lon,pos_alt_rel,pos_vx,pos_vy,pos_vz,nav_roll,nav_pitch,nav_alt_error,servo1_raw,servo2_raw,servo3_raw,servo4_raw,sys_voltage_battery,sys_load,vib_x,vib_y,vib_z,gps_sats_visible
attack_corridor_base,1,2441,,,,0.0,0.0,0.0,0.0,0.0,0.0,,,,,,,,,,,,,
attack_corridor_base,1,2759,,,,0.0,0.0,0.0,0.0,0.0,0.0,,,,,,,,,,,,,
attack_corridor_base,1,3092,0.00013187204604037106,-0.00011643848120002076,-0.3457298278808594,0.0,0.0,0.0,0.0,0.0,0.0,0.0,0.0,0.0,1000,1000,1000,1000,12600,0,,,,0
attack_corridor_base,1,3426,0.00011724301293725148,-0.00011550170893315226,-0.3457183837890625,0.0,0.0,0.0,0.0,0.0,0.0,0.0,0.0,0.0,1000,1000,1000,1000,12600,0,,,,0
attack_corridor_base,1,3759,0.0001172238407889381,-0.00011414223263273016,-0.3457047939300537,0.0,0.0,0.0,0.0,0.0,0.0,0.0,0.0,0.0,1000,1000,1000,1000,12600,0,,,,0
attack_corridor_base,1,4091,0.00012685215915553272,-9.440368739888072e-05,-0.3456975221633911,0.0,0.0,0.0,0.0,0.0,0.0,0.0,0.0,0.0,1000,1000,1000,1000,12600,0,0.002993041416630149,0.002680344507098198,0.0028998081106692553,0
attack_corridor_base,1,4424,0.0001363532937830314,-9.016640979098156e-05,-0.34569641947746277,0.0,0.0,0.0,0.0,0.0,0.0,0.0,0.0,0.0,1000,1000,1000,1000,12600,0,0.002838202053681016,0.0028385526966303587,0.002847217721864581,0
attack_corridor_base,1,4757,1.946102929650806e-05,-0.00010199970711255446,1.0836272849701345e-05,0.0,0.0,0.0,0.0,0.0,0.06,0.0,0.0,0.0,1000,1000,1000,1000,12600,0,0.003149425843730569,0.0027767657302320004,0.0028151844162493944,0
attack_corridor_base,1,5092,1.2669827810896095e-05,-8.407874702243134e-05,3.495722558000125e-05,0.0,0.0,0.0,0.0,0.0,0.08,0.0,0.0,0.0,1000,1000,1000,1000,12600,0,0.0029352856799960136,0.0027785359416157007,0.002859745640307665,0
attack_corridor_base,1,5424,1.421749584551435e-05,-7.280842692125589e-05,5.209808296058327e-05,0.0,0.0,0.0,0.0,0.0,0.08,0.0,0.0,0.0,1000,1000,1000,1000,12600,0,0.0025049615651369095,0.002864247187972069,0.0028111368883401155,0
attack_corridor_base,1,5756,3.3220567274838686e-05,-6.413782830350101e-05,7.499066123273224e-05,0.0,0.0,0.0,0.0,0.0,0.07,0.0,0.0,0.0,1000,1000,1000,1000,12600,0,0.002808963181450963,0.0027583856135606766,0.002867890987545252,0
attack_corridor_base,1,6089,4.898366751149297e-05,-4.4982563849771395e-05,-0.34554967284202576,0.0,0.0,0.0,0.0,0.0,0.06,-9.942186443367973e-05,9.444943134440109e-05,0.0,1000,1000,1000,1000,12600,0,0.002781760413199663,0.002758343704044819,0.0027233234141021967,0
attack_corridor_base,1,6424,5.128408156451769e-05,-3.810864654951729e-05,-0.345537930727005,0.0,0.0,0.0,0.0,0.0,0.05,-9.942189353751019e-05,9.444948227610439e-05,0.0,1000,1000,1000,1000,12600,0,0.0028256296645849943,0.0028287956956773996,0.003047192469239235,0
attack_corridor_base,1,6757,5.829355359310284e-05,-3.0415907531278208e-05,-0.34552931785583496,0.0,0.0,0.0,0.0,0.0,0.04,-9.942189353751019e-05,9.444948227610439e-05,0.0,1000,1000,1000,1000,12600,0,0.002921768231317401,0.0030598118901252747,0.0028055354487150908,0
attack_corridor_base,1,7089,7.390277460217476e-05,-2.3074158889357932e-05,-0.3455224633216858,0.0,0.0,0.0,0.0,0.0,0.02,-9.942190808942541e-05,9.444952593185008e-05,0.0,1000,1000,1000,1000,12600,0,0.0027854687068611383,0.002634759061038494,0.00290469266474247,0
attack_corridor_base,1,7422,9.813346696319059e-05,-3.3514868846395984e-05,-0.34551936388015747,0.0,0.0,0.0,0.0,0.0,0.01,-9.942192264134064e-05,9.44495404837653e-05,0.0,1000,1000,1000,1000,12600,0,0.003079761518165469,0.0027894964441657066,0.0029645105823874474,0
attack_corridor_base,1,7754,0.0001197091696667485,-4.398304736241698e-05,-0.34552550315856934,0.0,0.0,0.0,0.0,0.0,0.0,-9.942192264134064e-05,9.44495404837653e-05,0.0,1000,1000,1000,1000,12600,0,0.0026112368796020746,0.00267747207544744,0.0027131366077810526,0
attack_corridor_base,1,8089,0.000143549419590272,-5.035446156398393e-05,-0.345535546541214,0.0,0.0,0.0,0.0,0.0,0.0,-9.942192264134064e-05,9.444959869142622e-05,0.0,1000,1000,1000,1000,12600,0,0.002768654841929674,0.0027851173654198647,0.0027334231417626143,0
attack_corridor_base,1,8421,0.00016129833238665015,-4.7193956561386585e-05,-0.345539927482605,0.0,0.0,0.0,0.0,0.0,-0.01,-9.94219008134678e-05,9.444960596738383e-05,0.0,1000,1000,1000,1000,12600,0,0.002799065550789237,0.0028958837501704693,0.0028365326579660177,0
attack_corridor_base,1,8754,0.00017629134526941925,-4.395435826154426e-05,-0.345550000667572,0.0,0.0,0.0,0.0,0.0,-0.02,-9.94219008134678e-05,9.444960596738383e-05,0.0,1000,1000,1000,1000,12600,0,0.0026405935641378164,0.0025466594379395247,0.002594131277874112,0
attack_corridor_base,1,9087,0.00019598862854763865,-4.349403752712533e-05,-0.34556376934051514,0.0,0.0,0.0,0.0,0.0,-0.03,-9.942178439814597e-05,9.444952593185008e-05,0.0,1000,1000,1000,1000,12600,0,0.00290659093298018,0.002772747306153178,0.0026013520546257496,0
attack_corridor_base,1,9419,0.00019732690998353064,-4.661702405428514e-05,-0.3455757200717926,0.0,0.0,0.0,0.0,0.0,-0.03,-9.942172619048506e-05,9.444954775972292e-05,0.0,1000,1000,1000,1000,12600,0,0.002546093426644802,0.0028094907756894827,0.0028242128901183605,0
attack_corridor_base,1,9754,0.00019914355652872473,-4.476945105125196e-05,-0.34559252858161926,0.0,0.0,0.0,0.0,0.0,-0.03,-9.942172619048506e-05,9.444954775972292e-05,0.0,1000,1000,1000,1000,12600,0,0.002902319421991706,0.0027927812188863754,0.0027743016835302114,0
attack_corridor_base,1,10086,0.00019103572412859648,-4.135636118007824e-05,-0.34561026096343994,-35.3632621,149.1652374,0.0,0.0,0.0,-0.03,-9.942172619048506e-05,9.44494386203587e-05,0.0,1000,1000,1000,1000,12600,0,0.002987554296851158,0.002735811984166503,0.0027733389288187027,3
attack_corridor_base,1,10419,0.0001983738475246355,-3.1616062187822536e-05,-0.3218238949775696,-35.3632621,149.1652374,0.0,0.0,0.0,-0.03,-9.94216970866546e-05,9.444938041269779e-05,0.0,1000,1000,1000,1000,12600,0,0.002842477522790432,0.0030984245240688324,0.002688281238079071,10
attack_corridor_base,1,10751,0.00020025423145852983,-2.1177093003643677e-05,-0.2911577522754669,-35.3632621,149.1652374,0.0,0.0,0.0,-0.03,-9.94216970866546e-05,9.444938041269779e-05,0.0,1000,1000,1000,1000,12600,0,0.0027968203648924828,0.002683978993445635,0.002722721081227064,10
attack_corridor_base,1,11084,0.0002044154389295727,-1.4326644304674119e-05,-0.2559833228588104,-35.3632621,149.1652374,0.0,0.0,0.0,-0.03,-9.94216461549513e-05,9.444936586078256e-05,0.0,1000,1000,1000,1000,12600,0,0.002834558254107833,0.002776398090645671,0.002681996440514922,10
attack_corridor_base,1,11417,0.00020965692237950861,-5.068807240604656e-06,-0.23186461627483368,-35.3632621,149.1652374,0.0,0.0,0.0,-0.03,-9.94216461549513e-05,9.444936586078256e-05,0.0,1000,1000,1000,1000,12600,0,0.002774316817522049,0.0027718034107238054,0.0027553304098546505,10
attack_corridor_base,1,11751,0.00021262145310174674,-1.1923305009986507e-06,-0.20995323359966278,-35.3632621,149.1652374,0.0,0.0,0.0,-0.03,-9.942157339537516e-05,9.444937313674018e-05,0.0,1000,1000,1000,1000,12600,0,0.003285876242443919,0.002664413535967469,0.002423459431156516,10
attack_corridor_base,1,12084,0.0002212194522144273,1.555664130137302e-05,-0.18432870507240295,-35.3632621,149.1652374,0.0,0.0,0.0,-0.02,-9.942158067133278e-05,9.444940951652825e-05,0.0,1000,1000,1000,1000,12600,0,0.002841049572452903,0.0028059801552444696,0.0028030588291585445,10
attack_corridor_base,1,12416,0.000227314347284846,2.315533311048057e-05,-0.16751216351985931,-35.3632621,149.1652374,0.0,0.0,0.0,-0.02,-9.942158067133278e-05,9.444940951652825e-05,0.0,1000,1000,1000,1000,12600,0,0.002742357552051544,0.0028816561680287123,0.0028384968172758818,10
attack_corridor_base,1,12749,0.00023520912509411573,3.1571293220622465e-05,-0.1525307446718216,-35.3632621,149.1652374,0.0,0.0,0.0,-0.02,-9.942167525878176e-05,9.444940224057063e-05,0.0,1000,1000,1000,1000,12600,0,0.0029562206473201513,0.0028220147360116243,0.00294500682502985,10
attack_corridor_base,1,13082,0.00024566694628447294,3.678806751850061e-05,-0.13510970771312714,-35.3632621,149.1652374,0.0,0.0,0.0,-0.02,-9.942163160303608e-05,9.444935858482495e-05,0.0,1000,1000,1000,1000,12600,0,0.0027600470930337906,0.002574001671746373,0.002856604289263487,10
attack_corridor_base,1,13417,0.0002556311374064535,4.367431392893195e-05,-0.12387437373399734,-35.3632621,149.1652374,0.0,0.0,0.0,-0.01,-9.942163160303608e-05,9.444935858482495e-05,0.0,1000,1000,1000,1000,12600,0,0.0026340780314058065,0.0025079986080527306,0.0030569294467568398,10
attack_corridor_base,1,13749,0.0002629850641824305,5.510148548637517e-05,-0.11399826407432556,-35.3632621,149.1652374,0.0,0.0,0.0,-0.01,-9.942160977516323e-05,9.444937313674018e-05,0.0,1000,1000,1000,1000,12600,0,0.0027287532575428486,0.002647017827257514,0.0026362447533756495,10
attack_corridor_base,1,14081,0.00027596153086051345,6.48317436571233e-05,-0.10269610583782196,-35.3632621,149.1652374,0.0,0.0,0.0,-0.01,-9.942155156750232e-05,9.444938041269779e-05,0.0,1000,1000,1000,1000,12600,0,0.002733011730015278,0.0025945070665329695,0.0029936092905700207,10
attack_corridor_base,1,14414,0.0002814794424921274,7.504623499698937e-05,-0.09543521702289581,-35.3632621,149.1652374,0.0,0.0,0.0,-0.01,-9.942155156750232e-05,9.444938041269779e-05,0.0,1000,1000,1000,1000,12600,0,0.002929030219092965,0.0026674920227378607,0.0026080270763486624,10
attack_corridor_base,1,14749,0.0002964272571261972,8.303416689159349e-05,-0.08911678194999695,-35.3632621,149.1652374,0.0,0.0,0.0,-0.01,-9.942151518771425e-05,9.444932948099449e-05,0.0,1000,1000,1000,1000,12600,0,0.0028820382431149483,0.0027171913534402847,0.0027059591375291348,10
attack_corridor_base,1,15082,0.00030961475567892194,9.80048644123599e-05,-0.08180266618728638,-35.3632621,149.1652374,0.0,0.0,0.0,-0.01,-9.942147153196856e-05,9.444930765312165e-05,0.0,1000,1000,1000,1000,12600,0,0.0029785637743771076,0.0026480630040168762,0.0027264521922916174,10
attack_corridor_base,1,15357,0.0003206520341336727,0.00010651929187588394,-0.07719778269529343,-35.3632621,149.1652374,0.0,0.0,0.0,-0.01,-9.942147153196856e-05,9.444930765312165e-05,0.0,1000,1000,1000,1000,12600,0,0.0026857575867325068,0.002826719544827938,0.0028417021967470646,10
attack_corridor_base,1,15607,0.00033108144998550415,0.00011128994083264843,-0.0738343894481659,-35.3632621,149.1652374,0.0,0.0,0.0,-0.01,-9.942150063579902e-05,9.444935130886734e-05,0.0,1000,1000,1000,1000,12600,0,0.0026857575867325068,0.002826719544827938,0.0028417021967470646,10
attack_corridor_base,1,15859,0.0003363890282344073,0.00012000498827546835,-0.07087501883506775,-35.3632621,149.1652374,0.0,0.0,0.0,0.0,-9.942148608388379e-05,9.444936586078256e-05,0.0,1000,1000,1000,1000,12600,0,0.0026922293473035097,0.002791967475786805,0.002570111770182848,10
attack_corridor_base,1,16404,0.00035378028405830264,0.0001375292195007205,-0.06591206789016724,-35.3632621,149.1652374,0.0,0.0,0.0,0.0,-9.942150063579902e-05,9.444938041269779e-05,0.0,1000,1000,1000,1000,12600,0,0.0030702329240739346,0.0028023950289934874,0.0027498232666403055,10
attack_corridor_base,1,16736,0.00036744671524502337,0.0001473736047046259,-0.06364705413579941,-35.3632621,149.1652374,0.0,0.0,0.0,0.0,-9.942150063579902e-05,9.44493876886554e-05,0.0,1000,1000,1000,1000,12600,0,0.003136045066639781,0.002573417266830802,0.0025887133087962866,10
attack_corridor_base,1,17069,0.0003854434471577406,0.00015731259190943092,-0.06091849505901337,-35.3632621,149.1652374,0.0,0.0,0.0,0.0,-9.942147153196856e-05,9.444940224057063e-05,0.0,1000,1000,1000,1000,12600,0,0.0028475781437009573,0.0028414553962647915,0.0027528118807822466,10
attack_corridor_base,1,17402,0.0003952521365135908,0.00016753372619859874,-0.0593029260635376,-35.3632621,149.1652374,0.0,0.0,0.0,0.0,-9.942158794729039e-05,9.444939496461302e-05,0.0,1000,1000,1000,1000,12600,0,0.0030203750357031822,0.002645124914124608,0.003021922428160906,10
attack_corridor_base,1,17734,0.000407739426009357,0.0001763019390637055,-0.05788051337003708,-35.3632621,149.1652374,0.0,0.0,0.0,0.0,-9.942162432707846e-05,9.444939496461302e-05,0.0,1000,1000,1000,1000,12600,0,0.0030203750357031822,0.002645124914124608,0.003021922428160906,10
attack_corridor_base,1,18069,0.0004233606450725347,0.0001971257443074137,-0.0563378632068634,-35.3632621,149.1652374,0.0,0.0,0.0,0.0,-9.94216461549513e-05,9.444936586078256e-05,0.0,1000,1000,1000,1000,12600,0,0.002989667234942317,0.002789180027320981,0.002725282683968544,10
attack_corridor_base,1,18401,0.0004345840716268867,0.00020965062140021473,-0.055410467088222504,-35.3632621,149.1652374,0.0,0.0,0.0,0.0,-9.942166070686653e-05,9.444934403290972e-05,0.0,1000,1000,1000,1000,12600,0,0.0025717171374708414,0.0026431127917021513,0.0026143465656787157,10
attack_corridor_base,1,18734,0.00044653777149505913,0.0002237146400148049,-0.05466530844569206,-35.3632621,149.1652374,0.0,0.0,0.0,0.0,-9.942160249920562e-05,9.44492785492912e-05,0.0,1000,1000,1000,1000,12600,0,0.0026709402445703745,0.0028625221457332373,0.0029632756486535072,10
attack_corridor_base,1,19066,0.00047134869964793324,0.00024373148335143924,-0.0539090558886528,-35.3632621,149.1652374,0.0,0.0,0.0,0.0,-9.94216461549513e-05,9.444930037716404e-05,0.0,1000,1000,1000,1000,12600,0,0.0030186439398676157,0.003182864049449563,0.002685868414118886,10
attack_corridor_base,1,19399,0.0004829938698094338,0.00025361651205457747,-0.053530775010585785,-35.3632621,149.1652374,0.0,0.0,0.0,0.0,-9.94216461549513e-05,9.444930037716404e-05,0.0,1000,1000,1000,1000,12600,0,0.0030617217998951674,0.0029169057961553335,0.002698404947295785,10
attack_corridor_base,1,19732,0.0004990544985048473,0.00026610007626004517,-0.053205981850624084,-35.3632621,149.1652374,0.0,0.0,0.0,0.0,-9.94216461549513e-05,9.444933675695211e-05,0.0,1000,1000,1000,1000,12600,0,0.0029025983531028032,0.0027596165891736746,0.002531386213377118,10
attack_corridor_base,1,20066,0.0005278913886286318,0.0002879393578041345,-0.05277063697576523,-35.3632621,149.1652374,0.007,0.0,0.0,0.0,-9.942174074240029e-05,9.444937313674018e-05,0.0,1000,1000,1000,1000,12600,0,0.0027279534842818975,0.002765393815934658,0.0028355016838759184,10
attack_corridor_base,1,20399,0.0005368191050365567,0.00030366398277692497,-0.052651308476924896,-35.3632621,149.1652374,-0.008,0.0,0.0,0.0,-9.942174074240029e-05,9.444937313674018e-05,0.0,1000,1000,1000,1000,12600,0,0.00305043812841177,0.0028634134214371443,0.002872039098292589,10
attack_corridor_base,1,20731,0.0005514047225005925,0.0003212645824532956,-0.0526735857129097,-35.3632621,149.1652374,-0.008,0.0,0.0,0.0,-9.942173346644267e-05,9.444940224057063e-05,0.0,1000,1000,1000,1000,12600,0,0.0029669685754925013,0.0029299927409738302,0.0029185034800320864,10
attack_corridor_base,1,21064,0.0005706682568415999,0.0003412864462006837,-0.05278816446661949,-35.3632621,149.1652374,-0.006,0.0,0.0,0.0,-9.942177712218836e-05,9.444940224057063e-05,0.0,1000,1000,1000,1000,12600,0,0.0029243009630590677,0.002814233535900712,0.003073505824431777,10
attack_corridor_base,1,21397,0.0005899391253478825,0.00035374489380046725,-0.0529729500412941,-35.3632621,149.1652374,-0.004,0.0,0.0,0.0,-9.942177712218836e-05,9.444940224057063e-05,0.0,1000,1000,1000,1000,12600,0,0.0026053101755678654,0.002732535358518362,0.0029468010179698467,10
attack_corridor_base,1,21732,0.0006055032135918736,0.00037235626950860023,-0.05316673591732979,-35.3632621,149.1652374,-0.003,0.0,0.0,0.0,-9.942181350197643e-05,9.444936586078256e-05,0.0,1000,1000,1000,1000,12600,0,0.00286831334233284,0.002937727840617299,0.0027947674971073866,10
attack_corridor_base,1,22064,0.0006319235544651747,0.0003921729512512684,-0.0534815639257431,-35.3632621,149.1652374,-0.002,0.0,0.01,0.0,-9.942184260580689e-05,9.444942406844348e-05,0.0,1000,1000,1000,1000,12600,0,0.0029351834673434496,0.002850970486178994,0.0028481697663664818,10
attack_corridor_base,1,22396,0.0006514656124636531,0.00041099346708506346,-0.05377768352627754,-35.3632621,149.1652374,0.0,0.0,0.01,0.0,-9.942184260580689e-05,9.444942406844348e-05,0.0,1000,1000,1000,1000,12600,0,0.0025309640914201736,0.0030452816281467676,0.002696580719202757,10
attack_corridor_base,1,22729,0.0006674038013443351,0.0004347999638412148,-0.054095152765512466,-35.3632621,149.1652374,0.0,0.0,0.01,0.0,-9.942192991729826e-05,9.444945317227393e-05,0.0,1000,1000,1000,1000,12600,0,0.002631719456985593,0.0028222494293004274,0.0026543496642261744,10
attack_corridor_base,1,23064,0.000693602894898504,0.0004571139288600534,-0.05456743389368057,-35.3632621,149.1652374,0.0,0.0,0.01,0.0,-9.942193719325587e-05,9.444944589631632e-05,0.0,1000,1000,1000,1000,12600,0,0.002860903274267912,0.0026370221748948097,0.0028156302869319916,10
attack_corridor_base,1,23397,0.0007063585217110813,0.0004746740742120892,-0.05499819293618202,-35.3632621,149.1652374,0.001,-0.01,0.01,0.0,-9.942193719325587e-05,9.444944589631632e-05,0.0,1000,1000,1000,1000,12600,0,0.0027320978697389364,0.002576411236077547,0.002767595462501049,10
attack_corridor_base,1,23729,0.0007212353521026671,0.0004887895775027573,-0.055383820086717606,-35.3632621,149.1652374,0.002,-0.01,0.01,0.0,-9.942185715772212e-05,9.444944589631632e-05,0.0,1000,1000,1000,1000,12600,0,0.0028364714235067368,0.002788244280964136,0.002864127978682518,10
attack_corridor_base,1,24062,0.000741565425414592,0.000514462823048234,-0.055922649800777435,-35.3632621,149.1652374,0.002,-0.01,0.01,0.0,-9.942186443367973e-05,9.444942406844348e-05,0.0,1000,1000,1000,1000,12600,0,0.00285030878148973,0.002513387706130743,0.0028685773722827435,10
attack_corridor_base,1,24394,0.0007540453807450831,0.0005264673964120448,-0.05637507140636444,-35.3632621,149.1652374,0.002,-0.01,0.01,0.0,-9.942186443367973e-05,9.444942406844348e-05,0.0,1000,1000,1000,1000,12600,0,0.00293529755435884,0.002587818307802081,0.0027140998281538486,10
attack_corridor_base,1,24729,0.0007703019655309618,0.000544562004506588,-0.056799765676259995,-35.3632621,149.1652374,0.002,-0.01,0.01,0.0,-9.942190808942541e-05,9.444947500014678e-05,0.0,1000,1000,1000,1000,12600,0,0.0030009716283529997,0.002865459304302931,0.002829906763508916,10
attack_corridor_base,1,25061,0.0007913521840237081,0.0005675735883414745,-0.05739479139447212,-35.3632621,149.1652374,0.003,-0.01,0.01,0.0,-9.942190808942541e-05,9.444949682801962e-05,0.0,1000,1000,1000,1000,12600,0,0.0028681184630841017,0.002824545605108142,0.0026462720707058907,10
attack_corridor_base,1,25394,0.0008015369530767202,0.0005788433481939137,-0.05785876512527466,-35.3632621,149.1652374,0.003,-0.01,0.01,0.0,-9.942190808942541e-05,9.444949682801962e-05,0.0,1000,1000,1000,1000,12600,0,0.0027672061696648598,0.0028023626655340195,0.0028224620036780834,10
attack_corridor_base,1,25727,0.0008209077641367912,0.0005977389519102871,-0.05821184068918228,-35.3632621,149.1652374,0.003,-0.01,0.01,0.0,-9.94219008134678e-05,9.444952593185008e-05,0.0,1000,1000,1000,1000,12600,0,0.0028350551147013903,0.0028167262207716703,0.0027275944594293833,10
attack_corridor_base,1,26059,0.0008367833797819912,0.0006179963820613921,-0.05884246155619621,-35.3632621,149.1652374,0.002,-0.01,0.01,0.0,-9.942190808942541e-05,9.444949682801962e-05,0.0,1000,1000,1000,1000,12600,0,0.002772945910692215,0.002759011695161462,0.0027453654911369085,10
attack_corridor_base,1,26394,0.0008518789545632899,0.0006201983196660876,-0.05933098495006561,-35.3632621,149.1652374,0.002,-0.01,0.01,0.0,-9.942190808942541e-05,9.444949682801962e-05,0.0,1000,1000,1000,1000,12600,0,0.0026888647116720676,0.0028607838321477175,0.002915083896368742,10
attack_corridor_base,1,26726,0.0008660309249535203,0.0006308039301075041,-0.05981927737593651,-35.3632621,149.1652374,0.002,-0.01,0.01,0.0,-9.942191536538303e-05,9.444945317227393e-05,0.0,1000,1000,1000,1000,12600,0,0.0026074829511344433,0.002996243769302964,0.0025523481890559196,10
attack_corridor_base,1,27059,0.000879240978974849,0.000644546584226191,-0.060475435107946396,-35.3632621,149.1652374,0.002,-0.01,0.01,0.0,-9.942195902112871e-05,9.444947500014678e-05,0.0,1000,1000,1000,1000,12600,0,0.002841055393218994,0.0030397134833037853,0.0028528915718197823,10
attack_corridor_base,1,27391,0.0008936789236031473,0.0006558611639775336,-0.06097156181931496,-35.3632621,149.1652374,0.002,-0.01,0.01,0.0,-9.942195902112871e-05,9.444947500014678e-05,0.0,1000,1000,1000,1000,12600,0,0.002658543409779668,0.002786374418064952,0.002769303508102894,10
attack_corridor_base,1,27724,0.0009033368551172316,0.0006644395180046558,-0.0615016371011734,-35.3632621,149.1652374,0.001,-0.01,0.01,0.0,-9.94219517451711e-05,9.444947500014678e-05,0.0,1000,1000,1000,1000,12600,0,0.002790960716083646,0.0026692142710089684,0.0025212105829268694,10
attack_corridor_base,1,28057,0.0009183782385662198,0.000679098186083138,-0.062144141644239426,-35.3632621,149.1652374,0.001,-0.01,0.01,0.0,-9.942203905666247e-05,9.444957686355338e-05,0.0,1000,1000,1000,1000,12600,0,0.0028911365661770105,0.0029997029341757298,0.002678951248526573,10
attack_corridor_base,1,28391,0.0009284911793656647,0.0006908958312124014,-0.06265416741371155,-35.3632621,149.1652374,0.001,-0.01,0.01,0.0,-9.942203905666247e-05,9.444957686355338e-05,0.0,1000,1000,1000,1000,12600,0,0.002855586586520076,0.0027718478813767433,0.0029715895652770996,10
attack_corridor_base,1,28724,0.0009449574863538146,0.000705892569385469,-0.06312678754329681,-35.3632621,149.1652374,0.0,-0.01,0.01,0.0,-9.942209726432338e-05,9.444961324334145e-05,0.0,1000,1000,1000,1000,12600,0,0.0027498495765030384,0.0028545507229864597,0.0030537517741322517,10
attack_corridor_base,1,29056,0.0009524795459583402,0.0007237637182697654,-0.06376485526561737,-35.3632621,149.1652374,0.0,-0.01,0.01,0.0,-9.94222064036876e-05,9.444967145100236e-05,0.0,1000,1000,1000,1000,12600,0,0.0027981982566416264,0.002679290482774377,0.002550323959439993,10
attack_corridor_base,1,29389,0.0009673805325292051,0.0007376079447567463,-0.0642370730638504,-35.3632621,149.1652374,0.0,-0.01,0.01,0.0,-9.94222064036876e-05,9.444967145100236e-05,0.0,1000,1000,1000,1000,12600,0,0.0028588466811925173,0.002764992881566286,0.0026270453818142414,10
attack_corridor_base,1,29722,0.000977652263827622,0.000744497636333108,-0.06471946090459824,-35.3632621,149.1652374,0.0,-0.01,0.02,0.0,-9.94223082670942e-05,9.444972238270566e-05,0.0,1000,1000,1000,1000,12600,0,0.00256657344289124,0.0028908608946949244,0.0027685107197612524,10
attack_corridor_base,1,30057,0.000989336520433426,0.0007620344404131174,-0.0653570294380188,-35.3632621,149.1652374,0.0,-0.01,0.02,0.0,-9.942240285454318e-05,9.444980241823941e-05,0.0,1000,1000,1000,1000,12600,0,0.002996449125930667,0.0027036869432777166,0.0031204952392727137,10
attack_corridor_base,1,30357,0.0009989721002057195,0.0007763414760120213,-0.06582410633563995,-35.3632621,149.1652374,-0.001,-0.01,0.02,0.0,-9.942240285454318e-05,9.444980241823941e-05,0.0,1000,1000,1000,1000,12600,0,0.0026399451307952404,0.002800282323732972,0.0031197452917695045,10
attack_corridor_base,1,30609,0.0009989721002057195,0.0007763414760120213,-0.06582410633563995,-35.3632621,149.1652374,-0.001,-0.01,0.02,0.0,-9.942236647475511e-05,9.444978059036657e-05,0.0,1000,1000,1000,1000,12600,0,0.0026399451307952404,0.002800282323732972,0.0031197452917695045,10
attack_corridor_base,1,30859,0.001013713190332055,0.000789450656156987,-0.06658260524272919,-35.3632621,149.1652374,-0.001,-0.01,0.02,0.0,-9.942243195837364e-05,9.444985334994271e-05,0.0,1000,1000,1000,1000,12600,0,0.0027452956419438124,0.0027041237335652113,0.0029417253099381924,10
attack_corridor_base,1,31109,0.0010161208920180798,0.0007937330519780517,-0.06688530743122101,-35.3632621,149.1652374,-0.002,-0.01,0.02,0.0,-9.942248289007694e-05,9.444986062590033e-05,0.0,1000,1000,1000,1000,12600,0,0.0025769108906388283,0.0027669810224324465,0.0030055949464440346,10
attack_corridor_base,1,31359,0.001030342886224389,0.0007992911268956959,-0.06733454763889313,-35.3632621,149.1652374,-0.002,-0.01,0.02,0.0,-9.942250471794978e-05,9.444992610951886e-05,0.0,1000,1000,1000,1000,12600,0,0.002702842466533184,0.002921517239883542,0.0027641686610877514,10
attack_corridor_base,1,31607,0.0010369656374678016,0.0008050797041505575,-0.06763133406639099,-35.3632621,149.1652374,-0.002,-0.01,0.02,0.0,-9.942253382178023e-05,9.444995521334931e-05,0.0,1000,1000,1000,1000,12600,0,0.0028622495010495186,0.002820268040522933,0.002973902504891157,10
attack_corridor_base,1,31857,0.0010430871043354273,0.0008086699526757002,-0.06799647212028503,-35.3632621,149.1652374,-0.003,-0.01,0.02,0.0,-9.942249744199216e-05,9.444991883356124e-05,0.0,1000,1000,1000,1000,12600,0,0.0028622495010495186,0.002820268040522933,0.002973902504891157,10
attack_corridor_base,1,32107,0.0010434004943817854,0.0008108610054478049,-0.06830248981714249,-35.3632621,149.1652374,-0.003,-0.01,0.02,0.0,-9.942249016603455e-05,9.444988972973078e-05,0.0,1000,1000,1000,1000,12600,0,0.0027037642430514097,0.002910866402089596,0.002692691283300519,10
attack_corridor_base,1,32357,0.0010568011784926057,0.000819704495370388,-0.06873525679111481,-35.3632621,149.1652374,-0.003,-0.01,0.02,0.0,-9.942246833816171e-05,9.444993338547647e-05,0.0,1000,1000,1000,1000,12600,0,0.002935573924332857,0.0027033109217882156,0.002622895175591111,10
attack_corridor_base,1,32609,0.0010620704852044582,0.0008244052878580987,-0.06904489547014236,-35.3632621,149.1652374,-0.003,-0.01,0.02,0.0,-9.9422519269865e-05,9.444997704122216e-05,0.0,1000,1000,1000,1000,12600,0,0.0026793594006448984,0.002590976655483246,0.0029935468919575214,10
attack_corridor_base,1,32859,0.001068339217454195,0.0008413352188654244,-0.06946918368339539,-35.3632621,149.1652374,-0.004,-0.01,0.02,0.0,-9.9422519269865e-05,9.444997704122216e-05,0.0,1000,1000,1000,1000,12600,0,0.0026793594006448984,0.002590976655483246,0.0029935468919575214,10
attack_corridor_base,1,33109,0.0010743619641289115,0.0008467589505016804,-0.06975547224283218,-35.3632621,149.1652374,-0.004,-0.01,0.02,0.0,-9.942254109773785e-05,9.444991883356124e-05,0.0,1000,1000,1000,1000,12600,0,0.0027802838012576103,0.0028288832399994135,0.002936494769528508,10
attack_corridor_base,1,33359,0.0010888114338740706,0.0008590685902163386,-0.07017987966537476,-35.3632621,149.1652374,-0.004,-0.01,0.02,0.0,-9.942254109773785e-05,9.444991883356124e-05,0.0,1000,1000,1000,1000,12600,0,0.002818884328007698,0.002667489228770137,0.0025642921682447195,10
attack_corridor_base,1,33877,0.0011115901870653033,0.0008753788424655795,-0.07090137153863907,-35.3632621,149.1652374,-0.004,-0.02,0.02,0.0,-9.942254109773785e-05,9.444993338547647e-05,0.0,1000,1000,1000,1000,12600,0,0.0027249380946159363,0.002907590242102742,0.0027782092802226543,10
attack_corridor_base,1,34209,0.0011178819695487618,0.0008828527643345296,-0.07131095975637436,-35.3632621,149.1652374,-0.005,-0.02,0.02,0.0,-9.942249016603455e-05,9.444997704122216e-05,0.0,1000,1000,1000,1000,12600,0,0.0031914161518216133,0.002531775739043951,0.002699860604479909,10
attack_corridor_base,1,34542,0.0011251945979893208,0.0008955218363553286,-0.07171037048101425,-35.3632621,149.1652374,-0.005,-0.02,0.02,0.0,-9.942249016603455e-05,9.444997704122216e-05,0.0,1000,1000,1000,1000,12600,0,0.0028338609263300896,0.002719891257584095,0.00280877691693604,10
attack_corridor_base,1,34874,0.0011386898113414645,0.0009127252851612866,-0.0722491592168808,-35.3632621,149.1652374,-0.005,-0.02,0.02,0.0,-9.942241740645841e-05,9.444995521334931e-05,0.0,1000,1000,1000,1000,12600,0,0.002584250411018729,0.0028852573595941067,0.0029567654710263014,10
attack_corridor_base,1,35209,0.001147228991612792,0.0009203241788782179,-0.07263882458209991,-35.3632621,149.1652374,-0.005,-0.02,0.02,0.0,-9.942235192283988e-05,9.444994066143408e-05,0.0,1000,1000,1000,1000,12600,0,0.002920780796557665,0.002930166432633996,0.0026169857010245323,10
attack_corridor_base,1,35541,0.00115587015170604,0.0009297932265326381,-0.07302995771169662,-35.3632621,149.1652374,-0.005,-0.02,0.02,0.0,-9.942235192283988e-05,9.444994066143408e-05,0.0,1000,1000,1000,1000,12600,0,0.0025680423714220524,0.0029486236162483692,0.0024867174215614796,10
attack_corridor_base,1,35874,0.0011620547156780958,0.0009309918386861682,-0.07356806844472885,-35.3632621,149.1652374,-0.005,-0.02,0.02,0.0,-9.942236647475511e-05,9.444992610951886e-05,0.0,1000,1000,1000,1000,12600,0,0.002635486889630556,0.002852262696251273,0.0028150028083473444,10
attack_corridor_base,1,36207,0.0011671427637338638,0.0009444550960324705,-0.07386185228824615,-35.3632621,149.1652374,-0.005,-0.02,0.02,0.0,-9.942231554305181e-05,9.444993338547647e-05,0.0,1000,1000,1000,1000,12600,0,0.0028159948997199535,0.002762617776170373,0.0029491554014384747,10
attack_corridor_base,1,36539,0.0011780745116993785,0.000956025265622884,-0.07424092292785645,-35.3632621,149.1652374,-0.005,-0.02,0.02,0.0,-9.942231554305181e-05,9.444993338547647e-05,0.0,1000,1000,1000,1000,12600,0,0.003028032137081027,0.0026211885269731283,0.0026488269213587046,10
attack_corridor_base,1,36874,0.0011888897279277444,0.0009762898553162813,-0.07474085688591003,-35.3632621,149.1652374,-0.005,-0.02,0.02,0.0,-9.942233737092465e-05,9.444991883356124e-05,0.0,1000,1000,1000,1000,12600,0,0.0025678062811493874,0.0027781459502875805,0.0026286987122148275,10
attack_corridor_base,1,37206,0.0011968851322308183,0.0009904872858896852,-0.07509861141443253,-35.3632621,149.1652374,-0.005,-0.02,0.02,0.0,-9.942234464688227e-05,9.444988972973078e-05,0.0,1000,1000,1000,1000,12600,0,0.0030023495201021433,0.0029136084485799074,0.00278270966373384,10
attack_corridor_base,1,37539,0.0012097891885787249,0.001000493997707963,-0.07546336948871613,-35.3632621,149.1652374,-0.005,-0.02,0.02,0.0,-9.942234464688227e-05,9.444988972973078e-05,0.0,1000,1000,1000,1000,12600,0,0.0029369969852268696,0.002547783311456442,0.0026297729928046465,10
attack_corridor_base,1,37872,0.001212222152389586,0.0010180154349654913,-0.07593413442373276,-35.3632621,149.1652374,-0.006,-0.02,0.02,0.0,-9.942234464688227e-05,9.444991883356124e-05,0.0,1000,1000,1000,1000,12600,0,0.002790492493659258,0.00271283695474267,0.002727466868236661,10
attack_corridor_base,1,38204,0.001223316416144371,0.0010321707231923938,-0.07630231976509094,-35.3632621,149.1652374,-0.006,-0.02,0.02,0.0,-9.942233737092465e-05,9.444986062590033e-05,0.0,1000,1000,1000,1000,12600,0,0.003037301590666175,0.0026336703449487686,0.002519006375223398,10
attack_corridor_base,1,38537,0.0012302488321438432,0.0010402386542409658,-0.0766511932015419,-35.3632621,149.1652374,-0.006,-0.02,0.02,0.0,-9.942233737092465e-05,9.444986062590033e-05,0.0,1000,1000,1000,1000,12600,0,0.003132635960355401,0.002984284656122327,0.0028225777205079794,10
attack_corridor_base,1,38871,0.0012435457902029157,0.0010528115089982748,-0.07711661607027054,-35.3632621,149.1652374,-0.006,-0.02,0.02,0.0,-9.942233009496704e-05,9.444986790185794e-05,0.0,1000,1000,1000,1000,12600,0,0.0028307917527854443,0.00294807949103415,0.0029574709478765726,10
attack_corridor_base,1,39204,0.0012484278995543718,0.0010654297657310963,-0.07745540887117386,-35.3632621,149.1652374,-0.006,-0.02,0.02,0.0,-9.942228643922135e-05,9.444988245377317e-05,0.0,1000,1000,1000,1000,12600,0,0.0026935951318591833,0.0029616649262607098,0.0027761035598814487,10
attack_corridor_base,1,39536,0.001247202861122787,0.001069388585165143,-0.07779276371002197,-35.3632621,149.1652374,-0.006,-0.02,0.02,0.0,-9.942228643922135e-05,9.444988245377317e-05,0.0,1000,1000,1000,1000,12600,0,0.0027997097931802273,0.0028482750058174133,0.0028740677516907454,10
attack_corridor_base,1,39869,0.0012582344934344292,0.0010786436032503843,-0.07822629809379578,-35.3632621,149.1652374,-0.006,-0.02,0.02,0.0,-9.942227916326374e-05,9.444990428164601e-05,0.0,1000,1000,1000,1000,12600,0,0.002870863536372781,0.0028827551286667585,0.002606562338769436,10
attack_corridor_base,1,40202,0.0012629164848476648,0.0010837418958544731,-0.07856393605470657,-35.3632621,149.1652374,-0.006,-0.02,0.02,0.0,-9.942224278347567e-05,9.444991155760363e-05,0.0,1000,1000,1000,1000,12600,0,0.0028405897319316864,0.0030798129737377167,0.003083019284531474,10
attack_corridor_base,1,40537,0.0012767279986292124,0.0010923939989879727,-0.07886937260627747,-35.3632621,149.1652374,-0.006,-0.02,0.02,0.0,-9.942224278347567e-05,9.444991155760363e-05,0.0,1000,1000,1000,1000,12600,0,0.0026965977158397436,0.002718852600082755,0.0025690398178994656,10
attack_corridor_base,1,40869,0.0012829873012378812,0.0010952057782560587,-0.07926419377326965,-35.3632621,149.1652374,-0.006,-0.02,0.02,0.0,-9.942224278347567e-05,9.444992610951886e-05,0.0,1000,1000,1000,1000,12600,0,0.002788220066577196,0.002786675002425909,0.0026042736135423183,10
attack_corridor_base,1,41201,0.001289098639972508,0.001109472243115306,-0.07953910529613495,-35.3632621,149.1652374,-0.006,-0.02,0.02,0.0,-9.942227916326374e-05,9.444994066143408e-05,0.0,1000,1000,1000,1000,12600,0,0.0027087556663900614,0.00305580860003829,0.002641456900164485,10
attack_corridor_base,1,41534,0.001297951559536159,0.0011149098863825202,-0.07984587550163269,-35.3632621,149.1652374,-0.006,-0.02,0.02,0.0,-9.942227916326374e-05,9.444994066143408e-05,0.0,1000,1000,1000,1000,12600,0,0.0030662682838737965,0.0030182928312569857,0.0027289579156786203,10
attack_corridor_base,1,41869,0.001330461003817618,0.0011534467339515686,-0.08024933934211731,-35.3632621,149.1652374,-0.006,0.0,0.0,0.0,-9.94223082670942e-05,9.444991883356124e-05,0.0,1000,1000,1000,1000,12600,0,0.002923295134678483,0.0027170637622475624,0.0029292351100593805,10
attack_corridor_base,1,42202,0.0014141672290861607,0.0012334982166066766,-0.0805603563785553,-35.3632621,149.1652374,-0.006,0.0,0.0,0.0,-9.942231554305181e-05,9.444991883356124e-05,0.0,1000,1000,1000,1000,12600,0,0.00278769270516932,0.002695417031645775,0.002725916914641857,10
attack_corridor_base,1,42534,0.0014814157038927078,0.0013018902391195297,-0.0808638483285904,-35.3632621,149.1652374,-0.006,0.0,0.0,0.0,-9.942231554305181e-05,9.444991883356124e-05,0.0,1000,1000,1000,1000,12600,0,0.0029845014214515686,0.0026858218479901552,0.0028065007645636797,10
attack_corridor_base,1,42867,0.0015591070987284184,0.0013834730489179492,-0.08126340806484222,-35.3632621,149.1652374,-0.006,0.0,0.01,0.0,-9.942228643922135e-05,9.444991883356124e-05,0.0,1000,1000,1000,1000,12600,0,0.0026949825696647167,0.002716650255024433,0.00248666456900537,10
attack_corridor_base,1,43199,0.001613575965166092,0.00143431278411299,-0.08157432079315186,-35.3632621,149.1652374,-0.006,-0.01,0.01,0.0,-9.942231554305181e-05,9.444992610951886e-05,0.0,1000,1000,1000,1000,12600,0,0.0029285673517733812,0.0027780395466834307,0.0027117941062897444,10
attack_corridor_base,1,43534,0.0016458372119814157,0.0014618478016927838,-0.0818808525800705,-35.3632621,149.1652374,-0.006,-0.01,0.01,0.0,-9.942231554305181e-05,9.444992610951886e-05,0.0,1000,1000,1000,1000,12600,0,0.002766667166724801,0.002890768926590681,0.002636379562318325,10
attack_corridor_base,1,43866,0.0016593700274825096,0.0014779642224311829,-0.082286037504673,-35.3632621,149.1652374,-0.006,-0.01,0.01,0.0,-9.94223591987975e-05,9.444986790185794e-05,0.0,1000,1000,1000,1000,12600,0,0.0028932082932442427,0.00292892474681139,0.0026246116030961275,10
attack_corridor_base,1,44199,0.0016459139296784997,0.0014651946257799864,-0.08259473741054535,-35.3632621,149.1652374,-0.006,-0.01,0.01,0.0,-9.942238102667034e-05,9.444988245377317e-05,0.0,1000,1000,1000,1000,12600,0,0.0028680171817541122,0.002861366141587496,0.0031038366723805666,10
attack_corridor_base,1,44532,0.0016267580213025212,0.0014406954869627953,-0.08288723975419998,-35.3632621,149.1652375,-0.006,-0.01,0.02,0.0,-9.942238102667034e-05,9.444988245377317e-05,0.0,1000,1000,1000,1000,12600,0,0.002907245187088847,0.0029565300792455673,0.0027256025932729244,10
attack_corridor_base,1,44864,0.0015725636621937156,0.0013897912576794624,-0.08325105160474777,-35.3632621,149.1652375,-0.006,-0.01,0.02,0.0,-9.94223591987975e-05,9.444986790185794e-05,0.0,1000,1000,1000,1000,12600,0,0.002549258526414633,0.002899375045672059,0.0026221508160233498,10
attack_corridor_base,1,45359,0.001479779719375074,0.0012987024383619428,-0.08371084183454514,-35.3632622,149.1652375,-0.006,-0.01,0.02,0.0,-9.942233009496704e-05,9.444985334994271e-05,0.0,1000,1000,1000,1000,12600,0,0.0027992676477879286,0.002847717609256506,0.0026398675981909037,10
attack_corridor_base,1,45609,0.0014392905868589878,0.0012611208949238062,-0.08392900973558426,-35.3632622,149.1652375,-0.006,-0.01,0.02,0.0,-9.942233737092465e-05,9.444988972973078e-05,0.0,1000,1000,1000,1000,12600,0,0.0027992676477879286,0.002847717609256506,0.0026398675981909037,10
attack_corridor_base,1,45859,0.0013833766570314765,0.0012024238239973783,-0.0841258093714714,-35.3632622,149.1652375,-0.006,-0.01,0.02,0.0,-9.942232281900942e-05,9.444988245377317e-05,0.0,1000,1000,1000,1000,12600,0,0.0030986382625997066,0.0027661113999783993,0.0028485991060733795,10
attack_corridor_base,1,46109,0.0013420513132587075,0.001157171092927456,-0.0843360424041748,-35.3632622,149.1652375,-0.006,-0.01,0.01,0.0,-9.942230099113658e-05,9.444987517781556e-05,0.0,1000,1000,1000,1000,12600,0,0.002964441664516926,0.0029269512742757797,0.002818138338625431,10
attack_corridor_base,1,46357,0.001302325981669128,0.0011121886782348156,-0.0845024436712265,-35.3632622,149.1652375,-0.006,-0.01,0.01,0.0,-9.942227916326374e-05,9.444988245377317e-05,0.0,1000,1000,1000,1000,12600,0,0.0026376990135759115,0.0026923753321170807,0.002795394277200103,10
attack_corridor_base,1,46607,0.0012755653588101268,0.0010910893324762583,-0.08466821908950806,-35.3632622,149.1652375,-0.006,-0.01,0.01,0.0,-9.942231554305181e-05,9.444991883356124e-05,0.0,1000,1000,1000,1000,12600,0,0.0025980600621551275,0.002760016592219472,0.002596876583993435,10
attack_corridor_base,1,46857,0.0012299279915168881,0.0010512996232137084,-0.08486584573984146,-35.3632622,149.1652375,-0.006,-0.01,0.01,0.0,-9.942226461134851e-05,9.444991155760363e-05,0.0,1000,1000,1000,1000,12600,0,0.0029620593413710594,0.0027733377646654844,0.002418660558760166,10
attack_corridor_base,1,47109,0.001197610516101122,0.001022752607241273,-0.08504755795001984,-35.3632621,149.1652375,-0.006,-0.01,0.01,0.0,-9.942224278347567e-05,9.444992610951886e-05,0.0,1000,1000,1000,1000,12600,0,0.0028424265328794718,0.0027120981831103563,0.0024378583766520023,10
attack_corridor_base,1,47359,0.0011716082226485014,0.0010006602387875319,-0.08523144572973251,-35.3632621,149.1652375,-0.006,-0.01,0.01,0.0,-9.942222095560282e-05,9.444990428164601e-05,0.0,1000,1000,1000,1000,12600,0,0.002942302729934454,0.00285010295920074,0.0027276657056063414,10
attack_corridor_base,1,47609,0.0011574157979339361,0.0009868261404335499,-0.08540232479572296,-35.3632621,149.1652375,-0.006,-0.01,0.01,0.0,-9.942217729985714e-05,9.444986790185794e-05,0.0,1000,1000,1000,1000,12600,0,0.0027303090319037437,0.0027330066077411175,0.002782264491543174,10
attack_corridor_base,1,47859,0.0011315657757222652,0.0009639391209930182,-0.08558480441570282,-35.3632621,149.1652375,-0.006,-0.01,0.01,0.0,-9.942214819602668e-05,9.444982424611226e-05,0.0,1000,1000,1000,1000,12600,0,0.002810887759551406,0.002708232030272484,0.002716965042054653,10
attack_corridor_base,1,48109,0.0011161502916365862,0.0009478863212279975,-0.08574502170085907,-35.3632621,149.1652375,-0.006,-0.01,0.01,0.0,-9.942212636815384e-05,9.444983152206987e-05,0.0,1000,1000,1000,1000,12600,0,0.0030491205397993326,0.002733191242441535,0.002740527968853712,10
attack_corridor_base,1,48357,0.001106012612581253,0.00093677086988464,-0.08592470735311508,-35.3632621,149.1652375,-0.006,-0.01,0.01,0.0,-9.9422104540281e-05,9.444981697015464e-05,0.0,1000,1000,1000,1000,12600,0,0.0027207722887396812,0.0029172629583626986,0.0028043659403920174,10
attack_corridor_base,1,48607,0.0010997147765010595,0.0009313396876677871,-0.08608714491128922,-35.3632621,149.1652375,-0.006,-0.01,0.01,0.0,-9.942207543645054e-05,9.444981697015464e-05,0.0,1000,1000,1000,1000,12600,0,0.002890377538278699,0.0026794741861522198,0.0029869847930967808,10
attack_corridor_base,1,48857,0.0010899577755481005,0.00092239526566118,-0.08624351769685745,-35.3632621,149.1652375,-0.006,-0.01,0.01,0.0,-9.942206816049293e-05,9.444978786632419e-05,0.0,1000,1000,1000,1000,12600,0,0.002804914489388466,0.003062453819438815,0.002783847041428089,10
attack_corridor_base,1,49107,0.0010843358468264341,0.0009157821768894792,-0.08641350269317627,-35.3632621,149.1652375,-0.006,-0.01,0.01,0.0,-9.942201722878963e-05,9.444976603845134e-05,0.0,1000,1000,1000,1000,12600,0,0.0029323778580874205,0.0030525163747370243,0.0026932063046842813,10
attack_corridor_base,1,49359,0.0010836297878995538,0.0009114728891290724,-0.0865660011768341,-35.3632621,149.1652375,-0.006,-0.01,0.01,0.0,-9.942196629708633e-05,9.444973693462089e-05,0.0,1000,1000,1000,1000,12600,0,0.002685017418116331,0.002609838033095002,0.002766446676105261,10
attack_corridor_base,1,49609,0.001083314185962081,0.0009116774308495224,-0.08672421425580978,-35.3632621,149.1652375,-0.006,-0.01,0.01,0.0,-9.942197357304394e-05,9.444972965866327e-05,0.0,1000,1000,1000,1000,12600,0,0.0027467922773212194,0.0029318167362362146,0.0026389684062451124,10
attack_corridor_base,1,49859,0.0010767091298475862,0.0009133914718404412,-0.08688103407621384,-35.3632621,149.1652375,-0.006,-0.01,0.01,0.0,-9.942198812495917e-05,9.444971510674804e-05,0.0,1000,1000,1000,1000,12600,0,0.0026736531872302294,0.0027801760006695986,0.0026876882184296846,10
attack_corridor_base,1,50109,0.0010772880632430315,0.0009144202340394258,-0.08704080432653427,-35.3632621,149.1652375,-0.006,-0.01,0.01,0.0,-9.942198812495917e-05,9.444970055483282e-05,0.0,1000,1000,1000,1000,12600,0,0.002833524253219366,0.0027619735337793827,0.0027765596751123667,10
attack_corridor_base,1,50357,0.0010809910017997026,0.0009157849126495421,-0.08718764036893845,-35.3632621,149.1652375,-0.006,-0.01,0.01,0.0,-9.942198084900156e-05,9.444967145100236e-05,0.0,1000,1000,1000,1000,12600,0,0.0024278932251036167,0.0027282009832561016,0.002920859958976507,10
attack_corridor_base,1,50607,0.0010836353758350015,0.0009140715119428933,-0.08734989911317825,-35.3632621,149.1652375,-0.006,-0.01,0.01,0.0,-9.942197357304394e-05,9.444961324334145e-05,0.0,1000,1000,1000,1000,12600,0,0.002853745361790061,0.0029560495167970657,0.0026965592987835407,10
attack_corridor_base,1,50857,0.0010847687954083085,0.0009121404145844281,-0.08749409765005112,-35.3632621,149.1652375,-0.006,-0.01,0.01,0.0,-9.942192991729826e-05,9.444955503568053e-05,0.0,1000,1000,1000,1000,12600,0,0.0027642769273370504,0.0030450865160673857,0.002888584043830633,10
attack_corridor_base,1,51107,0.0010859727626666427,0.0009131425758823752,-0.08764319121837616,-35.3632621,149.1652375,-0.006,-0.01,0.01,0.0,-9.942192264134064e-05,9.444954775972292e-05,0.0,1000,1000,1000,1000,12600,0,0.002756689442321658,0.002719373442232609,0.0027006652671843767,10
attack_corridor_base,1,51359,0.0010868506506085396,0.0009175626910291612,-0.08778399229049683,-35.3632621,149.1652375,-0.006,-0.01,0.01,0.0,-9.942188626155257e-05,9.444952593185008e-05,0.0,1000,1000,1000,1000,12600,0,0.002846841234713793,0.0027739584911614656,0.002557207830250263,10
attack_corridor_base,1,51609,0.0010907595278695226,0.0009178295731544495,-0.08793086558580399,-35.3632621,149.1652375,-0.006,-0.01,0.01,0.0,-9.942188626155257e-05,9.444949682801962e-05,0.0,1000,1000,1000,1000,12600,0,0.0028616972267627716,0.0030034955125302076,0.002972721355035901,10
attack_corridor_base,1,51859,0.0010945609537884593,0.0009136635926552117,-0.08806651085615158,-35.3632621,149.1652375,-0.006,-0.01,0.01,0.0,-9.94219008134678e-05,9.444951137993485e-05,0.0,1000,1000,1000,1000,12600,0,0.002981453202664852,0.0026728399097919464,0.0029063106048852205,10
attack_corridor_base,1,52109,0.001098877633921802,0.0009065615013241768,-0.08821754157543182,-35.3632621,149.1652375,-0.006,-0.01,0.01,0.0,-9.94219008134678e-05,9.4449489552062e-05,0.0,1000,1000,1000,1000,12600,0,0.002923040883615613,0.0024742335081100464,0.0028510168194770813,10
attack_corridor_base,1,52359,0.0011044458951801062,0.0009058786672540009,-0.08834592998027802,-35.3632621,149.1652375,-0.006,-0.01,0.01,0.0,-9.942188626155257e-05,9.444948227610439e-05,0.0,1000,1000,1000,1000,12600,0,0.002700075274333358,0.0028381752781569958,0.0027657821774482727,10
attack_corridor_base,1,52607,0.001109062577597797,0.0009166827076114714,-0.08845909684896469,-35.3632621,149.1652375,-0.006,-0.01,0.01,0.0,-9.942186443367973e-05,9.444945317227393e-05,0.0,1000,1000,1000,1000,12600,0,0.0030767873395234346,0.0026920665986835957,0.0027921046130359173,10
attack_corridor_base,1,52858,0.0011055204086005688,0.0009133981075137854,-0.08859273046255112,-35.3632621,149.1652375,0.003,-0.01,0.01,0.0,-9.942182077793404e-05,9.444941679248586e-05,0.0,1000,1000,1000,1000,12600,0,0.002857872284948826,0.0030428499449044466,0.002914107870310545,10
attack_corridor_base,1,53107,0.0011093008797615767,0.0009133049170486629,-0.08872766047716141,-35.3632621,149.1652375,0.003,-0.01,0.01,0.0,-9.942184260580689e-05,9.444942406844348e-05,0.0,1000,1000,1000,1000,12600,0,0.002659538062289357,0.002826009877026081,0.0027594666462391615,10
attack_corridor_base,1,53357,0.0011306164087727666,0.000936110271140933,-0.08886567503213882,-35.3632621,149.1652375,0.003,-0.01,0.01,0.0,-9.942183532984927e-05,9.444939496461302e-05,0.0,1000,1000,1000,1000,12600,0,0.0028327996842563152,0.002600697334855795,0.0026093937922269106,10
attack_corridor_base,1,53607,0.001166228554211557,0.0009682511445134878,-0.08899718523025513,-35.3632621,149.1652375,0.003,0.0,0.0,0.0,-9.942182077793404e-05,9.444936586078256e-05,0.0,1000,1000,1000,1000,12600,0,0.0027348005678504705,0.0030288693960756063,0.0027152420952916145,10
attack_corridor_base,1,53857,0.001211850787512958,0.0010090325959026814,-0.08913545310497284,-35.3632621,149.1652375,0.003,0.0,0.0,0.0,-9.942182805389166e-05,9.444932220503688e-05,0.0,1000,1000,1000,1000,12600,0,0.002535164123401046,0.002773395972326398,0.0028874482959508896,10
attack_corridor_base,1,54107,0.0012653833255171776,0.0010708440095186234,-0.08928058296442032,-35.3632621,149.1652375,0.003,0.0,0.0,0.0,-9.942180622601882e-05,9.444930765312165e-05,0.0,1000,1000,1000,1000,12600,0,0.0029681657906621695,0.0027877206448465586,0.002846398623660207,10
attack_corridor_base,1,54357,0.0013230270706117153,0.001132665085606277,-0.0894179567694664,-35.3632621,149.1652375,0.003,0.0,0.0,0.0,-9.94217989500612e-05,9.444927127333358e-05,0.0,1000,1000,1000,1000,12600,0,0.002923449268564582,0.0029018560890108347,0.0029289843514561653,10
attack_corridor_base,1,54607,0.0013897224562242627,0.0011986366007477045,-0.08954998850822449,-35.3632621,149.1652375,0.003,0.0,0.0,0.0,-9.942180622601882e-05,9.444924944546074e-05,0.0,1000,1000,1000,1000,12600,0,0.0026021951343864202,0.002840915694832802,0.002654672833159566,10
attack_corridor_base,1,54858,0.0014571225037798285,0.001265709986910224,-0.08968307822942734,-35.3632621,149.1652375,0.003,0.0,0.0,0.0,-9.942177712218836e-05,9.444924216950312e-05,0.0,1000,1000,1000,1000,12600,0,0.0031821478623896837,0.0028687571175396442,0.0029707627836614847,10
attack_corridor_base,1,55107,0.0015250167343765497,0.0013346255291253328,-0.08983264118432999,-35.3632621,149.1652375,0.003,0.0,0.0,0.0,-9.942171891452745e-05,9.444919123779982e-05,0.0,1072,1072,1072,1072,12600,0,0.002782228635624051,0.002804900985211134,0.0026470983866602182,10
attack_corridor_base,1,55357,0.001589962630532682,0.0014031813479959965,-0.08997832983732224,-35.3632621,149.1652375,0.003,0.0,0.0,0.0,-9.942168981069699e-05,9.444909665035084e-05,0.0,1100,1100,1100,1100,12600,0,0.0025433464907109737,0.002526500727981329,0.0026465957053005695,10
attack_corridor_base,1,55607,0.0016568700084462762,0.0014722258783876896,-0.09012904763221741,-35.3632621,149.1652375,0.003,0.0,0.0,0.0,-9.942168253473938e-05,9.444908937439322e-05,0.0,1100,1100,1100,1100,12600,0,0.0027611965779215097,0.0031544044613838196,0.0026540826074779034,10
attack_corridor_base,1,55857,0.001727513619698584,0.0015395281370729208,-0.0902816504240036,-35.3632621,149.1652375,0.003,0.0,0.0,0.0,-9.942166798282415e-05,9.444905299460515e-05,0.0,1100,1100,1100,1100,12600,0,0.0026515061035752296,0.0028181737288832664,0.0025914651341736317,10
attack_corridor_base,1,56107,0.0017998524708673358,0.0016142221866175532,-0.09044139087200165,-35.3632621,149.1652375,0.003,0.0,0.0,0.0,-9.942168253473938e-05,9.4449074822478e-05,0.0,1100,1100,1100,1100,12600,0,0.0027821622788906097,0.002849177224561572,0.0030456501990556717,10
attack_corridor_base,1,56357,0.0018756060162559152,0.0016888623358681798,-0.09060326963663101,-35.3632621,149.1652375,0.003,0.0,0.0,0.0,-9.942166070686653e-05,9.444906754652038e-05,0.0,1100,1100,1100,1100,12600,0,0.00273352419026196,0.002896083751693368,0.0031789480708539486,10
attack_corridor_base,1,56607,0.001947155804373324,0.0017635076073929667,-0.09075544774532318,-35.3632621,149.1652375,0.003,0.0,0.0,0.0,-9.942161705112085e-05,9.444905299460515e-05,0.0,1100,1100,1100,1100,12600,0,0.00275897397659719,0.002675069263204932,0.0027503687888383865,10
attack_corridor_base,1,56858,0.0020119089167565107,0.0018399961991235614,-0.09091071039438248,-35.3632621,149.1652375,0.003,0.0,0.0,0.0,-9.942162432707846e-05,9.444901661481708e-05,0.0,1100,1100,1100,1100,12600,0,0.0028524380177259445,0.002723886864259839,0.002717749448493123,10
attack_corridor_base,1,57107,0.0020829278510063887,0.0019121089717373252,-0.09108134359121323,-35.3632621,149.1652375,0.003,0.0,0.0,0.0,-9.942165343090892e-05,9.444898751098663e-05,0.0,1100,1100,1100,1100,12600,0,0.0027467580512166023,0.002944682026281953,0.0027957407291978598,10
attack_corridor_base,1,57357,0.0021640928462147713,0.0019869068637490273,-0.0912446603178978,-35.3632621,149.1652375,0.003,0.0,0.0,0.0,-9.942161705112085e-05,9.444893657928333e-05,0.0,1100,1100,1100,1100,12600,0,0.00278521329164505,0.002903431188315153,0.0026975839864462614,10
attack_corridor_base,1,57607,0.0022385313641279936,0.0020634818356484175,-0.09140799939632416,-35.3632621,149.1652375,0.003,0.0,0.0,0.0,-9.942163160303608e-05,9.444893657928333e-05,0.0,1100,1100,1100,1100,12600,0,0.0026681150775402784,0.0026001320220530033,0.002503157826140523,10
attack_corridor_base,1,57857,0.00231501879170537,0.0021379063837230206,-0.09157347679138184,-35.3632621,149.1652375,0.003,0.0,0.0,0.0,-9.942158067133278e-05,9.444886381970719e-05,0.0,1100,1100,1100,1100,12600,0,0.0026794413570314646,0.0025187276769429445,0.002623004140332341,10
attack_corridor_base,1,58107,0.0023932468611747026,0.002210748614743352,-0.09174444526433945,-35.3632621,149.1652375,0.003,0.0,0.0,0.0,-9.942160977516323e-05,9.44488201639615e-05,0.0,1100,1100,1100,1100,12600,0,0.002579985186457634,0.002729367231950164,0.002534380415454507,10
attack_corridor_base,1,58357,0.002466814825311303,0.002286730334162712,-0.09191889315843582,-35.3632621,149.1652375,0.003,0.0,0.0,0.0,-9.942155884345993e-05,9.444880561204627e-05,0.0,1100,1100,1100,1100,12600,0,0.0030383355915546417,0.002812345512211323,0.0027592044789344072,10
attack_corridor_base,1,58607,0.0025304744485765696,0.002354850759729743,-0.09209408611059189,-35.3632621,149.1652375,0.003,0.0,0.01,0.0,-9.942152973962948e-05,9.444875468034297e-05,0.0,1100,1100,1100,1100,12600,0,0.0032620613928884268,0.0030612677801400423,0.002841448411345482,10
attack_corridor_base,1,58857,0.002597360871732235,0.0024191311094909906,-0.09226696938276291,-35.3632621,149.1652375,0.003,0.0,0.01,0.0,-9.942144970409572e-05,9.444869647268206e-05,0.0,1100,1100,1100,1100,12600,0,0.002903816057369113,0.0027785778511315584,0.002631824929267168,10
attack_corridor_base,1,59108,0.002661592559888959,0.002482866868376732,-0.09244276583194733,-35.3632621,149.1652375,0.003,-0.01,0.01,0.0,-9.94213842204772e-05,9.444870374863967e-05,0.0,1100,1100,1100,1100,12600,0,0.0027203550562262535,0.0027573516126722097,0.0026316349394619465,10
attack_corridor_base,1,59357,0.002720372984185815,0.0025452410336583853,-0.09261945635080338,-35.3632621,149.1652375,0.003,-0.01,0.01,0.0,-9.942132601281628e-05,9.444867464480922e-05,0.0,1100,1100,1100,1100,12600,0,0.002988481195643544,0.002539033303037286,0.00264551630243659,10
attack_corridor_base,1,59607,0.0027737515047192574,0.0025984342209994793,-0.09279976785182953,-35.3632621,149.1652375,0.003,-0.01,0.01,0.0,-9.94213332887739e-05,9.444864554097876e-05,0.0,1100,1100,1100,1100,12600,0,0.0029685506597161293,0.0026990752667188644,0.002757015638053417,10
attack_corridor_base,1,59857,0.002810328034684062,0.0026424392126500607,-0.09297449141740799,-35.3632621,149.1652375,0.003,-0.01,0.01,0.0,-9.942130418494344e-05,9.444860188523307e-05,0.0,1100,1100,1100,1100,12600,0,0.0026658226270228624,0.0027686802204698324,0.0027718914207071066,10
attack_corridor_base,1,60107,0.0028522859793156385,0.0026786555536091328,-0.09315196424722672,-35.3632621,149.1652375,0.003,-0.01,0.01,0.0,-9.942126780515537e-05,9.444858005736023e-05,0.0,1100,1100,1100,1100,12600,0,0.003011394524946809,0.0027634657453745604,0.0027463410515338182,10
attack_corridor_base,1,60357,0.002889612689614296,0.0027129212394356728,-0.09331852942705154,-35.3632621,149.1652375,0.003,-0.01,0.01,0.0,-9.94213332887739e-05,9.444858005736023e-05,0.0,1100,1100,1100,1100,12600,0,0.002628799993544817,0.0028672232292592525,0.0027299269568175077,10
attack_corridor_base,1,60607,0.0029229980427771807,0.0027420076075941324,-0.09347417950630188,-35.3632621,149.1652375,0.003,-0.01,0.01,0.0,-9.942136966856197e-05,9.444862371310592e-05,0.0,1100,1100,1100,1100,12600,0,0.0027786626014858484,0.002943109953776002,0.0028493681456893682,10
attack_corridor_base,1,60857,0.002943315776064992,0.002757569309324026,-0.09365665167570114,-35.3632621,149.1652375,0.003,-0.01,0.01,0.0,-9.942136239260435e-05,9.444857278140262e-05,0.0,1100,1100,1100,1100,12600,0,0.002841125475242734,0.0027716185431927443,0.0026178774423897266,10
attack_corridor_base,1,61108,0.002962305210530758,0.0027686376124620438,-0.09382368624210358,-35.3632621,149.1652375,0.003,-0.01,0.01,0.0,-9.942134056473151e-05,9.444850729778409e-05,0.0,1100,1100,1100,1100,12600,0,0.002500199945643544,0.0029055047780275345,0.002839866327121854,10
attack_corridor_base,1,61357,0.0029772857669740915,0.0027842926792800426,-0.09400757402181625,-35.3632621,149.1652375,0.003,-0.01,0.02,0.0,-9.942132601281628e-05,9.444852912565693e-05,0.0,1100,1100,1100,1100,12600,0,0.003147016977891326,0.0030850267503410578,0.0030500530265271664,10
attack_corridor_base,1,61607,0.002989369910210371,0.002793018240481615,-0.09417811781167984,-35.3632622,149.1652375,0.003,-0.01,0.02,0.0,-9.942131146090105e-05,9.444849274586886e-05,0.0,1100,1100,1100,1100,12600,0,0.002767507918179035,0.0028217067010700703,0.002985297003760934,10
attack_corridor_base,1,61857,0.0029800652991980314,0.0027849941980093718,-0.09435374289751053,-35.3632622,149.1652375,0.003,-0.01,0.02,0.0,-9.94212823570706e-05,9.444845636608079e-05,0.0,1100,1100,1100,1100,12600,0,0.0028824417386204004,0.0027791867032647133,0.003026832127943635,10
attack_corridor_base,1,62107,0.002976643852889538,0.002782009309157729,-0.09451650828123093,-35.3632622,149.1652375,0.003,-0.01,0.02,0.0,-9.942127508111298e-05,9.444844181416556e-05,0.0,1100,1100,1100,1100,12600,0,0.002510256599634886,0.002833364065736532,0.00280772359110415,10
attack_corridor_base,1,62357,0.00297362357378006,0.0027726120315492153,-0.09468461573123932,-35.3632622,149.1652375,0.003,-0.01,0.02,0.0,-9.942128963302821e-05,9.444844909012318e-05,0.0,1100,1100,1100,1100,12600,0,0.002630781615152955,0.0026645066682249308,0.0027617383748292923,10
attack_corridor_base,1,62607,0.002957350807264447,0.0027646536473184824,-0.09484763443470001,-35.3632622,149.1652375,0.003,-0.01,0.02,0.0,-9.94212823570706e-05,9.444845636608079e-05,0.0,1100,1100,1100,1100,12600,0,0.002620667451992631,0.0030127570498734713,0.002805382013320923,10
attack_corridor_base,1,62857,0.0029268250800669193,0.00273593096062541,-0.09501248598098755,-35.3632622,149.1652375,0.003,-0.01,0.02,0.0,-9.942124597728252e-05,9.444841998629272e-05,0.0,1000,1000,1000,1000,12600,0,0.002584126079455018,0.0031366629991680384,0.0026180706918239594,10
attack_corridor_base,1,63108,0.0028743050061166286,0.0026898044161498547,-0.09516573697328568,-35.3632622,149.1652375,0.003,-0.01,0.02,0.0,-9.942123870132491e-05,9.44483617786318e-05,0.0,1000,1000,1000,1000,12600,0,0.0029293911065906286,0.0028691685292869806,0.0026994990184903145,10
attack_corridor_base,1,63357,0.002811179496347904,0.0026268463116139174,-0.09532736986875534,-35.3632622,149.1652375,0.003,-0.01,0.02,0.0,-9.942120232153684e-05,9.444833267480135e-05,0.0,1000,1000,1000,1000,12600,0,0.0027864265721291304,0.0026744119822978973,0.002895828802138567,10
attack_corridor_base,1,63607,0.0027382310945540667,0.0025601203087717295,-0.09546874463558197,-35.3632622,149.1652375,0.003,-0.01,0.02,0.0,-9.942118776962161e-05,9.444826719118282e-05,0.0,1000,1000,1000,1000,12600,0,0.0028916173614561558,0.002476423280313611,0.0027188784442842007,10
attack_corridor_base,1,63857,0.0026514525525271893,0.002473636996001005,-0.09560518711805344,-35.3632622,149.1652375,0.003,-0.01,0.01,0.0,-9.942113683791831e-05,9.444821625947952e-05,0.0,1000,1000,1000,1000,12600,0,0.00290325446985662,0.0030279711354523897,0.0028365913312882185,10
attack_corridor_base,1,64107,0.0025846967473626137,0.0023936391808092594,-0.09573950618505478,-35.3632622,149.1652375,0.003,-0.01,0.01,0.0,-9.942116594174877e-05,9.444820898352191e-05,0.0,1000,1000,1000,1000,12600,0,0.0027287292759865522,0.0029841705691069365,0.0031113196164369583,10
attack_corridor_base,1,64357,0.0025298623368144035,0.002338839927688241,-0.09587286412715912,-35.3632622,149.1652375,0.003,-0.01,0.01,0.0,-9.942112228600308e-05,9.444817260373384e-05,0.0,1000,1000,1000,1000,12600,0,0.0028901018667966127,0.0028885172214359045,0.0028327780310064554,10
attack_corridor_base,1,64607,0.0024873523507267237,0.002289316849783063,-0.09600286185741425,-35.3632621,149.1652375,0.003,-0.01,0.01,0.0,-9.942115138983354e-05,9.444818715564907e-05,0.0,1000,1000,1000,1000,12600,0,0.002849786775186658,0.0028998246416449547,0.0028910369146615267,10
attack_corridor_base,1,64857,0.0024488691706210375,0.0022452068515121937,-0.096126988530159,-35.3632621,149.1652375,0.003,-0.01,0.01,0.0,-9.942112228600308e-05,9.444817987969145e-05,0.0,1000,1000,1000,1000,12600,0,0.002795647596940398,0.002970599802210927,0.0029249144718050957,10
attack_corridor_base,1,65107,0.002421209355816245,0.002219090238213539,-0.09623804688453674,-35.3632621,149.1652375,0.003,0.0,0.01,0.0,-9.942111501004547e-05,9.444813622394577e-05,0.0,1000,1000,1000,1000,12600,0,0.002866361290216446,0.0030712720472365618,0.002733721164986491,10
attack_corridor_base,1,65358,0.002410993678495288,0.002218312583863735,-0.0963560938835144,-35.3632621,149.1652375,0.003,0.0,0.01,0.0,-9.942114411387593e-05,9.444817987969145e-05,0.0,1000,1000,1000,1000,12600,0,0.0027609574608504772,0.0027785159181803465,0.0029155134689062834,10
attack_corridor_base,1,65607,0.0024075207766145468,0.0022201775573194027,-0.09647652506828308,-35.3632621,149.1652375,0.003,0.0,0.01,0.0,-9.942116594174877e-05,9.444812167203054e-05,0.0,1000,1000,1000,1000,12600,0,0.0026908060535788536,0.002571983030065894,0.0026920123491436243,10
attack_corridor_base,1,65857,0.0024126821663230658,0.0022238600067794323,-0.09658888727426529,-35.3632621,149.1652375,0.003,0.0,0.0,0.0,-9.94211295619607e-05,9.444810712011531e-05,0.0,1000,1000,1000,1000,12600,0,0.002672505099326372,0.0029610064812004566,0.0026253077667206526,10
attack_corridor_base,1,66107,0.002428175648674369,0.0022377807181328535,-0.09670054912567139,-35.3632621,149.1652375,0.003,0.0,0.0,0.0,-9.942111501004547e-05,9.44480998441577e-05,0.0,1000,1000,1000,1000,12600,0,0.002679217606782913,0.002942399587482214,0.0029213132802397013,10
