flight_id,label,timestamp,att_roll,att_pitch,att_yaw,pos_lat,pos_lon,pos_alt_rel,pos_vx,pos_vy,pos_vz,nav_roll,nav_pitch,nav_alt_error,servo1_raw,servo2_raw,servo3_raw,servo4_raw,sys_voltage_battery,sys_load,vib_x,vib_y,vib_z,gps_sats_visible
normal_corridor_base,0,15609,0.0003307907027192414,0.00011150518548674881,-0.07378612458705902,-35.3632621,149.1652374,0.0,0.0,0.0,-0.01,,,,,,,,,,,,,
normal_corridor_base,0,15859,0.0003363890282344073,0.00012000498827546835,-0.07087501883506775,-35.3632621,149.1652374,0.0,0.0,0.0,0.0,-9.942148608388379e-05,9.444936586078256e-05,0.0,1000,1000,1000,1000,12600,0,0.0026640279684215784,0.002792098093777895,0.0025840585585683584,10
normal_corridor_base,0,16109,0.00034575845347717404,0.00012983879423700273,-0.06822995096445084,-35.3632621,149.1652374,0.0,0.0,0.0,0.0,-9.942147153196856e-05,9.444935858482495e-05,0.0,1000,1000,1000,1000,12600,0,0.0026499242521822453,0.002886570291593671,0.0024996548891067505,10
normal_corridor_base,0,16359,0.00035378028405830264,0.0001375292195007205,-0.06591206789016724,-35.3632621,149.1652374,0.0,0.0,0.0,0.0,-9.942147880792618e-05,9.444936586078256e-05,0.0,1000,1000,1000,1000,12600,0,0.002905152505263686,0.0028612499590963125,0.0026816504541784525,10
normal_corridor_base,0,16609,0.00036622723564505577,0.0001452677242923528,-0.06388644129037857,-35.3632621,149.1652374,0.0,0.0,0.0,0.0,-9.942150063579902e-05,9.444938041269779e-05,0.0,1000,1000,1000,1000,12600,0,0.0030702329240739346,0.0028023950289934874,0.0027498232666403055,10
normal_corridor_base,0,16859,0.0003762731794267893,0.00015426664322149009,-0.062099505215883255,-35.3632621,149.1652374,0.0,0.0,0.0,0.0,-9.942150063579902e-05,9.44493876886554e-05,0.0,1000,1000,1000,1000,12600,0,0.003136045066639781,0.002573417266830802,0.0025887133087962866,10
normal_corridor_base,0,17109,0.00038774023414589465,0.00015907306806184351,-0.06051822006702423,-35.3632621,149.1652374,0.0,0.0,0.0,0.0,-9.942147153196856e-05,9.444940224057063e-05,0.0,1000,1000,1000,1000,12600,0,0.0028475781437009573,0.0028414553962647915,0.0027528118807822466,10
normal_corridor_base,0,17359,0.00039598075090907514,0.00016818726726341993,-0.05916174501180649,-35.3632621,149.1652374,0.0,0.0,0.0,0.0,-9.942148608388379e-05,9.444935130886734e-05,0.0,1000,1000,1000,1000,12600,0,0.0028869544621556997,0.002881009364500642,0.002789945574477315,10
normal_corridor_base,0,17609,0.00040429848013445735,0.00017598323756828904,-0.05798079073429108,-35.3632621,149.1652374,0.0,0.0,0.0,0.0,-9.9421595223248e-05,9.44493876886554e-05,0.0,1000,1000,1000,1000,12600,0,0.003016294213011861,0.0026016102638095617,0.003029768355190754,10
normal_corridor_base,0,17859,0.00041804619831964374,0.00018712236487772316,-0.056953564286231995,-35.3632621,149.1652374,0.0,0.0,0.0,0.0,-9.942160249920562e-05,9.444937313674018e-05,0.0,1000,1000,1000,1000,12600,0,0.0026194038800895214,0.0028639514930546284,0.002528201090171933,10
normal_corridor_base,0,18109,0.00042204491910524666,0.00020027250866405666,-0.05609126389026642,-35.3632621,149.1652374,0.0,0.0,0.0,0.0,-9.94216461549513e-05,9.444936586078256e-05,0.0,1000,1000,1000,1000,12600,0,0.0030783317051827908,0.002832933561876416,0.0029439814388751984,10
normal_corridor_base,0,18359,0.0004360733728390187,0.00021074965479783714,-0.05533202737569809,-35.3632621,149.1652374,0.0,0.0,0.0,0.0,-9.942168253473938e-05,9.444936586078256e-05,0.0,1000,1000,1000,1000,12600,0,0.00253796624019742,0.002703476930037141,0.002802085131406784,10
normal_corridor_base,0,18609,0.0004450548440217972,0.00022363885364029557,-0.05473534017801285,-35.3632621,149.1652374,0.0,0.0,0.0,0.0,-9.942166070686653e-05,9.444934403290972e-05,0.0,1000,1000,1000,1000,12600,0,0.0027133189141750336,0.002904227701947093,0.003171168267726898,10
normal_corridor_base,0,18859,0.00045841364772059023,0.00023231626255437732,-0.05421118065714836,-35.3632621,149.1652374,0.0,0.0,0.0,0.0,-9.9421595223248e-05,9.444928582524881e-05,0.0,1000,1000,1000,1000,12600,0,0.003069656202569604,0.0028032229747623205,0.002935638651251793,10
normal_corridor_base,0,19109,0.0004736003465950489,0.00024575614952482283,-0.05379568785429001,-35.3632621,149.1652374,0.0,0.0,0.0,0.0,-9.942163160303608e-05,9.444932948099449e-05,0.0,1000,1000,1000,1000,12600,0,0.002829967765137553,0.0030113225802779198,0.002742718206718564,10
normal_corridor_base,0,19359,0.0004836409061681479,0.0002548346819821745,-0.05346730723977089,-35.3632621,149.1652374,0.0,0.0,0.0,0.0,-9.942163887899369e-05,9.444930765312165e-05,0.0,1000,1000,1000,1000,12600,0,0.0029553836211562157,0.002746066078543663,0.003004293655976653,10
normal_corridor_base,0,19609,0.000498839421197772,0.000266054121311754,-0.05321234092116356,-35.3632621,149.1652374,0.0,0.0,0.0,0.0,-9.942158794729039e-05,9.444934403290972e-05,0.0,1000,1000,1000,1000,12600,0,0.0028505998197942972,0.002794812200590968,0.00253820838406682,10
normal_corridor_base,0,19859,0.0005104977171868086,0.00027811178006231785,-0.05298774316906929,-35.3632621,149.1652374,0.0,0.0,0.0,0.0,-9.942163160303608e-05,9.444932948099449e-05,0.0,1000,1000,1000,1000,12600,0,0.0030691055580973625,0.002685410901904106,0.0027855795342475176,10
normal_corridor_base,0,20109,0.0005285866209305823,0.0002933171926997602,-0.05268457159399986,-35.3632621,149.1652374,0.006,0.0,0.0,0.0,-9.942166798282415e-05,9.444936586078256e-05,0.0,1000,1000,1000,1000,12600,0,0.0029448175337165594,0.0026598365511745214,0.0024736139457672834,10
normal_corridor_base,0,20359,0.000537962419912219,0.00030602733022533357,-0.052629850804805756,-35.3632621,149.1652374,-0.007,0.0,0.0,0.0,-9.942174074240029e-05,9.444936586078256e-05,0.0,1000,1000,1000,1000,12600,0,0.002967609791085124,0.0029025832191109657,0.0027682774234563112,10
normal_corridor_base,0,20609,0.000552226381842047,0.0003215596079826355,-0.05263114720582962,-35.3632621,149.1652374,-0.008,0.0,0.0,0.0,-9.942171163856983e-05,9.44493876886554e-05,0.0,1000,1000,1000,1000,12600,0,0.0028080835472792387,0.002789097372442484,0.002612507436424494,10
normal_corridor_base,0,20859,0.0005642154137603939,0.00033092201920226216,-0.05271729826927185,-35.3632621,149.1652374,-0.007,0.0,0.0,0.0,-9.942172619048506e-05,9.444940224057063e-05,0.0,1000,1000,1000,1000,12600,0,0.002839296590536833,0.0028071689885109663,0.0029605054296553135,10
normal_corridor_base,0,21109,0.0005749294068664312,0.0003431770601309836,-0.05278314650058746,-35.3632621,149.1652374,-0.006,0.0,0.0,0.0,-9.942174074240029e-05,9.444938041269779e-05,0.0,1000,1000,1000,1000,12600,0,0.0030051241628825665,0.002639553276821971,0.0028141711372882128,10
normal_corridor_base,0,21359,0.0005907176528126001,0.00035506347194314003,-0.052961014211177826,-35.3632621,149.1652374,-0.005,0.0,0.0,0.0,-9.942178439814597e-05,9.444939496461302e-05,0.0,1000,1000,1000,1000,12600,0,0.002754232147708535,0.0029189875349402428,0.0029822138603776693,10
normal_corridor_base,0,21609,0.000604906352236867,0.0003727197472471744,-0.053106069564819336,-35.3632621,149.1652374,-0.003,0.0,0.0,0.0,-9.942176257027313e-05,9.444939496461302e-05,0.0,1000,1000,1000,1000,12600,0,0.0027763103134930134,0.002861960092559457,0.002836873522028327,10
normal_corridor_base,0,21859,0.0006202504155226052,0.00038339229649864137,-0.05329735204577446,-35.3632621,149.1652374,-0.002,0.0,0.0,0.0,-9.942179167410359e-05,9.444935130886734e-05,0.0,1000,1000,1000,1000,12600,0,0.0030473561491817236,0.002980072982609272,0.002891295589506626,10
normal_corridor_base,0,22109,0.0006375843076966703,0.0003942363546229899,-0.05351975932717323,-35.3632621,149.1652374,-0.001,0.0,0.01,0.0,-9.942180622601882e-05,9.444936586078256e-05,0.0,1000,1000,1000,1000,12600,0,0.002784926677122712,0.0026296137366443872,0.0028585135005414486,10
normal_corridor_base,0,22359,0.0006519039743579924,0.00041207383037544787,-0.05377569794654846,-35.3632621,149.1652374,0.0,0.0,0.01,0.0,-9.942183532984927e-05,9.444941679248586e-05,0.0,1000,1000,1000,1000,12600,0,0.002669793087989092,0.0029887377750128508,0.002820890164002776,10
normal_corridor_base,0,22609,0.0006630943389609456,0.0004325091722421348,-0.054031889885663986,-35.3632621,149.1652374,0.0,0.0,0.01,0.0,-9.942189353751019e-05,9.444946044823155e-05,0.0,1000,1000,1000,1000,12600,0,0.002608545823022723,0.002798226894810796,0.0028942949138581753,10
normal_corridor_base,0,22859,0.0006818593246862292,0.0004466890241019428,-0.05434002727270126,-35.3632621,149.1652374,0.0,0.0,0.01,0.0,-9.942196629708633e-05,9.4449489552062e-05,0.0,1000,1000,1000,1000,12600,0,0.0026777801103889942,0.002450509462505579,0.0030000729020684958,10
normal_corridor_base,0,23109,0.0006960704340599477,0.00046192051377147436,-0.05463748052716255,-35.3632621,149.1652374,0.001,-0.01,0.01,0.0,-9.942197357304394e-05,9.444946772418916e-05,0.0,1000,1000,1000,1000,12600,0,0.0029168694745749235,0.002877587918192148,0.0028654446359723806,10
normal_corridor_base,0,23359,0.0007071369327604771,0.0004751414235215634,-0.054996900260448456,-35.3632621,149.1652374,0.001,-0.01,0.01,0.0,-9.942192991729826e-05,9.444944589631632e-05,0.0,1000,1000,1000,1000,12600,0,0.0028339943382889032,0.002814431441947818,0.0028801870066672564,10
normal_corridor_base,0,23609,0.0007216362864710391,0.00048746896209195256,-0.055320773273706436,-35.3632621,149.1652374,0.001,-0.01,0.01,0.0,-9.942186443367973e-05,9.444940224057063e-05,0.0,1000,1000,1000,1000,12600,0,0.002746907528489828,0.0026724243070930243,0.0028520887717604637,10
normal_corridor_base,0,23859,0.0007326459162868559,0.0005017605726607144,-0.05563555285334587,-35.3632621,149.1652374,0.002,-0.01,0.01,0.0,-9.94218498817645e-05,9.444943134440109e-05,0.0,1000,1000,1000,1000,12600,0,0.002292953198775649,0.002683751517906785,0.0028572462033480406,10
normal_corridor_base,0,24109,0.0007443875074386597,0.0005171074881218374,-0.056029029190540314,-35.3632621,149.1652374,0.002,-0.01,0.01,0.0,-9.942180622601882e-05,9.444938041269779e-05,0.0,1000,1000,1000,1000,12600,0,0.00272989715449512,0.0026411768049001694,0.0025150682777166367,10
normal_corridor_base,0,24359,0.0007534923497587442,0.0005284282960928977,-0.05637047439813614,-35.3632621,149.1652374,0.002,-0.01,0.01,0.0,-9.942186443367973e-05,9.444941679248586e-05,0.0,1000,1000,1000,1000,12600,0,0.0026648547500371933,0.002704920480027795,0.002564628841355443,10
normal_corridor_base,0,24609,0.0007667398895137012,0.0005408105789683759,-0.056747108697891235,-35.3632621,149.1652374,0.002,-0.01,0.01,0.0,-9.942187898559496e-05,9.444942406844348e-05,0.0,1000,1000,1000,1000,12600,0,0.0032310565002262592,0.002824334427714348,0.002987958025187254,10
normal_corridor_base,0,24859,0.0007801542524248362,0.0005559370038099587,-0.05710282549262047,-35.3632621,149.1652374,0.003,-0.01,0.01,0.0,-9.942188626155257e-05,9.444946044823155e-05,0.0,1000,1000,1000,1000,12600,0,0.0026745088398456573,0.003015832044184208,0.0027899707201868296,10
normal_corridor_base,0,25109,0.0007920205825939775,0.0005712514976039529,-0.05750273913145065,-35.3632621,149.1652374,0.003,-0.01,0.01,0.0,-9.942192991729826e-05,9.444950410397723e-05,0.0,1000,1000,1000,1000,12600,0,0.0028930678963661194,0.00277644582092762,0.002657786477357149,10
normal_corridor_base,0,25359,0.0008023889386095107,0.0005791790317744017,-0.05785072594881058,-35.3632621,149.1652374,0.003,-0.01,0.01,0.0,-9.942192264134064e-05,9.444952593185008e-05,0.0,1000,1000,1000,1000,12600,0,0.0028141734655946493,0.0029965147841721773,0.0030111391097307205,10
normal_corridor_base,0,25609,0.0008198227151297033,0.0005950711783953011,-0.05815006047487259,-35.3632621,149.1652374,0.003,-0.01,0.01,0.0,-9.942192991729826e-05,9.44495404837653e-05,0.0,1000,1000,1000,1000,12600,0,0.002656518714502454,0.0029650204814970493,0.002714109141379595,10
normal_corridor_base,0,25859,0.0008252618717961013,0.000609186536166817,-0.05851740390062332,-35.3632621,149.1652374,0.003,-0.01,0.01,0.0,-9.942191536538303e-05,9.444952593185008e-05,0.0,1000,1000,1000,1000,12600,0,0.002739774761721492,0.0029126438312232494,0.002971894107758999,10
normal_corridor_base,0,26109,0.0008405272965319455,0.0006199306808412075,-0.05891958624124527,-35.3632621,149.1652374,0.002,-0.01,0.01,0.0,-9.942189353751019e-05,9.444949682801962e-05,0.0,1000,1000,1000,1000,12600,0,0.003018677467480302,0.002771540079265833,0.003265776438638568,10
normal_corridor_base,0,26359,0.0008529369370080531,0.0006222206284292042,-0.05934545770287514,-35.3632621,149.1652374,0.002,-0.01,0.01,0.0,-9.94219008134678e-05,9.444947500014678e-05,0.0,1000,1000,1000,1000,12600,0,0.0025034029968082905,0.0028221476823091507,0.0027410192415118217,10
normal_corridor_base,0,26609,0.0008648188668303192,0.000629123707767576,-0.05974072590470314,-35.3632621,149.1652374,0.002,-0.01,0.01,0.0,-9.942190808942541e-05,9.444944589631632e-05,0.0,1000,1000,1000,1000,12600,0,0.00264535890892148,0.00289574870839715,0.002582478802651167,10
normal_corridor_base,0,26859,0.0008723734063096344,0.0006369017064571381,-0.06015980243682861,-35.3632621,149.1652374,0.002,-0.01,0.01,0.0,-9.942190808942541e-05,9.444944589631632e-05,0.0,1000,1000,1000,1000,12600,0,0.002678168937563896,0.0027226486708968878,0.0026676927227526903,10
normal_corridor_base,0,27109,0.0008812083397060633,0.0006491969106718898,-0.060570914298295975,-35.3632621,149.1652374,0.002,-0.01,0.01,0.0,-9.94219517451711e-05,9.444948227610439e-05,0.0,1000,1000,1000,1000,12600,0,0.003000665921717882,0.003040880663320422,0.0029179872944951057,10
normal_corridor_base,0,27359,0.0008961819112300873,0.0006548145902343094,-0.060988955199718475,-35.3632621,149.1652374,0.002,-0.01,0.01,0.0,-9.942196629708633e-05,9.444948227610439e-05,0.0,1000,1000,1000,1000,12600,0,0.0027062592562288046,0.002824879251420498,0.002946752356365323,10
normal_corridor_base,0,27609,0.0009013211820274591,0.0006634031306020916,-0.06143868714570999,-35.3632621,149.1652374,0.001,-0.01,0.01,0.0,-9.942196629708633e-05,9.444949682801962e-05,0.0,1000,1000,1000,1000,12600,0,0.002744433470070362,0.002617992926388979,0.0024279425852000713,10
normal_corridor_base,0,27859,0.0009129117825068533,0.000673679809551686,-0.06182578578591347,-35.3632621,149.1652374,0.001,-0.01,0.01,0.0,-9.942193719325587e-05,9.444948227610439e-05,0.0,1000,1000,1000,1000,12600,0,0.002738565905019641,0.0029940560925751925,0.0028994022868573666,10
normal_corridor_base,0,28109,0.00091810233425349,0.0006849322817288339,-0.06223583593964577,-35.3632621,149.1652374,0.001,-0.01,0.01,0.0,-9.942200995283201e-05,9.44495404837653e-05,0.0,1000,1000,1000,1000,12600,0,0.0027222479693591595,0.0029778003226965666,0.002940525533631444,10
normal_corridor_base,0,28359,0.0009297449723817408,0.0006912761018611491,-0.06266115605831146,-35.3632621,149.1652374,0.001,-0.01,0.01,0.0,-9.942204633262008e-05,9.444957686355338e-05,0.0,1000,1000,1000,1000,12600,0,0.0027390746399760246,0.00283119548112154,0.002857197541743517,10
normal_corridor_base,0,28609,0.0009401522693224251,0.0007051652064546943,-0.06306510418653488,-35.3632621,149.1652374,0.0,-0.01,0.01,0.0,-9.942203905666247e-05,9.444956958759576e-05,0.0,1000,1000,1000,1000,12600,0,0.00272583169862628,0.0026436871849000454,0.00281855883076787,10
normal_corridor_base,0,28859,0.0009460724540986121,0.0007159000379033387,-0.06345497071743011,-35.3632621,149.1652374,0.0,-0.01,0.01,0.0,-9.942211181623861e-05,9.444963507121429e-05,0.0,1000,1000,1000,1000,12600,0,0.0028736330568790436,0.002856857143342495,0.002580552827566862,10
normal_corridor_base,0,29109,0.0009564831852912903,0.0007301450823433697,-0.06386923044919968,-35.3632621,149.1652374,0.0,-0.01,0.01,0.0,-9.942216274794191e-05,9.444966417504475e-05,0.0,1000,1000,1000,1000,12600,0,0.002852019388228655,0.002612547716125846,0.00241230521351099,10
normal_corridor_base,0,29359,0.0009702077368274331,0.0007377756992354989,-0.06425374001264572,-35.3632621,149.1652374,0.0,-0.01,0.01,0.0,-9.942222823156044e-05,9.444968600291759e-05,0.0,1000,1000,1000,1000,12600,0,0.0026888104621320963,0.002548381220549345,0.002854126039892435,10
normal_corridor_base,0,29609,0.0009765635477378964,0.000743687676731497,-0.06465964019298553,-35.3632621,149.1652374,0.0,-0.01,0.01,0.0,-9.94222573353909e-05,9.44496932788752e-05,0.0,1000,1000,1000,1000,12600,0,0.0026269808877259493,0.0029508299194276333,0.0027087493799626827,10
normal_corridor_base,0,29859,0.0009859977290034294,0.0007559173391200602,-0.06504330784082413,-35.3632621,149.1652374,0.0,-0.01,0.02,0.0,-9.942230099113658e-05,9.44496932788752e-05,0.0,1000,1000,1000,1000,12600,0,0.0026129542384296656,0.002792714163661003,0.0028920620679855347,10
normal_corridor_base,0,30109,0.0009910709923133254,0.0007634198409505188,-0.06545260548591614,-35.3632621,149.1652374,-0.001,-0.01,0.02,0.0,-9.942233737092465e-05,9.444973693462089e-05,0.0,1000,1000,1000,1000,12600,0,0.0029237973503768444,0.002692687325179577,0.00291920593008399,10
normal_corridor_base,0,30359,0.0009993229759857059,0.0007764409529045224,-0.06582429260015488,-35.3632621,149.1652374,-0.001,-0.01,0.02,0.0,-9.942239557858557e-05,9.44497951422818e-05,0.0,1000,1000,1000,1000,12600,0,0.0027084602043032646,0.00277215545065701,0.0029069245792925358,10
normal_corridor_base,0,30609,0.0010032141581177711,0.000782694376539439,-0.06622231006622314,-35.3632621,149.1652374,-0.001,-0.01,0.02,0.0,-9.942236647475511e-05,9.444978059036657e-05,0.0,1000,1000,1000,1000,12600,0,0.0028111839201301336,0.0026091155596077442,0.002855250844731927,10
normal_corridor_base,0,30859,0.0010150817688554525,0.000789501762483269,-0.06658732891082764,-35.3632621,149.1652374,-0.001,-0.01,0.02,0.0,-9.942243195837364e-05,9.444985334994271e-05,0.0,1000,1000,1000,1000,12600,0,0.0027452956419438124,0.0027041237335652113,0.0029417253099381924,10
normal_corridor_base,0,31109,0.0010174473281949759,0.0007945855031721294,-0.066986083984375,-35.3632621,149.1652374,-0.002,-0.01,0.02,0.0,-9.942243195837364e-05,9.444985334994271e-05,0.0,1000,1000,1000,1000,12600,0,0.0025769108906388283,0.0027669810224324465,0.0030055949464440346,10
normal_corridor_base,0,31359,0.0010302014416083694,0.0008001132518984377,-0.06734599173069,-35.3632621,149.1652374,-0.002,-0.01,0.02,0.0,-9.942253382178023e-05,9.444995521334931e-05,0.0,1000,1000,1000,1000,12600,0,0.002702842466533184,0.002921517239883542,0.0027641686610877514,10
normal_corridor_base,0,31609,0.00103681068867445,0.0008071093470789492,-0.06767831742763519,-35.3632621,149.1652374,-0.002,-0.01,0.02,0.0,-9.942253382178023e-05,9.444995521334931e-05,0.0,1000,1000,1000,1000,12600,0,0.0028622495010495186,0.002820268040522933,0.002973902504891157,10
normal_corridor_base,0,32062,0.0010420772014185786,0.000808591372333467,-0.06800622493028641,-35.3632621,149.1652374,-0.003,-0.01,0.02,0.0,-9.942247561411932e-05,9.444987517781556e-05,0.0,1000,1000,1000,1000,12600,0,0.0027702704537659883,0.002921447390690446,0.002719338284805417,10
normal_corridor_base,0,32394,0.001056036213412881,0.000819257227703929,-0.06872857362031937,-35.3632621,149.1652374,-0.003,-0.01,0.02,0.0,-9.942247561411932e-05,9.44499479373917e-05,0.0,1000,1000,1000,1000,12600,0,0.003146572271361947,0.002726596547290683,0.0029289782978594303,10
normal_corridor_base,0,32726,0.0010639448883011937,0.0008293026476167142,-0.06918594241142273,-35.3632621,149.1652374,-0.003,-0.01,0.02,0.0,-9.942247561411932e-05,9.44499479373917e-05,0.0,1000,1000,1000,1000,12600,0,0.0026606256142258644,0.002632409567013383,0.0029203230515122414,10
normal_corridor_base,0,33059,0.001074038678780198,0.0008466353174299002,-0.06975287944078445,-35.3632621,149.1652374,-0.004,-0.01,0.02,0.0,-9.942254109773785e-05,9.444996976526454e-05,0.0,1000,1000,1000,1000,12600,0,0.0027034843806177378,0.002673266688361764,0.002896464429795742,10
normal_corridor_base,0,33394,0.0010889243567362428,0.0008584229508414865,-0.07018301635980606,-35.3632621,149.1652374,-0.004,-0.01,0.02,0.0,-9.942254837369546e-05,9.444992610951886e-05,0.0,1000,1000,1000,1000,12600,0,0.0026301320176571608,0.0025768326595425606,0.002805015305057168,10
normal_corridor_base,0,33727,0.0011015974450856447,0.0008702843333594501,-0.07060424983501434,-35.3632621,149.1652374,-0.004,-0.01,0.02,0.0,-9.942254837369546e-05,9.444992610951886e-05,0.0,1000,1000,1000,1000,12600,0,0.0028488843236118555,0.002936654258519411,0.002859765663743019,10
normal_corridor_base,0,34059,0.0011170399375259876,0.0008764348458498716,-0.07117390632629395,-35.3632621,149.1652374,-0.005,-0.02,0.02,0.0,-9.942253382178023e-05,9.444996248930693e-05,0.0,1000,1000,1000,1000,12600,0,0.0025378502905368805,0.0028690937906503677,0.0030116296838968992,10
normal_corridor_base,0,34392,0.0011207113275304437,0.0008886904106475413,-0.07157678157091141,-35.3632621,149.1652374,-0.005,-0.02,0.02,0.0,-9.942246106220409e-05,9.444998431717977e-05,0.0,1000,1000,1000,1000,12600,0,0.002851356752216816,0.002742657670751214,0.002773767802864313,10
normal_corridor_base,0,34724,0.001133300014771521,0.0009002851438708603,-0.07198130339384079,-35.3632621,149.1652374,-0.005,-0.02,0.02,0.0,-9.942246106220409e-05,9.444998431717977e-05,0.0,1000,1000,1000,1000,12600,0,0.0028666125144809484,0.0027846989687532187,0.0031021395698189735,10
normal_corridor_base,0,35059,0.0011465965071693063,0.0009186886600218713,-0.07250863313674927,-35.3632621,149.1652374,-0.005,-0.02,0.02,0.0,-9.942238830262795e-05,9.444998431717977e-05,0.0,1000,1000,1000,1000,12600,0,0.0027379824314266443,0.002957216463983059,0.0027671821881085634,10
normal_corridor_base,0,35391,0.0011512743076309562,0.0009284024708904326,-0.07290682941675186,-35.3632621,149.1652374,-0.005,-0.02,0.02,0.0,-9.94223082670942e-05,9.444993338547647e-05,0.0,1000,1000,1000,1000,12600,0,0.002673486014828086,0.002951093250885606,0.002468900056555867,10
normal_corridor_base,0,35724,0.0011607167543843389,0.000934598792809993,-0.07329218089580536,-35.3632621,149.1652374,-0.005,-0.02,0.02,0.0,-9.94223082670942e-05,9.444993338547647e-05,0.0,1000,1000,1000,1000,12600,0,0.002789268735796213,0.002868048148229718,0.002825116505846381,10
normal_corridor_base,0,36057,0.0011666876962408423,0.0009388420730829239,-0.07374388724565506,-35.3632621,149.1652374,-0.005,-0.02,0.02,0.0,-9.94223591987975e-05,9.444991883356124e-05,0.0,1000,1000,1000,1000,12600,0,0.0027583513874560595,0.0027745875995606184,0.002656727796420455,10
normal_corridor_base,0,36389,0.0011754627339541912,0.000951219059061259,-0.07410893589258194,-35.3632621,149.1652374,-0.005,-0.02,0.02,0.0,-9.942232281900942e-05,9.44499479373917e-05,0.0,1000,1000,1000,1000,12600,0,0.0029469875153154135,0.002784217242151499,0.002719853539019823,10
normal_corridor_base,0,36724,0.0011812245938926935,0.0009670514846220613,-0.07449717819690704,-35.3632621,149.1652374,-0.005,-0.02,0.02,0.0,-9.942232281900942e-05,9.44499479373917e-05,0.0,1000,1000,1000,1000,12600,0,0.002796255284920335,0.0026088969316333532,0.0027452625799924135,10
normal_corridor_base,0,37056,0.0011967004975304008,0.0009861382422968745,-0.0749746635556221,-35.3632621,149.1652374,-0.005,-0.02,0.02,0.0,-9.942233737092465e-05,9.444991883356124e-05,0.0,1000,1000,1000,1000,12600,0,0.002677975222468376,0.0027728585992008448,0.002786265453323722,10
normal_corridor_base,0,37389,0.0012050297809764743,0.000998824369162321,-0.07534419745206833,-35.3632621,149.1652374,-0.005,-0.02,0.02,0.0,-9.942234464688227e-05,9.44498970056884e-05,0.0,1000,1000,1000,1000,12600,0,0.0028828189242631197,0.0029859328642487526,0.0027362972032278776,10
normal_corridor_base,0,37721,0.001210410031490028,0.0010069424752146006,-0.07570298761129379,-35.3632621,149.1652374,-0.005,-0.02,0.02,0.0,-9.942234464688227e-05,9.44498970056884e-05,0.0,1000,1000,1000,1000,12600,0,0.002838308457285166,0.0031018052250146866,0.0025838997680693865,10
normal_corridor_base,0,38054,0.001216358970850706,0.001027777441777289,-0.07618232071399689,-35.3632621,149.1652374,-0.006,-0.02,0.02,0.0,-9.942233009496704e-05,9.444988972973078e-05,0.0,1000,1000,1000,1000,12600,0,0.002947059692814946,0.0026727020740509033,0.0025082395877689123,10
normal_corridor_base,0,38387,0.00122954195830971,0.0010374978883191943,-0.07653196156024933,-35.3632621,149.1652374,-0.006,-0.02,0.02,0.0,-9.942233009496704e-05,9.444986062590033e-05,0.0,1000,1000,1000,1000,12600,0,0.0028312283102422953,0.002859746105968952,0.0027255620807409286,10
normal_corridor_base,0,38722,0.0012391314376145601,0.0010427567176520824,-0.07687543332576752,-35.3632621,149.1652374,-0.006,-0.02,0.02,0.0,-9.942233009496704e-05,9.444986062590033e-05,0.0,1000,1000,1000,1000,12600,0,0.0027281632646918297,0.0028682383708655834,0.002844638889655471,10
normal_corridor_base,0,39054,0.0012476240517571568,0.0010640849359333515,-0.07733890414237976,-35.3632621,149.1652374,-0.006,-0.02,0.02,0.0,-9.942229371517897e-05,9.444985334994271e-05,0.0,1000,1000,1000,1000,12600,0,0.0030457882676273584,0.003110380144789815,0.0028402444440871477,10
normal_corridor_base,0,39386,0.0012506358325481415,0.0010662178974598646,-0.07768170535564423,-35.3632621,149.1652374,-0.006,-0.02,0.02,0.0,-9.942227916326374e-05,9.444987517781556e-05,0.0,1000,1000,1000,1000,12600,0,0.002795940265059471,0.002658823039382696,0.002903958549723029,10
normal_corridor_base,0,39719,0.0012518909061327577,0.001073512015864253,-0.07801540940999985,-35.3632621,149.1652374,-0.006,-0.02,0.02,0.0,-9.942227916326374e-05,9.444987517781556e-05,0.0,1000,1000,1000,1000,12600,0,0.0027518542483448982,0.002806719858199358,0.0027551392558962107,10
normal_corridor_base,0,40052,0.001261556288227439,0.0010765597689896822,-0.07845565676689148,-35.3632621,149.1652374,-0.006,-0.02,0.02,0.0,-9.942226461134851e-05,9.44498970056884e-05,0.0,1000,1000,1000,1000,12600,0,0.002638554433360696,0.003217941615730524,0.002717458177357912,10
normal_corridor_base,0,40387,0.0012716208584606647,0.0010898252949118614,-0.07876423001289368,-35.3632621,149.1652374,-0.006,-0.02,0.02,0.0,-9.942229371517897e-05,9.444993338547647e-05,0.0,1000,1000,1000,1000,12600,0,0.0026199021376669407,0.0029695031698793173,0.0031060168985277414,10
normal_corridor_base,0,40719,0.0012775934301316738,0.0010935902828350663,-0.07907512038946152,-35.3632621,149.1652374,-0.006,-0.02,0.02,0.0,-9.942229371517897e-05,9.444993338547647e-05,0.0,1000,1000,1000,1000,12600,0,0.002658258890733123,0.0028842235915362835,0.0027807108126580715,10
normal_corridor_base,0,41051,0.0012869606725871563,0.0011019728844985366,-0.07943780720233917,-35.3632621,149.1652374,-0.006,-0.02,0.02,0.0,-9.94222573353909e-05,9.444992610951886e-05,0.0,1000,1000,1000,1000,12600,0,0.0026761884801089764,0.0028578012716025114,0.0027409973554313183,10
normal_corridor_base,0,41384,0.0012944728368893266,0.0011126350145787,-0.07974345982074738,-35.3632621,149.1652374,-0.006,-0.02,0.02,0.0,-9.942227188730612e-05,9.444992610951886e-05,0.0,1000,1000,1000,1000,12600,0,0.0027467512991279364,0.003048856742680073,0.0027583721093833447,10
normal_corridor_base,0,41719,0.0013031637063249946,0.0011233576806262136,-0.08005139976739883,-35.3632621,149.1652374,-0.006,0.0,0.0,0.0,-9.942227188730612e-05,9.444992610951886e-05,0.0,1000,1000,1000,1000,12600,0,0.002899462589994073,0.0028065049555152655,0.0029355473816394806,10
normal_corridor_base,0,42052,0.0013843607157468796,0.0012038423446938396,-0.08044552803039551,-35.3632621,149.1652374,-0.006,0.0,0.0,0.0,-9.942231554305181e-05,9.444991883356124e-05,0.0,1000,1000,1000,1000,12600,0,0.0028682532720267773,0.0026538423262536526,0.002766738645732403,10
normal_corridor_base,0,42384,0.001457412145100534,0.0012786161387339234,-0.08076043426990509,-35.3632621,149.1652374,-0.006,0.0,0.0,0.0,-9.942230099113658e-05,9.444992610951886e-05,0.0,1000,1000,1000,1000,12600,0,0.0030188201926648617,0.0031095147132873535,0.0027133310213685036,10
normal_corridor_base,0,42717,0.0015188974794000387,0.0013450570404529572,-0.0810602530837059,-35.3632621,149.1652374,-0.006,0.0,0.0,0.0,-9.942230099113658e-05,9.444992610951886e-05,0.0,1000,1000,1000,1000,12600,0,0.002869868651032448,0.002484390512108803,0.002500987146049738,10
normal_corridor_base,0,43049,0.001598882838152349,0.0014207217609509826,-0.08146851509809494,-35.3632621,149.1652374,-0.006,-0.01,0.01,0.0,-9.942232281900942e-05,9.444994066143408e-05,0.0,1000,1000,1000,1000,12600,0,0.002629354130476713,0.002865907968953252,0.0027944555040448904,10
normal_corridor_base,0,43384,0.0016357630956918001,0.0014520420227199793,-0.0817800760269165,-35.3632621,149.1652374,-0.006,-0.01,0.01,0.0,-9.942233009496704e-05,9.44498970056884e-05,0.0,1000,1000,1000,1000,12600,0,0.0026526888832449913,0.0028760472778230906,0.002844875445589423,10
normal_corridor_base,0,43716,0.0016597907524555922,0.0014747618697583675,-0.08208703994750977,-35.3632621,149.1652374,-0.006,-0.01,0.01,0.0,-9.942233009496704e-05,9.44498970056884e-05,0.0,1000,1000,1000,1000,12600,0,0.0025315755046904087,0.0028549865819513798,0.0027611153200268745,10
normal_corridor_base,0,44049,0.0016573917819187045,0.0014753430150449276,-0.0824945941567421,-35.3632621,149.1652374,-0.006,-0.01,0.01,0.0,-9.942235192283988e-05,9.444986790185794e-05,0.0,1000,1000,1000,1000,12600,0,0.002828205469995737,0.003201478160917759,0.002584712812677026,10
normal_corridor_base,0,44382,0.0016335721593350172,0.0014504729770123959,-0.0827895924448967,-35.3632621,149.1652375,-0.006,-0.01,0.01,0.0,-9.942238830262795e-05,9.444990428164601e-05,0.0,1000,1000,1000,1000,12600,0,0.002783202799037099,0.0029821612406522036,0.0028943398501724005,10
normal_corridor_base,0,44714,0.001608173712156713,0.0014148261398077011,-0.08307074755430222,-35.3632621,149.1652375,-0.006,-0.01,0.02,0.0,-9.942238830262795e-05,9.444990428164601e-05,0.0,1000,1000,1000,1000,12600,0,0.0026556914672255516,0.002732671331614256,0.0026733875274658203,10
normal_corridor_base,0,45049,0.001537223462946713,0.0013547755079343915,-0.0834450051188469,-35.3632621,149.1652375,-0.006,-0.01,0.02,0.0,-9.942235192283988e-05,9.444988972973078e-05,0.0,1000,1000,1000,1000,12600,0,0.00276091112755239,0.0027559599839150906,0.0028780153952538967,10
normal_corridor_base,0,45359,0.001479779719375074,0.0012987024383619428,-0.08371084183454514,-35.3632622,149.1652375,-0.006,-0.01,0.02,0.0,-9.942235192283988e-05,9.444988972973078e-05,0.0,1000,1000,1000,1000,12600,0,0.002627220004796982,0.0027916671242564917,0.0026745747309178114,10
normal_corridor_base,0,45609,0.0014392905868589878,0.0012611208949238062,-0.08392900973558426,-35.3632622,149.1652375,-0.006,-0.01,0.02,0.0,-9.942233737092465e-05,9.444988972973078e-05,0.0,1000,1000,1000,1000,12600,0,0.0026382827199995518,0.0028984176460653543,0.0026141763664782047,10
normal_corridor_base,0,46059,0.0013833766570314765,0.0012024238239973783,-0.0841258093714714,-35.3632622,149.1652375,-0.006,-0.01,0.01,0.0,-9.942230099113658e-05,9.444987517781556e-05,0.0,1000,1000,1000,1000,12600,0,0.002964441664516926,0.0029269512742757797,0.002818138338625431,10
normal_corridor_base,0,46392,0.001302353455685079,0.0011119218543171883,-0.08450280129909515,-35.3632622,149.1652375,-0.006,-0.01,0.01,0.0,-9.942231554305181e-05,9.444991883356124e-05,0.0,1000,1000,1000,1000,12600,0,0.002608353039249778,0.0027677789330482483,0.0025946777313947678,10
normal_corridor_base,0,46727,0.0012617376632988453,0.0010790240485221148,-0.08471516519784927,-35.3632622,149.1652375,-0.006,-0.01,0.01,0.0,-9.942224278347567e-05,9.444988972973078e-05,0.0,1000,1000,1000,1000,12600,0,0.002910564886406064,0.002735384739935398,0.002434569178149104,10
normal_corridor_base,0,47059,0.0012065443443134427,0.0010305745527148247,-0.08501138538122177,-35.3632621,149.1652375,-0.006,-0.01,0.01,0.0,-9.942224278347567e-05,9.444992610951886e-05,0.0,1000,1000,1000,1000,12600,0,0.002830331912264228,0.0026740948669612408,0.002407713560387492,10
normal_corridor_base,0,47391,0.0011716082226485014,0.0010006602387875319,-0.08523144572973251,-35.3632621,149.1652375,-0.006,-0.01,0.01,0.0,-9.942217729985714e-05,9.444986790185794e-05,0.0,1000,1000,1000,1000,12600,0,0.002942302729934454,0.00285010295920074,0.0027276657056063414,10
normal_corridor_base,0,47724,0.001149641815572977,0.0009779646061360836,-0.0854402706027031,-35.3632621,149.1652375,-0.006,-0.01,0.01,0.0,-9.942214819602668e-05,9.444982424611226e-05,0.0,1000,1000,1000,1000,12600,0,0.002766385907307267,0.0028399003203958273,0.0030175463762134314,10
normal_corridor_base,0,48059,0.001125318929553032,0.0009592204005457461,-0.08565187454223633,-35.3632621,149.1652375,-0.006,-0.01,0.01,0.0,-9.942212636815384e-05,9.444983152206987e-05,0.0,1000,1000,1000,1000,12600,0,0.0028327899053692818,0.0026628950145095587,0.002813168801367283,10
normal_corridor_base,0,48392,0.001106012612581253,0.00093677086988464,-0.08592470735311508,-35.3632621,149.1652375,-0.006,-0.01,0.01,0.0,-9.942208271240816e-05,9.444980969419703e-05,0.0,1000,1000,1000,1000,12600,0,0.002673731418326497,0.002887106966227293,0.0027083735913038254,10
normal_corridor_base,0,48724,0.001094074104912579,0.000924650754313916,-0.08611850440502167,-35.3632621,149.1652375,-0.006,-0.01,0.01,0.0,-9.942207543645054e-05,9.444978786632419e-05,0.0,1000,1000,1000,1000,12600,0,0.002895255573093891,0.0027202987112104893,0.0029511102475225925,10
normal_corridor_base,0,49057,0.0010856236331164837,0.0009212882723659277,-0.08630643039941788,-35.3632621,149.1652375,-0.006,-0.01,0.01,0.0,-9.942202450474724e-05,9.444976603845134e-05,0.0,1000,1000,1000,1000,12600,0,0.0028400977607816458,0.00296988058835268,0.0027216686867177486,10
normal_corridor_base,0,49389,0.0010836297878995538,0.0009114728891290724,-0.0865660011768341,-35.3632621,149.1652375,-0.006,-0.01,0.01,0.0,-9.942197357304394e-05,9.444972965866327e-05,0.0,1000,1000,1000,1000,12600,0,0.002492347965016961,0.002835314953699708,0.0027592757251113653,10
normal_corridor_base,0,49724,0.001077151158824563,0.0009058291325345635,-0.08675112575292587,-35.3632621,149.1652375,-0.006,-0.01,0.01,0.0,-9.942198812495917e-05,9.444971510674804e-05,0.0,1000,1000,1000,1000,12600,0,0.0026014719624072313,0.0029311387334018946,0.002819445449858904,10
normal_corridor_base,0,50056,0.0010790039086714387,0.0009111890103667974,-0.08694380521774292,-35.3632621,149.1652375,-0.006,-0.01,0.01,0.0,-9.942198812495917e-05,9.444970055483282e-05,0.0,1000,1000,1000,1000,12600,0,0.002784070558845997,0.0026727181393653154,0.0029317596927285194,10
normal_corridor_base,0,50389,0.0010809910017997026,0.0009157849126495421,-0.08718764036893845,-35.3632621,149.1652375,-0.006,-0.01,0.01,0.0,-9.94219517451711e-05,9.44495914154686e-05,0.0,1000,1000,1000,1000,12600,0,0.0025399215519428253,0.0026191214565187693,0.002780159702524543,10
normal_corridor_base,0,50722,0.0010793653782457113,0.0009112593252211809,-0.0873761996626854,-35.3632621,149.1652375,-0.006,-0.01,0.01,0.0,-9.94219517451711e-05,9.444958413951099e-05,0.0,1000,1000,1000,1000,12600,0,0.0027726662810891867,0.003052546177059412,0.0029897200874984264,10
normal_corridor_base,0,51054,0.0010875459993258119,0.0009112959378398955,-0.08755291253328323,-35.3632621,149.1652375,-0.006,-0.01,0.01,0.0,-9.942192991729826e-05,9.444955503568053e-05,0.0,1000,1000,1000,1000,12600,0,0.0028533220756798983,0.0029197835829108953,0.002751199994236231,10
normal_corridor_base,0,51389,0.0010868506506085396,0.0009175626910291612,-0.08778399229049683,-35.3632621,149.1652375,-0.006,-0.01,0.01,0.0,-9.942188626155257e-05,9.444949682801962e-05,0.0,1000,1000,1000,1000,12600,0,0.0030485019087791443,0.0027370627503842115,0.0028458614833652973,10
normal_corridor_base,0,51721,0.001087627955712378,0.0009147925302386284,-0.08795440942049026,-35.3632621,149.1652375,-0.006,-0.01,0.01,0.0,-9.94219008134678e-05,9.444951137993485e-05,0.0,1000,1000,1000,1000,12600,0,0.0028306476306170225,0.0031276103109121323,0.0028568448033183813,10
normal_corridor_base,0,52054,0.0010957687627524137,0.0009110906394198537,-0.08812540024518967,-35.3632621,149.1652375,-0.006,-0.01,0.01,0.0,-9.94219008134678e-05,9.4449489552062e-05,0.0,1000,1000,1000,1000,12600,0,0.002785135293379426,0.002680585253983736,0.0027994392439723015,10
normal_corridor_base,0,52386,0.0011044458951801062,0.0009058786672540009,-0.08834592998027802,-35.3632621,149.1652375,-0.006,-0.01,0.01,0.0,-9.942186443367973e-05,9.444945317227393e-05,0.0,1000,1000,1000,1000,12600,0,0.0027235804591327906,0.003026692196726799,0.0028935177251696587,10
normal_corridor_base,0,52719,0.0011071186745539308,0.0009135206928476691,-0.08848842978477478,-35.3632621,149.1652375,-0.006,-0.01,0.01,0.0,-9.942185715772212e-05,9.444943134440109e-05,0.0,1000,1000,1000,1000,12600,0,0.0029596081003546715,0.0028542650397866964,0.0030949146021157503,10
normal_corridor_base,0,53052,0.001109809847548604,0.0009151397971436381,-0.08864863216876984,-35.3632621,149.1652375,-0.006,-0.01,0.01,0.0,-9.942184260580689e-05,9.444942406844348e-05,0.0,1000,1000,1000,1000,12600,0,0.002941224491223693,0.003041155869141221,0.002886321395635605,10
normal_corridor_base,0,53386,0.0011165087344124913,0.0009218102204613388,-0.08887452632188797,-35.3632621,149.1652375,-0.006,-0.01,0.01,0.0,-9.942181350197643e-05,9.444940951652825e-05,0.0,1000,1000,1000,1000,12600,0,0.0029489491134881973,0.00251174857839942,0.0026835405733436346,10
normal_corridor_base,0,53719,0.0011281386250630021,0.0009300695965066552,-0.08903003484010696,-35.3632621,149.1652375,-0.006,-0.01,0.01,0.0,-9.942180622601882e-05,9.444942406844348e-05,0.0,1000,1000,1000,1000,12600,0,0.0027092781383544207,0.00295481295324862,0.0028192796744406223,10
normal_corridor_base,0,54051,0.0011327046668156981,0.0009299680823460221,-0.08918849378824234,-35.3632621,149.1652375,-0.006,-0.01,0.01,0.0,-9.942177712218836e-05,9.444941679248586e-05,0.0,1000,1000,1000,1000,12600,0,0.002688491251319647,0.00275303958915174,0.003126791911199689,10
normal_corridor_base,0,54384,0.0011347508989274502,0.0009401349816471338,-0.08939773589372635,-35.3632621,149.1652375,-0.006,-0.01,0.01,0.0,-9.942173346644267e-05,9.444938041269779e-05,0.0,1000,1000,1000,1000,12600,0,0.003010241547599435,0.0031401943415403366,0.0029208362102508545,10
normal_corridor_base,0,54717,0.0011430589947849512,0.0009446843760088086,-0.08954571932554245,-35.3632621,149.1652375,-0.006,-0.01,0.01,0.0,-9.942174074240029e-05,9.444932948099449e-05,0.0,1000,1000,1000,1000,12600,0,0.0025771153159439564,0.0030142092145979404,0.0027843124698847532,10
normal_corridor_base,0,55052,0.0011434353655204177,0.0009483788744546473,-0.08969390392303467,-35.3632621,149.1652375,-0.006,-0.01,0.01,0.0,-9.942173346644267e-05,9.444930037716404e-05,0.0,1000,1000,1000,1000,12600,0,0.002831040881574154,0.0027065572794526815,0.002578435465693474,10
normal_corridor_base,0,55384,0.0011458054650574923,0.0009519106242805719,-0.08989275246858597,-35.3632621,149.1652375,-0.006,-0.01,0.01,0.0,-9.942168981069699e-05,9.444924944546074e-05,0.0,1000,1000,1000,1000,12600,0,0.0026473947800695896,0.0026327138766646385,0.0026016205083578825,10
normal_corridor_base,0,55716,0.0011460625100880861,0.0009539423044770956,-0.09004601836204529,-35.3632621,149.1652375,-0.006,-0.01,0.01,0.0,-9.942170436261222e-05,9.444929310120642e-05,0.0,1000,1000,1000,1000,12600,0,0.003087696386501193,0.003256989875808358,0.0026035255286842585,10
normal_corridor_base,0,56049,0.0011482832487672567,0.0009522419422864914,-0.09018734097480774,-35.3632621,149.1652375,-0.006,-0.01,0.01,0.0,-9.942168253473938e-05,9.444927127333358e-05,0.0,1000,1000,1000,1000,12600,0,0.002731882268562913,0.002748652594164014,0.002870498923584819,10
normal_corridor_base,0,56384,0.001150742289610207,0.0009558619349263608,-0.09038730710744858,-35.3632621,149.1652375,-0.006,-0.01,0.01,0.0,-9.94216970866546e-05,9.444927127333358e-05,0.0,1000,1000,1000,1000,12600,0,0.002641444094479084,0.002972793998196721,0.003272563684731722,10
normal_corridor_base,0,56717,0.0011472501792013645,0.00095757917733863,-0.09052947163581848,-35.3632621,149.1652375,-0.006,-0.01,0.01,0.0,-9.94217480183579e-05,9.444930037716404e-05,0.0,1000,1000,1000,1000,12600,0,0.0027738898061215878,0.002642549341544509,0.002641192404553294,10
normal_corridor_base,0,57049,0.0011374852620065212,0.000958381628151983,-0.09064127504825592,-35.3632621,149.1652375,-0.006,-0.01,0.01,0.0,-9.942180622601882e-05,9.444932220503688e-05,0.0,1000,1000,1000,1000,12600,0,0.002779330126941204,0.003012733068317175,0.0027809632010757923,10
normal_corridor_base,0,57382,0.0011408913414925337,0.0009567330125719309,-0.09083002805709839,-35.3632621,149.1652375,-0.006,-0.01,0.01,0.0,-9.942181350197643e-05,9.444935130886734e-05,0.0,1000,1000,1000,1000,12600,0,0.002696045208722353,0.0024673931766301394,0.002678559860214591,10
normal_corridor_base,0,57714,0.0011427857680246234,0.0009604086517356336,-0.09096767753362656,-35.3632621,149.1652375,-0.006,-0.01,0.01,0.0,-9.942182805389166e-05,9.444936586078256e-05,0.0,1000,1000,1000,1000,12600,0,0.0027423223946243525,0.0025364498142153025,0.002634734148159623,10
normal_corridor_base,0,58049,0.001149601535871625,0.0009585543302819133,-0.0910959243774414,-35.3632621,149.1652375,-0.006,-0.01,0.01,0.0,-9.942185715772212e-05,9.444940224057063e-05,0.0,1000,1000,1000,1000,12600,0,0.002344811800867319,0.002765884157270193,0.002634022617712617,10
normal_corridor_base,0,58381,0.001154232071712613,0.000966985709965229,-0.09127876162528992,-35.3632622,149.1652375,-0.006,-0.01,0.01,0.0,-9.942191536538303e-05,9.444943134440109e-05,0.0,1000,1000,1000,1000,12600,0,0.0027790863532572985,0.0025179781951010227,0.0027782407123595476,10
normal_corridor_base,0,58714,0.0011526895686984062,0.0009675307082943618,-0.09140732884407043,-35.3632621,149.1652375,-0.006,-0.01,0.01,0.0,-9.94219517451711e-05,9.444946772418916e-05,0.0,1000,1000,1000,1000,12600,0,0.0033228464890271425,0.003003776539117098,0.0028865039348602295,10
normal_corridor_base,0,59047,0.0011542235733941197,0.000968033738899976,-0.09154003113508224,-35.3632621,149.1652375,-0.006,-0.01,0.01,0.0,-9.942192264134064e-05,9.444939496461302e-05,0.0,1000,1000,1000,1000,12600,0,0.003054908011108637,0.002921599429100752,0.0028703599236905575,10
normal_corridor_base,0,59379,0.001157941878773272,0.00097500323317945,-0.0917072743177414,-35.3632622,149.1652375,-0.006,-0.01,0.01,0.0,-9.942194446921349e-05,9.444936586078256e-05,0.0,1000,1000,1000,1000,12600,0,0.002908562310039997,0.002753529930487275,0.002767100464552641,10
normal_corridor_base,0,59714,0.0011562396539375186,0.0009752823389135301,-0.09183404594659805,-35.3632621,149.1652375,-0.006,-0.01,0.01,0.0,-9.942197357304394e-05,9.44493876886554e-05,0.0,1000,1000,1000,1000,12600,0,0.0030690175481140614,0.0026885441038757563,0.0028469283133745193,10
normal_corridor_base,0,60046,0.0011475196806713939,0.0009751165634952486,-0.09195557236671448,-35.3632621,149.1652375,-0.006,-0.01,0.01,0.0,-9.942198812495917e-05,9.444936586078256e-05,0.0,1000,1000,1000,1000,12600,0,0.0030095407273620367,0.0025298302061855793,0.003108883509412408,10
normal_corridor_base,0,60359,0.001152415294200182,0.0009686223929747939,-0.0921175554394722,-35.3632621,149.1652375,-0.006,-0.01,0.01,0.0,-9.942203178070486e-05,9.444936586078256e-05,0.0,1000,1000,1000,1000,12600,0,0.0028654318302869797,0.0029703269246965647,0.0029094191268086433,10
normal_corridor_base,0,60609,0.0011598190758377314,0.0009716156055219471,-0.09221701323986053,-35.3632622,149.1652375,-0.006,-0.01,0.01,0.0,-9.942204633262008e-05,9.444936586078256e-05,0.0,1000,1000,1000,1000,12600,0,0.0028654318302869797,0.0029703269246965647,0.0029094191268086433,10
normal_corridor_base,0,60859,0.0011506222654134035,0.0009574568248353899,-0.09232082962989807,-35.3632621,149.1652375,-0.006,-0.01,0.01,0.0,-9.942202450474724e-05,9.444936586078256e-05,0.0,1000,1000,1000,1000,12600,0,0.002845232840627432,0.0027584449853748083,0.00260436930693686,10
normal_corridor_base,0,61109,0.0011541894637048244,0.0009530831011943519,-0.09242058545351028,-35.3632621,149.1652375,-0.006,-0.01,0.01,0.0,-9.94220536085777e-05,9.444938041269779e-05,0.0,1000,1000,1000,1000,12600,0,0.002466082340106368,0.0028912045527249575,0.00280753243714571,10
normal_corridor_base,0,61359,0.001157370861619711,0.0009573562419973314,-0.09250995516777039,-35.3632622,149.1652375,-0.006,-0.01,0.01,0.0,-9.942203905666247e-05,9.444936586078256e-05,0.0,1000,1000,1000,1000,12600,0,0.0032029920257627964,0.0030849571339786053,0.0030326165724545717,10
normal_corridor_base,0,61609,0.001163512235507369,0.0009605655213817954,-0.09260693937540054,-35.3632622,149.1652375,-0.006,-0.01,0.01,0.0,-9.942208271240816e-05,9.444936586078256e-05,0.0,1000,1000,1000,1000,12600,0,0.0027413039933890104,0.0028050777036696672,0.0029552169144153595,10
normal_corridor_base,0,61859,0.0011544275330379605,0.0009527966612949967,-0.09268105775117874,-35.3632622,149.1652375,-0.006,-0.01,0.01,0.0,-9.942208998836577e-05,9.444940224057063e-05,0.0,1000,1000,1000,1000,12600,0,0.0028701815754175186,0.0027552323881536722,0.003020034870132804,10
normal_corridor_base,0,62109,0.0011569677153602242,0.0009554944699630141,-0.09277230501174927,-35.3632622,149.1652375,-0.006,-0.01,0.01,0.0,-9.9422104540281e-05,9.444942406844348e-05,0.0,1000,1000,1000,1000,12600,0,0.002576263854280114,0.0028237842489033937,0.00281587615609169,10
normal_corridor_base,0,62359,0.001162378117442131,0.0009543164051137865,-0.09286495298147202,-35.3632622,149.1652375,-0.006,-0.01,0.01,0.0,-9.942212636815384e-05,9.444945317227393e-05,0.0,1000,1000,1000,1000,12600,0,0.0026123153511434793,0.0026703509502112865,0.0027822148986160755,10
normal_corridor_base,0,62609,0.0011630640365183353,0.0009633832378312945,-0.09295174479484558,-35.3632622,149.1652375,-0.006,-0.01,0.01,0.0,-9.942212636815384e-05,9.444947500014678e-05,0.0,1000,1000,1000,1000,12600,0,0.002607963513582945,0.00300018722191453,0.0027914310339838266,10
normal_corridor_base,0,62859,0.0011604845058172941,0.0009619378834031522,-0.09304547309875488,-35.3632621,149.1652375,-0.006,-0.01,0.01,0.0,-9.942214092006907e-05,9.4449489552062e-05,0.0,1000,1000,1000,1000,12600,0,0.002651479560881853,0.003121313638985157,0.0026552302297204733,10
normal_corridor_base,0,63109,0.0011601106962189078,0.0009673222666606307,-0.09314198791980743,-35.3632622,149.1652375,-0.006,-0.01,0.01,0.0,-9.942209726432338e-05,9.444941679248586e-05,0.0,1000,1000,1000,1000,12600,0,0.002965441904962063,0.002840616274625063,0.00271061179228127,10
normal_corridor_base,0,63359,0.001159029663540423,0.000966163061093539,-0.09323614090681076,-35.3632622,149.1652375,-0.006,-0.01,0.01,0.0,-9.942212636815384e-05,9.444942406844348e-05,0.0,1000,1000,1000,1000,12600,0,0.002757894340902567,0.0027701384387910366,0.0028627743013203144,10
normal_corridor_base,0,63609,0.0011627719504758716,0.0009760424145497382,-0.09332115203142166,-35.3632622,149.1652375,-0.006,-0.01,0.01,0.0,-9.942211181623861e-05,9.44493876886554e-05,0.0,1000,1000,1000,1000,12600,0,0.0028746810276061296,0.002498235320672393,0.002747178077697754,10
normal_corridor_base,0,63859,0.0011575233656913042,0.0009708762518130243,-0.09340231865644455,-35.3632622,149.1652375,-0.006,-0.01,0.01,0.0,-9.942208998836577e-05,9.444940951652825e-05,0.0,1000,1000,1000,1000,12600,0,0.002889009192585945,0.0030402233824133873,0.0028160575311630964,10
normal_corridor_base,0,64109,0.0011629948858171701,0.0009625497623346746,-0.09349004924297333,-35.3632622,149.1652375,-0.006,-0.01,0.01,0.0,-9.942211909219623e-05,9.444942406844348e-05,0.0,1000,1000,1000,1000,12600,0,0.0027221243362873793,0.003016339847818017,0.0031026387587189674,10
normal_corridor_base,0,64359,0.0011643841862678528,0.0009647234110161662,-0.0935746431350708,-35.3632622,149.1652375,-0.006,-0.01,0.01,0.0,-9.942214819602668e-05,9.444943134440109e-05,0.0,1000,1000,1000,1000,12600,0,0.0028825874906033278,0.00287686032243073,0.002806844422593713,10
normal_corridor_base,0,64609,0.0011742374626919627,0.0009671474690549076,-0.09366049617528915,-35.3632622,149.1652375,-0.006,-0.01,0.01,0.0,-9.942217002389953e-05,9.444946044823155e-05,0.0,1000,1000,1000,1000,12600,0,0.002824182389304042,0.0028840594459325075,0.0029115660581737757,10
normal_corridor_base,0,64859,0.0011716042645275593,0.0009586861706338823,-0.09374558180570602,-35.3632621,149.1652375,-0.006,-0.01,0.01,0.0,-9.942219912772998e-05,9.444946772418916e-05,0.0,1000,1000,1000,1000,12600,0,0.0028020250611007214,0.0029560797847807407,0.0029144000727683306,10
normal_corridor_base,0,65109,0.0011645675403997302,0.0009521180763840675,-0.09383203834295273,-35.3632621,149.1652375,-0.006,-0.01,0.01,0.0,-9.942217729985714e-05,9.444945317227393e-05,0.0,1000,1000,1000,1000,12600,0,0.002846860559657216,0.0030448264442384243,0.0027191070839762688,10
normal_corridor_base,0,65359,0.0011631917441263795,0.0009598119067959487,-0.09391213208436966,-35.3632622,149.1652375,-0.006,-0.01,0.01,0.0,-9.942219185177237e-05,9.444947500014678e-05,0.0,1000,1000,1000,1000,12600,0,0.0028156533371657133,0.002865562215447426,0.0028732996433973312,10
normal_corridor_base,0,65609,0.0011656945571303368,0.0009660765063017607,-0.09399912506341934,-35.3632622,149.1652375,-0.006,-0.01,0.01,0.0,-9.942219912772998e-05,9.4449489552062e-05,0.0,1000,1000,1000,1000,12600,0,0.0026665946934372187,0.002545934170484543,0.002667010063305497,10
normal_corridor_base,0,65859,0.0011626722989603877,0.0009607851970940828,-0.09408099204301834,-35.3632621,149.1652375,-0.006,-0.01,0.01,0.0,-9.942219912772998e-05,9.4449489552062e-05,0.0,1000,1000,1000,1000,12600,0,0.0026679912116378546,0.0029578441753983498,0.002627108246088028,10
normal_corridor_base,0,66109,0.0011652786051854491,0.0009615044109523296,-0.09416186809539795,-35.3632621,149.1652375,-0.006,-0.01,0.01,0.0,-9.942219185177237e-05,9.4449489552062e-05,0.0,1000,1000,1000,1000,12600,0,0.002651833463460207,0.002939603989943862,0.002944599138572812,10
normal_corridor_base,0,66359,0.0011716493172571063,0.0009616982424631715,-0.0942365825176239,-35.3632621,149.1652375,-0.006,-0.01,0.01,0.0,-9.942219912772998e-05,9.444951137993485e-05,0.0,1000,1000,1000,1000,12600,0,0.0028581684455275536,0.002851201221346855,0.0026736941654235125,10
normal_corridor_base,0,66609,0.0011715091532096267,0.0009742812835611403,-0.09432173520326614,-35.3632622,149.1652375,-0.006,-0.01,0.01,0.0,-9.942217729985714e-05,9.444947500014678e-05,0.0,1000,1000,1000,1000,12600,0,0.0029005699325352907,0.0027807378210127354,0.002708904445171356,10
normal_corridor_base,0,66859,0.001172133139334619,0.0009718957007862628,-0.09439142793416977,-35.3632621,149.1652375,-0.006,-0.01,0.01,0.0,-9.942214819602668e-05,9.444947500014678e-05,0.0,1000,1000,1000,1000,12600,0,0.0024763979017734528,0.0028172589372843504,0.002990212058648467,10
normal_corridor_base,0,67109,0.001171556068584323,0.000970413675531745,-0.09445430338382721,-35.3632621,149.1652375,-0.006,-0.01,0.01,0.0,-9.94221554719843e-05,9.444950410397723e-05,0.0,1000,1000,1000,1000,12600,0,0.0029315960127860308,0.002608770038932562,0.0031276470981538296,10
normal_corridor_base,0,67359,0.0011740743648260832,0.0009744778508320451,-0.0945136770606041,-35.3632622,149.1652375,-0.006,-0.01,0.01,0.0,-9.942217002389953e-05,9.444951137993485e-05,0.0,1000,1000,1000,1000,12600,0,0.0030050098430365324,0.0028587067499756813,0.0028557695914059877,10
normal_corridor_base,0,67609,0.0011759717017412186,0.0009822900174185634,-0.09459088742733002,-35.3632622,149.1652375,-0.006,-0.01,0.01,0.0,-9.94222064036876e-05,9.4449489552062e-05,0.0,1000,1000,1000,1000,12600,0,0.0025982896331697702,0.002940783742815256,0.002750343643128872,10
normal_corridor_base,0,67859,0.001177049707621336,0.000982400611974299,-0.09466646611690521,-35.3632622,149.1652375,-0.006,-0.01,0.01,0.0,-9.942216274794191e-05,9.4449489552062e-05,0.0,1000,1000,1000,1000,12600,0,0.002685612067580223,0.0029180345591157675,0.0028259065002202988,10
normal_corridor_base,0,68109,0.0011777249164879322,0.0009811946656554937,-0.09473525732755661,-35.3632622,149.1652375,-0.006,-0.01,0.01,0.0,-9.942214092006907e-05,9.444949682801962e-05,0.0,1000,1000,1000,1000,12600,0,0.003075391985476017,0.0026856856420636177,0.0024714276660233736,10
normal_corridor_base,0,68359,0.0011827886337414384,0.0009911633096635342,-0.09480980038642883,-35.3632622,149.1652375,-0.006,-0.01,0.01,0.0,-9.942214092006907e-05,9.444946044823155e-05,0.0,1000,1000,1000,1000,12600,0,0.002987128449603915,0.002749452367424965,0.002868725685402751,10
normal_corridor_base,0,68609,0.0011901033576577902,0.0009955057175830007,-0.09488175809383392,-35.3632622,149.1652375,-0.006,-0.01,0.01,0.0,-9.942213364411145e-05,9.44494386203587e-05,0.0,1000,1000,1000,1000,12600,0,0.0027335314080119133,0.0030491549987345934,0.002974350471049547,10
normal_corridor_base,0,68859,0.0011928011663258076,0.0009890219662338495,-0.09495220333337784,-35.3632622,149.1652375,-0.006,-0.01,0.01,0.0,-9.942213364411145e-05,9.44493876886554e-05,0.0,1000,1000,1000,1000,12600,0,0.002812271239235997,0.002663548570126295,0.00277336104772985,10
normal_corridor_base,0,69109,0.001196506666019559,0.000990498112514615,-0.0950251892209053,-35.3632622,149.1652375,-0.006,-0.01,0.01,0.0,-9.942219185177237e-05,9.444943134440109e-05,0.0,1000,1000,1000,1000,12600,0,0.0028260264080017805,0.0027292142622172832,0.0025134270545095205,10
normal_corridor_base,0,69359,0.0011994054075330496,0.0009881966980174184,-0.09509508311748505,-35.3632622,149.1652375,-0.006,-0.01,0.01,0.0,-9.942219185177237e-05,9.444944589631632e-05,0.0,1000,1000,1000,1000,12600,0,0.002929061185568571,0.0027728548739105463,0.0028173173777759075,10
normal_corridor_base,0,69609,0.0012011491926386952,0.0009936913847923279,-0.09516657888889313,-35.3632622,149.1652375,-0.006,-0.01,0.01,0.0,-9.942217729985714e-05,9.444943134440109e-05,0.0,1000,1000,1000,1000,12600,0,0.003019853262230754,0.0030787033028900623,0.0028457841835916042,10
normal_corridor_base,0,69859,0.0011966314632445574,0.0009916990529745817,-0.09523222595453262,-35.3632622,149.1652375,-0.006,-0.01,0.01,0.0,-9.942217729985714e-05,9.444940951652825e-05,0.0,1000,1000,1000,1000,12600,0,0.002604989567771554,0.003010126994922757,0.0029133809730410576,10
normal_corridor_base,0,70109,0.001194216776639223,0.0009889912325888872,-0.09530533850193024,-35.3632622,149.1652375,-0.006,-0.01,0.01,0.0,-9.942217729985714e-05,9.444939496461302e-05,0.0,1000,1000,1000,1000,12600,0,0.002619471400976181,0.0026653814129531384,0.002831961726769805,10
normal_corridor_base,0,70359,0.0011970739578828216,0.000986253609880805,-0.09537345170974731,-35.3632622,149.1652375,-0.006,-0.01,0.01,0.0,-9.942223550751805e-05,9.444942406844348e-05,0.0,1000,1000,1000,1000,12600,0,0.002825481817126274,0.002691614208742976,0.0027383393608033657,10
normal_corridor_base,0,70609,0.0012026811018586159,0.0009967964142560959,-0.09543992578983307,-35.3632622,149.1652375,-0.006,-0.01,0.01,0.0,-9.942217729985714e-05,9.444937313674018e-05,0.0,1000,1000,1000,1000,12600,0,0.0026195852551609278,0.002697157906368375,0.0028697510715574026,10
normal_corridor_base,0,70859,0.0012048836797475815,0.000995021197013557,-0.09550667554140091,-35.3632622,149.1652375,-0.006,-0.01,0.01,0.0,-9.942221367964521e-05,9.444940224057063e-05,0.0,1000,1000,1000,1000,12600,0,0.0027341831009835005,0.0025690775364637375,0.0030556542333215475,10
normal_corridor_base,0,71109,0.0012006389442831278,0.00099421595223248,-0.09556705504655838,-35.3632622,149.1652375,-0.006,-0.01,0.01,0.0,-9.942222823156044e-05,9.444941679248586e-05,0.0,1000,1000,1000,1000,12600,0,0.0027963058091700077,0.002686540363356471,0.002949219197034836,10
normal_corridor_base,0,71359,0.0012016566470265388,0.0009967064252123237,-0.09562644362449646,-35.3632622,149.1652375,-0.006,-0.01,0.01,0.0,-9.94222573353909e-05,9.44494386203587e-05,0.0,1000,1000,1000,1000,12600,0,0.002542865928262472,0.0028671054169535637,0.002835168270394206,10
normal_corridor_base,0,71609,0.0012076832354068756,0.001007634331472218,-0.09569057822227478,-35.3632622,149.1652375,-0.006,-0.01,0.01,0.0,-9.942222823156044e-05,9.444943134440109e-05,0.0,1000,1000,1000,1000,12600,0,0.0029689213261008263,0.0026757658924907446,0.002927301451563835,10
normal_corridor_base,0,71859,0.0012053338577970862,0.001005668193101883,-0.09575078636407852,-35.3632622,149.1652375,-0.006,-0.01,0.01,0.0,-9.942222823156044e-05,9.444940224057063e-05,0.0,1000,1000,1000,1000,12600,0,0.002726985840126872,0.0027444707229733467,0.0027476258110255003,10
normal_corridor_base,0,72109,0.0011976305395364761,0.0010029266122728586,-0.09581219404935837,-35.3632622,149.1652375,-0.006,-0.01,0.01,0.0,-9.942229371517897e-05,9.444943134440109e-05,0.0,1000,1000,1000,1000,12600,0,0.0028418765868991613,0.0027399619575589895,0.0026172406505793333,10
normal_corridor_base,0,72359,0.0011984515003859997,0.001008735504001379,-0.09586744755506516,-35.3632622,149.1652375,-0.006,-0.01,0.01,0.0,-9.942223550751805e-05,9.444937313674018e-05,0.0,1000,1000,1000,1000,12600,0,0.002788554411381483,0.002669272478669882,0.002964946674183011,10
normal_corridor_base,0,72609,0.00120312231592834,0.0010167902801185846,-0.0959288701415062,-35.3632622,149.1652375,-0.006,-0.01,0.01,0.0,-9.94222573353909e-05,9.444939496461302e-05,0.0,1000,1000,1000,1000,12600,0,0.002701100194826722,0.002573255216702819,0.0030116650741547346,10
normal_corridor_base,0,72859,0.001203583786264062,0.0010159448720514774,-0.09598463028669357,-35.3632622,149.1652375,-0.006,-0.01,0.01,0.0,-9.942222823156044e-05,9.444935130886734e-05,0.0,1000,1000,1000,1000,12600,0,0.0029834103770554066,0.0029581973794847727,0.00240075821056962,10
normal_corridor_base,0,73109,0.0012080519227311015,0.0010126031702384353,-0.09605120867490768,-35.3632622,149.1652375,-0.006,-0.01,0.01,0.0,-9.942224278347567e-05,9.444935130886734e-05,0.0,1000,1000,1000,1000,12600,0,0.0026570658665150404,0.002837161533534527,0.0028759529814124107,10
normal_corridor_base,0,73359,0.0012073072139173746,0.0010161522077396512,-0.09609870612621307,-35.3632622,149.1652375,-0.006,-0.01,0.01,0.0,-9.942231554305181e-05,9.444938041269779e-05,0.0,1000,1000,1000,1000,12600,0,0.0027136094868183136,0.0030947853811085224,0.0027247148100286722,10
normal_corridor_base,0,73609,0.0012186376843601465,0.0010236636735498905,-0.09615346789360046,-35.3632622,149.1652375,-0.006,-0.01,0.01,0.0,-9.942235192283988e-05,9.444937313674018e-05,0.0,1000,1000,1000,1000,12600,0,0.0029310958925634623,0.0028371568769216537,0.0028242601547390223,10
normal_corridor_base,0,73859,0.001220489270053804,0.0010209240717813373,-0.09621218591928482,-35.3632622,149.1652375,-0.006,-0.01,0.01,0.0,-9.942236647475511e-05,9.444936586078256e-05,0.0,1000,1000,1000,1000,12600,0,0.002780658658593893,0.003001938574016094,0.0027536035049706697,10
normal_corridor_base,0,74109,0.0012195694725960493,0.0010166015708819032,-0.09627530723810196,-35.3632622,149.1652375,-0.006,-0.01,0.01,0.0,-9.942242468241602e-05,9.444940951652825e-05,0.0,1000,1000,1000,1000,12600,0,0.0029986819718033075,0.002875154372304678,0.002854706021025777,10
normal_corridor_base,0,74359,0.001222459482960403,0.0010144237894564867,-0.09632859379053116,-35.3632622,149.1652375,-0.006,-0.01,0.01,0.0,-9.942245378624648e-05,9.444942406844348e-05,0.0,1000,1000,1000,1000,12600,0,0.0030178697779774666,0.00298223365098238,0.00299146119505167,10
normal_corridor_base,0,74609,0.001231157104484737,0.001016441616229713,-0.09638438373804092,-35.3632622,149.1652375,-0.006,-0.01,0.01,0.0,-9.942243923433125e-05,9.444937313674018e-05,0.0,1000,1000,1000,1000,12600,0,0.002893277443945408,0.0025664581917226315,0.0030008461326360703,10
normal_corridor_base,0,74859,0.0012242469238117337,0.001009679865092039,-0.09644083678722382,-35.3632622,149.1652375,-0.006,-0.01,0.01,0.0,-9.942242468241602e-05,9.444932220503688e-05,0.0,1000,1000,1000,1000,12600,0,0.0027745075058192015,0.002769715851172805,0.002714162226766348,10
normal_corridor_base,0,75109,0.001223935978487134,0.0010168857406824827,-0.0964905396103859,-35.3632622,149.1652375,-0.006,-0.01,0.01,0.0,-9.942249016603455e-05,9.444935130886734e-05,0.0,1000,1000,1000,1000,12600,0,0.002797881606966257,0.0025685003492981195,0.002859455533325672,10
