flight_id,label,attack_type,timestamp,att_roll,att_pitch,att_yaw,pos_lat,pos_lon,pos_alt_rel,pos_vx,pos_vy,pos_vz,nav_roll,nav_pitch,nav_alt_error,servo1_raw,servo2_raw,servo3_raw,servo4_raw,sys_voltage_battery,sys_load,vib_x,vib_y,vib_z,gps_sats_visible,attack_params_json
attack_corridor_base_3,1,pos_spoof,10199,0.00019340560538694263,-3.848237611236982e-05,-0.3406588137149811,-35.3632621,149.1652374,0.0,0.0,0.0,-0.03,-9.942168253473938e-05,9.444943134440109e-05,0.0,1000,1000,1000,1000,12600,0,0.0027387093286961317,0.002975926036015153,0.0027475878596305847,10,{}
attack_corridor_base_3,1,pos_spoof,10531,0.00019944147788919508,-2.9146573069738224e-05,-0.30993008613586426,-35.3632621,149.1652374,0.0,0.0,0.0,-0.03,-9.942168253473938e-05,9.444943134440109e-05,0.0,1000,1000,1000,1000,12600,0,0.0025866914074867964,0.0027432595379650593,0.003060103626921773,10,{}
attack_corridor_base_3,1,pos_spoof,10864,0.00020193163072690368,-2.10616817639675e-05,-0.28069713711738586,-35.3632621,149.1652374,0.0,0.0,0.0,-0.03,-9.942171163856983e-05,9.444940224057063e-05,0.0,1000,1000,1000,1000,12600,0,0.0026077707298099995,0.0026353737339377403,0.002791576087474823,10,{}
attack_corridor_base_3,1,pos_spoof,11197,0.00020488753216341138,-1.0083741472044494e-05,-0.24680982530117035,-35.3632621,149.1652374,0.0,0.0,0.0,-0.03,-9.942161705112085e-05,9.44493876886554e-05,0.0,1000,1000,1000,1000,12600,0,0.0026995122898370028,0.002767502563074231,0.002961227670311928,10,{}
attack_corridor_base_3,1,pos_spoof,11529,0.00020915847562719136,-6.624100024055224e-07,-0.22353021800518036,-35.3632621,149.1652374,0.0,0.0,0.0,-0.03,-9.942161705112085e-05,9.44493876886554e-05,0.0,1000,1000,1000,1000,12600,0,0.0030416676308959723,0.0026709933299571276,0.0029608665499836206,10,{}
attack_corridor_base_3,1,pos_spoof,11864,0.0002197016146965325,3.7954953313601436e-06,-0.20239882171154022,-35.3632621,149.1652374,0.0,0.0,0.0,-0.02,-9.942158067133278e-05,9.444940224057063e-05,0.0,1000,1000,1000,1000,12600,0,0.0029853794258087873,0.0026392589788883924,0.002727753948420286,10,{}
attack_corridor_base_3,1,pos_spoof,12196,0.000223037030082196,1.9551602235878818e-05,-0.17783847451210022,-35.3632621,149.1652374,0.0,0.0,0.0,-0.02,-9.942162432707846e-05,9.444938041269779e-05,0.0,1000,1000,1000,1000,12600,0,0.003033690620213747,0.0026568160392344,0.0028642623219639063,10,{}
attack_corridor_base_3,1,pos_spoof,12529,0.00023171589418780059,2.4819046302582137e-05,-0.16169486939907074,-35.3632621,149.1652374,0.0,0.0,0.0,-0.02,-9.942162432707846e-05,9.444938041269779e-05,0.0,1000,1000,1000,1000,12600,0,0.0027628473471850157,0.003143638838082552,0.0028644867707043886,10,{}
attack_corridor_base_3,1,pos_spoof,12862,0.00023813832376617938,3.558524986146949e-05,-0.14736409485340118,-35.3632621,149.1652374,0.0,0.0,0.0,-0.02,-9.942166070686653e-05,9.444935858482495e-05,0.0,1000,1000,1000,1000,12600,0,0.0027481457218527794,0.0029096815269440413,0.0026871596928685904,10,{}
attack_corridor_base_3,1,pos_spoof,13194,0.00024615085567347705,4.1340328607475385e-05,-0.1307661533355713,-35.3632621,149.1652374,0.0,0.0,0.0,-0.02,-9.942161705112085e-05,9.444936586078256e-05,0.0,1000,1000,1000,1000,12600,0,0.002760909032076597,0.002732655266299844,0.0026894633192569017,10,{}
attack_corridor_base_3,1,pos_spoof,13527,0.00025752370129339397,4.596411599777639e-05,-0.12004750221967697,-35.3632621,149.1652374,0.0,0.0,0.0,-0.01,-9.942161705112085e-05,9.444936586078256e-05,0.0,1000,1000,1000,1000,12600,0,0.0028271509800106287,0.002707127248868346,0.0028626536950469017,10,{}
attack_corridor_base_3,1,pos_spoof,13861,0.0002675630385056138,5.645856072078459e-05,-0.11061028391122818,-35.3632621,149.1652374,0.0,0.0,0.0,-0.01,-9.942161705112085e-05,9.444940224057063e-05,0.0,1000,1000,1000,1000,12600,0,0.0029378316830843687,0.0025975194294005632,0.002718403236940503,10,{}
attack_corridor_base_3,1,pos_spoof,14194,0.0002776130277197808,6.538238085340708e-05,-0.09984114021062851,-35.3632621,149.1652374,0.0,0.0,0.0,-0.01,-9.942151518771425e-05,9.444934403290972e-05,0.0,1000,1000,1000,1000,12600,0,0.0027967984788119793,0.0027427696622908115,0.0027692890726029873,10,{}
attack_corridor_base_3,1,pos_spoof,14526,0.00028649851446971297,7.7300843258854e-05,-0.09293074160814285,-35.3632621,149.1652374,0.0,0.0,0.0,-0.01,-9.942151518771425e-05,9.444934403290972e-05,0.0,1000,1000,1000,1000,12600,0,0.0028115417808294296,0.0028703962452709675,0.002275716280564666,10,{}
attack_corridor_base_3,1,pos_spoof,14859,0.00030114524997770786,9.032130765262991e-05,-0.0869026780128479,-35.3632621,149.1652374,0.0,0.0,0.0,-0.01,-9.942150791175663e-05,9.444932220503688e-05,0.0,1000,1000,1000,1000,12600,0,0.0028224694542586803,0.002732269000262022,0.002742947544902563,10,{}
attack_corridor_base_3,1,pos_spoof,15352,0.0003202961233910173,0.00010656270023901016,-0.07727712392807007,-35.3632621,149.1652374,0.0,0.0,0.0,-0.01,-9.942151518771425e-05,9.444938041269779e-05,0.0,1000,1000,1000,1000,12600,0,0.0027666506357491016,0.002674281131476164,0.0025448764208704233,10,{}
attack_corridor_base_3,1,pos_spoof,15602,0.0003311962354928255,0.0001118296422646381,-0.07388365268707275,-35.3632621,149.1652374,0.0,0.0,0.0,-0.01,-9.942150063579902e-05,9.444935130886734e-05,0.0,1000,1000,1000,1000,12600,0,0.0030545052140951157,0.002723335288465023,0.002874585334211588,10,{}
attack_corridor_base_3,1,pos_spoof,15854,0.0003366611781530082,0.00012025694741168991,-0.07094002515077591,-35.3632621,149.1652374,0.0,0.0,0.0,0.0,-9.942148608388379e-05,9.444936586078256e-05,0.0,1000,1000,1000,1000,12600,0,0.0025787425693124533,0.002964934566989541,0.0025026078801602125,10,{}
attack_corridor_base_3,1,pos_spoof,16104,0.0003452042583376169,0.00012997495650779456,-0.06826519221067429,-35.3632621,149.1652374,0.0,0.0,0.0,0.0,-9.94214933598414e-05,9.444938041269779e-05,0.0,1000,1000,1000,1000,12600,0,0.0025787425693124533,0.002964934566989541,0.0025026078801602125,10,{}
attack_corridor_base_3,1,pos_spoof,16354,0.0003532669215928763,0.00013789819786325097,-0.06596497446298599,-35.3632621,149.1652374,0.0,0.0,0.0,0.0,-9.942148608388379e-05,9.444935858482495e-05,0.0,1000,1000,1000,1000,12600,0,0.002823276910930872,0.002862100023776293,0.0028423189651221037,10,{}
attack_corridor_base_3,1,pos_spoof,16604,0.00036598052247427404,0.00014508528693113476,-0.06390956789255142,-35.3632621,149.1652374,0.0,0.0,0.0,0.0,-9.942148608388379e-05,9.444935858482495e-05,0.0,1000,1000,1000,1000,12600,0,0.0030448574107140303,0.0026733409613370895,0.0027090951334685087,10,{}
attack_corridor_base_3,1,pos_spoof,16854,0.00037629168946295977,0.00015352379705291241,-0.06214262917637825,-35.3632621,149.1652374,0.0,0.0,0.0,0.0,-9.942147880792618e-05,9.444937313674018e-05,0.0,1000,1000,1000,1000,12600,0,0.0027102159801870584,0.0027918540872633457,0.002889963099732995,10,{}
attack_corridor_base_3,1,pos_spoof,17102,0.0003875784750562161,0.0001590102765476331,-0.06053543463349342,-35.3632621,149.1652374,0.0,0.0,0.0,0.0,-9.942147880792618e-05,9.444937313674018e-05,0.0,1000,1000,1000,1000,12600,0,0.0027102159801870584,0.0027918540872633457,0.002889963099732995,10,{}
attack_corridor_base_3,1,pos_spoof,17459,0.00039533182280138135,0.0001676493848208338,-0.059236761182546616,-35.3632621,149.1652374,0.0,0.0,0.0,0.0,-9.942152246367186e-05,9.444938041269779e-05,0.0,1000,1000,1000,1000,12600,0,0.002874169498682022,0.0028606499545276165,0.0028805474285036325,10,{}
attack_corridor_base_3,1,pos_spoof,17792,0.0004115744086448103,0.00018173221906181425,-0.0574297234416008,-35.3632621,149.1652374,0.0,0.0,0.0,0.0,-9.942160249920562e-05,9.444936586078256e-05,0.0,1000,1000,1000,1000,12600,0,0.002813132246956229,0.002739754505455494,0.0029494245536625385,10,{}
attack_corridor_base_3,1,pos_spoof,18124,0.00042281061178073287,0.00019755282846745104,-0.056327227503061295,-35.3632621,149.1652374,0.0,0.0,0.0,0.0,-9.942160249920562e-05,9.444936586078256e-05,0.0,1000,1000,1000,1000,12600,0,0.002957870252430439,0.0028142917435616255,0.002637238707393408,10,{}
attack_corridor_base_3,1,pos_spoof,18459,0.00043953803833574057,0.00021359106176532805,-0.05513320863246918,-35.3632621,149.1652374,0.0,0.0,0.0,0.0,-9.942168253473938e-05,9.444935858482495e-05,0.0,1000,1000,1000,1000,12600,0,0.0026646731421351433,0.002739576157182455,0.0027450495399534702,10,{}
attack_corridor_base_3,1,pos_spoof,18791,0.0004502838128246367,0.00022965899552218616,-0.054463110864162445,-35.3632621,149.1652374,0.0,0.0,0.0,0.0,-9.942160977516323e-05,9.444928582524881e-05,0.0,1000,1000,1000,1000,12600,0,0.002527008531615138,0.002876574406400323,0.002860062522813678,10,{}
attack_corridor_base_3,1,pos_spoof,19124,0.0004715608083643019,0.0002443889679852873,-0.05390481278300285,-35.3632621,149.1652374,0.0,0.0,0.0,0.0,-9.942160977516323e-05,9.444928582524881e-05,0.0,1000,1000,1000,1000,12600,0,0.0029688961803913116,0.0032663692254573107,0.002683136845007539,10,{}
attack_corridor_base_3,1,pos_spoof,19457,0.00048681037151254714,0.00025878040469251573,-0.053394168615341187,-35.3632621,149.1652374,0.0,0.0,0.0,0.0,-9.942161705112085e-05,9.444931492907926e-05,0.0,1000,1000,1000,1000,12600,0,0.002925332635641098,0.002883398672565818,0.003120061941444874,10,{}
attack_corridor_base_3,1,pos_spoof,19789,0.0005028293235227466,0.00027246362878941,-0.053098682314157486,-35.3632621,149.1652374,0.0,0.0,0.0,0.0,-9.94216461549513e-05,9.444935130886734e-05,0.0,1000,1000,1000,1000,12600,0,0.0030658149626106024,0.0025323941372334957,0.0026905967388302088,10,{}
attack_corridor_base_3,1,pos_spoof,20124,0.0005279891774989665,0.0002882597909774631,-0.05276608094573021,-35.3632621,149.1652374,0.006,0.0,0.0,0.0,-9.94216461549513e-05,9.444935130886734e-05,0.0,1000,1000,1000,1000,12600,0,0.002810151781886816,0.002880667569115758,0.0027631856501102448,10,{}
attack_corridor_base_3,1,pos_spoof,20456,0.0005425693234428763,0.00031064992072060704,-0.052648063749074936,-35.3632621,149.1652374,-0.008,0.0,0.0,0.0,-9.942175529431552e-05,9.444940224057063e-05,0.0,1000,1000,1000,1000,12600,0,0.0028797301929444075,0.0028402500320225954,0.0027622049674391747,10,{}
attack_corridor_base_3,1,pos_spoof,20789,0.0005563697777688503,0.0003250570152886212,-0.05270545184612274,-35.3632621,149.1652374,-0.007,0.0,0.0,0.0,-9.942172619048506e-05,9.444939496461302e-05,0.0,1000,1000,1000,1000,12600,0,0.0027208467945456505,0.0026182574220001698,0.0030386894941329956,10,{}
attack_corridor_base_3,1,pos_spoof,21121,0.0005709208780899644,0.0003414512611925602,-0.05280178412795067,-35.3632621,149.1652374,-0.006,0.0,0.0,0.0,-9.942172619048506e-05,9.444939496461302e-05,0.0,1000,1000,1000,1000,12600,0,0.0029055862687528133,0.002771336818113923,0.003023699391633272,10,{}
attack_corridor_base_3,1,pos_spoof,21454,0.0005933186621405184,0.00036226786323823035,-0.053028859198093414,-35.3632621,149.1652374,-0.004,0.0,0.0,0.0,-9.942175529431552e-05,9.444936586078256e-05,0.0,1000,1000,1000,1000,12600,0,0.0026186408940702677,0.002845054492354393,0.0029128335881978273,10,{}
attack_corridor_base_3,1,pos_spoof,21787,0.0006141215562820435,0.0003773759235627949,-0.053224220871925354,-35.3632621,149.1652374,-0.003,0.0,0.0,0.0,-9.942179167410359e-05,9.444934403290972e-05,0.0,1000,1000,1000,1000,12600,0,0.0030268358532339334,0.0027040294371545315,0.002752023981884122,10,{}
attack_corridor_base_3,1,pos_spoof,22121,0.0006323378765955567,0.00039218325400725007,-0.05348172038793564,-35.3632621,149.1652374,-0.001,0.0,0.01,0.0,-9.942179167410359e-05,9.444934403290972e-05,0.0,1000,1000,1000,1000,12600,0,0.0030112224631011486,0.002673760987818241,0.0028710400220006704,10,{}
attack_corridor_base_3,1,pos_spoof,22454,0.0006557360757142305,0.0004180684045422822,-0.05387981981039047,-35.3632621,149.1652374,0.0,0.0,0.01,0.0,-9.942183532984927e-05,9.444942406844348e-05,0.0,1000,1000,1000,1000,12600,0,0.002554996171966195,0.0028542159125208855,0.0027448481414467096,10,{}
attack_corridor_base_3,1,pos_spoof,22786,0.0006735526258125901,0.0004378660232760012,-0.05422377586364746,-35.3632621,149.1652374,0.0,0.0,0.01,0.0,-9.942194446921349e-05,9.444948227610439e-05,0.0,1000,1000,1000,1000,12600,0,0.0025164084509015083,0.0026491356547921896,0.0026397109031677246,10,{}
attack_corridor_base_3,1,pos_spoof,23119,0.000693737412802875,0.00045750505523756146,-0.0545806959271431,-35.3632621,149.1652374,0.001,-0.01,0.01,0.0,-9.942194446921349e-05,9.444948227610439e-05,0.0,1000,1000,1000,1000,12600,0,0.002932930365204811,0.0027491149958223104,0.0026990168262273073,10,{}
attack_corridor_base_3,1,pos_spoof,23452,0.0007108434219844639,0.000480616552522406,-0.055129893124103546,-35.3632621,149.1652374,0.001,-0.01,0.01,0.0,-9.942192264134064e-05,9.44494386203587e-05,0.0,1000,1000,1000,1000,12600,0,0.0028116549365222454,0.0027383496053516865,0.002795818727463484,10,{}
attack_corridor_base_3,1,pos_spoof,23787,0.0007250621565617621,0.0004951287992298603,-0.05550595745444298,-35.3632621,149.1652374,0.002,-0.01,0.01,0.0,-9.942182805389166e-05,9.444940951652825e-05,0.0,1000,1000,1000,1000,12600,0,0.0027616615407168865,0.0029402330983430147,0.002856470411643386,10,{}
attack_corridor_base_3,1,pos_spoof,24119,0.000741565425414592,0.000514462823048234,-0.055922649800777435,-35.3632621,149.1652374,0.002,-0.01,0.01,0.0,-9.942182805389166e-05,9.444940951652825e-05,0.0,1000,1000,1000,1000,12600,0,0.002855840604752302,0.003028535284101963,0.002579456428065896,10,{}
attack_corridor_base_3,1,pos_spoof,24451,0.0007589950691908598,0.0005328226834535599,-0.0565122589468956,-35.3632621,149.1652374,0.002,-0.01,0.01,0.0,-9.942186443367973e-05,9.444940224057063e-05,0.0,1000,1000,1000,1000,12600,0,0.002661915263161063,0.002672038972377777,0.002763251308351755,10,{}
attack_corridor_base_3,1,pos_spoof,24784,0.0007742196903564036,0.0005507664754986763,-0.05694657564163208,-35.3632621,149.1652374,0.002,-0.01,0.01,0.0,-9.942189353751019e-05,9.444946044823155e-05,0.0,1000,1000,1000,1000,12600,0,0.002989244181662798,0.002852462464943528,0.0027139184530824423,10,{}
attack_corridor_base_3,1,pos_spoof,25119,0.0007914548041298985,0.0005676201544702053,-0.05740518495440483,-35.3632621,149.1652374,0.003,-0.01,0.01,0.0,-9.942189353751019e-05,9.444946044823155e-05,0.0,1000,1000,1000,1000,12600,0,0.0026904046535491943,0.002841273322701454,0.002572262194007635,10,{}
attack_corridor_base_3,1,pos_spoof,25452,0.0008060812251642346,0.0005841247620992362,-0.05803025886416435,-35.3632621,149.1652374,0.003,-0.01,0.01,0.0,-9.942192991729826e-05,9.444953320780769e-05,0.0,1000,1000,1000,1000,12600,0,0.002849991898983717,0.002928000409156084,0.0029636539984494448,10,{}
attack_corridor_base_3,1,pos_spoof,25784,0.0008215610287152231,0.0006012563244439662,-0.05834982544183731,-35.3632621,149.1652374,0.003,-0.01,0.01,0.0,-9.942192264134064e-05,9.444954775972292e-05,0.0,1000,1000,1000,1000,12600,0,0.002701130462810397,0.003096467349678278,0.0029379872139543295,10,{}
attack_corridor_base_3,1,pos_spoof,26117,0.0008369286078959703,0.0006183529039844871,-0.05883628502488136,-35.3632621,149.1652374,0.002,-0.01,0.01,0.0,-9.942192264134064e-05,9.444954775972292e-05,0.0,1000,1000,1000,1000,12600,0,0.0029968474991619587,0.002630867063999176,0.0030616100411862135,10,{}
attack_corridor_base_3,1,pos_spoof,26449,0.0008565704920329154,0.0006233002059161663,-0.05949573591351509,-35.3632621,149.1652374,0.002,-0.01,0.01,0.0,-9.942190808942541e-05,9.444946772418916e-05,0.0,1000,1000,1000,1000,12600,0,0.00267254956997931,0.0028397359419614077,0.0027740236837416887,10,{}
attack_corridor_base_3,1,pos_spoof,26784,0.0008702254854142666,0.0006322749541141093,-0.05998460575938225,-35.3632621,149.1652374,0.002,-0.01,0.01,0.0,-9.942190808942541e-05,9.44494386203587e-05,0.0,1000,1000,1000,1000,12600,0,0.002463323762640357,0.0027716367039829493,0.00259005487896502,10,{}
attack_corridor_base_3,1,pos_spoof,27116,0.0008792741573415697,0.0006446418119594455,-0.06048675253987312,-35.3632621,149.1652374,0.002,-0.01,0.01,0.0,-9.942190808942541e-05,9.44494386203587e-05,0.0,1000,1000,1000,1000,12600,0,0.0030539273284375668,0.003175775520503521,0.0029828797560185194,10,{}
attack_corridor_base_3,1,pos_spoof,27449,0.0008936746744439006,0.0006553794955834746,-0.061152566224336624,-35.3632621,149.1652374,0.002,-0.01,0.01,0.0,-9.94219517451711e-05,9.444948227610439e-05,0.0,1000,1000,1000,1000,12600,0,0.0026050382293760777,0.0028638518415391445,0.0028989813290536404,10,{}
attack_corridor_base_3,1,pos_spoof,27782,0.0009075780399143696,0.0006661360384896398,-0.061660006642341614,-35.3632621,149.1652374,0.001,-0.01,0.01,0.0,-9.942198084900156e-05,9.444952593185008e-05,0.0,1000,1000,1000,1000,12600,0,0.0029750498943030834,0.0025818904396146536,0.0027117293793708086,10,{}
attack_corridor_base_3,1,pos_spoof,28114,0.0009185776580125093,0.0006795763620175421,-0.062139276415109634,-35.3632621,149.1652374,0.001,-0.01,0.01,0.0,-9.942198084900156e-05,9.444952593185008e-05,0.0,1000,1000,1000,1000,12600,0,0.0027951246593147516,0.003125362331047654,0.0027901288121938705,10,{}
attack_corridor_base_3,1,pos_spoof,28449,0.0009316968498751521,0.0006948707159608603,-0.06281642615795135,-35.3632621,149.1652374,0.001,-0.01,0.01,0.0,-9.942202450474724e-05,9.444956958759576e-05,0.0,1000,1000,1000,1000,12600,0,0.002741509350016713,0.0027955209370702505,0.0028263255953788757,10,{}
attack_corridor_base_3,1,pos_spoof,28781,0.0009438982233405113,0.0007098634378053248,-0.06328900158405304,-35.3632621,149.1652374,0.0,-0.01,0.01,0.0,-9.942211909219623e-05,9.444962051929906e-05,0.0,1000,1000,1000,1000,12600,0,0.002932919654995203,0.0026936535723507404,0.0029684111941605806,10,{}
attack_corridor_base_3,1,pos_spoof,29114,0.0009523181361146271,0.0007238099933601916,-0.06377499550580978,-35.3632621,149.1652374,0.0,-0.01,0.01,0.0,-9.942211909219623e-05,9.444962051929906e-05,0.0,1000,1000,1000,1000,12600,0,0.0027511550579220057,0.0028293360956013203,0.0025736577808856964,10,{}
attack_corridor_base_3,1,pos_spoof,29446,0.0009727847063913941,0.0007402348564937711,-0.06439470499753952,-35.3632621,149.1652374,0.0,-0.01,0.01,0.0,-9.942224278347567e-05,9.444970055483282e-05,0.0,1000,1000,1000,1000,12600,0,0.0026861075311899185,0.002487252000719309,0.0028169883880764246,10,{}
attack_corridor_base_3,1,pos_spoof,29779,0.0009804058354347944,0.0007501820800825953,-0.0648854523897171,-35.3632621,149.1652374,0.0,-0.01,0.02,0.0,-9.942230099113658e-05,9.444970055483282e-05,0.0,1000,1000,1000,1000,12600,0,0.0029223195742815733,0.003132366109639406,0.002804557327181101,10,{}
attack_corridor_base_3,1,pos_spoof,30352,0.0009988810634240508,0.0007762580644339323,-0.06582269817590714,-35.3632621,149.1652374,-0.001,-0.01,0.02,0.0,-9.942230099113658e-05,9.444970055483282e-05,0.0,1000,1000,1000,1000,12600,0,0.002861886052414775,0.0029265324119478464,0.0029392950236797333,10,{}
attack_corridor_base_3,1,pos_spoof,30604,0.0010026745731011033,0.0007829213282093406,-0.06621085107326508,-35.3632621,149.1652374,-0.001,-0.01,0.02,0.0,-9.942230099113658e-05,9.444970055483282e-05,0.0,1000,1000,1000,1000,12600,0,0.002861886052414775,0.0029265324119478464,0.0029392950236797333,10,{}
attack_corridor_base_3,1,pos_spoof,30854,0.001014680601656437,0.0007896236493252218,-0.06658640503883362,-35.3632621,149.1652374,-0.001,-0.01,0.02,0.0,-9.942244651028886e-05,9.44498460739851e-05,0.0,1000,1000,1000,1000,12600,0,0.002649520756676793,0.002705460647121072,0.0029449232388287783,10,{}
attack_corridor_base_3,1,pos_spoof,31104,0.0010177631629630923,0.0007951052393764257,-0.0669742152094841,-35.3632621,149.1652374,-0.002,-0.01,0.02,0.0,-9.942244651028886e-05,9.44498460739851e-05,0.0,1000,1000,1000,1000,12600,0,0.0026380515191704035,0.0026918735820800066,0.0029353960417211056,10,{}
attack_corridor_base_3,1,pos_spoof,31469,0.0010303289163857698,0.0007989954319782555,-0.06734567135572433,-35.3632621,149.1652374,-0.002,-0.01,0.02,0.0,-9.942250471794978e-05,9.444991883356124e-05,0.0,1000,1000,1000,1000,12600,0,0.002871585311368108,0.002759430557489395,0.002892202464863658,10,{}
attack_corridor_base_3,1,pos_spoof,31802,0.0010353572433814406,0.0008083353750407696,-0.06765963137149811,-35.3632621,149.1652374,-0.003,-0.01,0.02,0.0,-9.942249016603455e-05,9.444988972973078e-05,0.0,1000,1000,1000,1000,12600,0,0.0026611415669322014,0.0029158140532672405,0.002972785383462906,10,{}
attack_corridor_base_3,1,pos_spoof,32134,0.0010442822240293026,0.0008116607205010951,-0.06830507516860962,-35.3632621,149.1652374,-0.003,-0.01,0.02,0.0,-9.942247561411932e-05,9.444994066143408e-05,0.0,1000,1000,1000,1000,12600,0,0.002995274495333433,0.002925897715613246,0.0027299353387206793,10,{}
attack_corridor_base_3,1,pos_spoof,32467,0.0010587149299681187,0.0008229836821556091,-0.0689057782292366,-35.3632621,149.1652374,-0.003,-0.01,0.02,0.0,-9.942247561411932e-05,9.444994066143408e-05,0.0,1000,1000,1000,1000,12600,0,0.0031205571722239256,0.0027488183695822954,0.0027960475999861956,10,{}
attack_corridor_base_3,1,pos_spoof,32799,0.0010673000942915678,0.0008350457646884024,-0.06933453679084778,-35.3632621,149.1652374,-0.004,-0.01,0.02,0.0,-9.942254837369546e-05,9.444998431717977e-05,0.0,1000,1000,1000,1000,12600,0,0.002646987559273839,0.002667822875082493,0.002976579824462533,10,{}
attack_corridor_base_3,1,pos_spoof,33134,0.0010735368123278022,0.0008471721666865051,-0.06976458430290222,-35.3632621,149.1652374,-0.004,-0.01,0.02,0.0,-9.942255564965308e-05,9.444993338547647e-05,0.0,1000,1000,1000,1000,12600,0,0.0029645422473549843,0.0026316242292523384,0.002994873560965061,10,{}
attack_corridor_base_3,1,pos_spoof,33466,0.001094685634598136,0.0008652814431115985,-0.0703393742442131,-35.3632621,149.1652374,-0.004,-0.01,0.02,0.0,-9.942255564965308e-05,9.444993338547647e-05,0.0,1000,1000,1000,1000,12600,0,0.002643831539899111,0.0026420324575155973,0.0027350110467523336,10,{}
attack_corridor_base_3,1,pos_spoof,33799,0.0011067450977861881,0.0008724689832888544,-0.07076338678598404,-35.3632621,149.1652374,-0.004,-0.01,0.02,0.0,-9.942254837369546e-05,9.444995521334931e-05,0.0,1000,1000,1000,1000,12600,0,0.002852614503353834,0.002746754325926304,0.0026485545095056295,10,{}
attack_corridor_base_3,1,pos_spoof,34132,0.001117059262469411,0.0008775644819252193,-0.0711798146367073,-35.3632621,149.1652374,-0.005,-0.02,0.02,0.0,-9.942249016603455e-05,9.444997704122216e-05,0.0,1000,1000,1000,1000,12600,0,0.0027999202720820904,0.0028001093305647373,0.002828165888786316,10,{}
attack_corridor_base_3,1,pos_spoof,34464,0.0011280255857855082,0.0008962902356870472,-0.07171778380870819,-35.3632621,149.1652374,-0.005,-0.02,0.02,0.0,-9.942249016603455e-05,9.444997704122216e-05,0.0,1000,1000,1000,1000,12600,0,0.002587974537163973,0.0027566631324589252,0.002868629526346922,10,{}
attack_corridor_base_3,1,pos_spoof,34799,0.0011362991062924266,0.0009078146540559828,-0.07212218642234802,-35.3632621,149.1652374,-0.005,-0.02,0.02,0.0,-9.942241740645841e-05,9.444995521334931e-05,0.0,1000,1000,1000,1000,12600,0,0.002577324630692601,0.002887512557208538,0.003154077799990773,10,{}
attack_corridor_base_3,1,pos_spoof,35131,0.0011465131537988782,0.0009183020447380841,-0.07251619547605515,-35.3632621,149.1652374,-0.005,-0.02,0.02,0.0,-9.942232281900942e-05,9.44499479373917e-05,0.0,1000,1000,1000,1000,12600,0,0.0029077460058033466,0.0029183898586779833,0.0026163419242948294,10,{}
attack_corridor_base_3,1,pos_spoof,35464,0.001156393438577652,0.0009297862998209894,-0.07304153591394424,-35.3632621,149.1652374,-0.005,-0.02,0.02,0.0,-9.942232281900942e-05,9.44499479373917e-05,0.0,1000,1000,1000,1000,12600,0,0.0025630230084061623,0.003018396906554699,0.0026036205235868692,10,{}
attack_corridor_base_3,1,pos_spoof,35797,0.0011632643872871995,0.0009309026063419878,-0.07343988865613937,-35.3632621,149.1652374,-0.005,-0.02,0.02,0.0,-9.942236647475511e-05,9.444992610951886e-05,0.0,1000,1000,1000,1000,12600,0,0.0024661622010171413,0.0030634929426014423,0.0027677472680807114,10,{}
attack_corridor_base_3,1,pos_spoof,36129,0.0011683471966534853,0.0009384485310874879,-0.07375480979681015,-35.3632621,149.1652374,-0.005,-0.02,0.02,0.0,-9.942230099113658e-05,9.444992610951886e-05,0.0,1000,1000,1000,1000,12600,0,0.002913645701482892,0.002749413251876831,0.0029041015077382326,10,{}
attack_corridor_base_3,1,pos_spoof,36462,0.0011781761422753334,0.0009576366282999516,-0.0742456465959549,-35.3632621,149.1652374,-0.005,-0.02,0.02,0.0,-9.942230099113658e-05,9.444992610951886e-05,0.0,1000,1000,1000,1000,12600,0,0.0029645131435245275,0.0027078234124928713,0.0027882596477866173,10,{}
attack_corridor_base_3,1,pos_spoof,36796,0.001186396344564855,0.0009715881897136569,-0.07463246583938599,-35.3632621,149.1652374,-0.005,-0.02,0.02,0.0,-9.942231554305181e-05,9.444991883356124e-05,0.0,1000,1000,1000,1000,12600,0,0.002669441280886531,0.0028074905276298523,0.0028575086034834385,10,{}
attack_corridor_base_3,1,pos_spoof,37129,0.0011974185472354293,0.0009863433660939336,-0.07498607039451599,-35.3632621,149.1652374,-0.005,-0.02,0.02,0.0,-9.942234464688227e-05,9.444990428164601e-05,0.0,1000,1000,1000,1000,12600,0,0.002757546491920948,0.0028180815279483795,0.0028302022255957127,10,{}
attack_corridor_base_3,1,pos_spoof,37461,0.0012105621863156557,0.0010021704947575927,-0.07547487318515778,-35.3632621,149.1652374,-0.005,-0.02,0.02,0.0,-9.942234464688227e-05,9.444990428164601e-05,0.0,1000,1000,1000,1000,12600,0,0.0029377175960689783,0.0030683937948197126,0.002461138181388378,10,{}
attack_corridor_base_3,1,pos_spoof,37794,0.0012125744251534343,0.0010121078230440617,-0.07582777738571167,-35.3632621,149.1652374,-0.005,-0.02,0.02,0.0,-9.94223591987975e-05,9.444991155760363e-05,0.0,1000,1000,1000,1000,12600,0,0.0028528759721666574,0.002838131971657276,0.0027344331610947847,10,{}
attack_corridor_base_3,1,pos_spoof,38127,0.0012177403550595045,0.0010287744225934148,-0.0761934295296669,-35.3632621,149.1652374,-0.006,-0.02,0.02,0.0,-9.942234464688227e-05,9.444985334994271e-05,0.0,1000,1000,1000,1000,12600,0,0.002907702699303627,0.0027615937869995832,0.002467743121087551,10,{}
attack_corridor_base_3,1,pos_spoof,38462,0.0012307113502174616,0.001041397568769753,-0.07665424793958664,-35.3632621,149.1652374,-0.006,-0.02,0.02,0.0,-9.942234464688227e-05,9.444985334994271e-05,0.0,1000,1000,1000,1000,12600,0,0.002985764294862747,0.003066280158236623,0.0031037209555506706,10,{}
attack_corridor_base_3,1,pos_spoof,38794,0.0012421382125467062,0.0010450446279719472,-0.07700600475072861,-35.3632621,149.1652374,-0.006,-0.02,0.02,0.0,-9.94223082670942e-05,9.444986062590033e-05,0.0,1000,1000,1000,1000,12600,0,0.0027048338670283556,0.0028921407647430897,0.0026707258075475693,10,{}
attack_corridor_base_3,1,pos_spoof,39126,0.00124809006229043,0.0010652488563209772,-0.07734747976064682,-35.3632621,149.1652374,-0.006,-0.02,0.02,0.0,-9.94222573353909e-05,9.444986790185794e-05,0.0,1000,1000,1000,1000,12600,0,0.003129510208964348,0.0028085769154131413,0.002835319610312581,10,{}
attack_corridor_base_3,1,pos_spoof,39459,0.0012498421128839254,0.0010671053314581513,-0.07769114524126053,-35.3632621,149.1652374,-0.006,-0.02,0.02,0.0,-9.94222573353909e-05,9.444986790185794e-05,0.0,1000,1000,1000,1000,12600,0,0.0025302895810455084,0.0028226005379110575,0.002772218780592084,10,{}
attack_corridor_base_3,1,pos_spoof,39794,0.001254901522770524,0.0010771601228043437,-0.07813089340925217,-35.3632621,149.1652374,-0.006,-0.02,0.02,0.0,-9.942228643922135e-05,9.444990428164601e-05,0.0,1000,1000,1000,1000,12600,0,0.002895020879805088,0.0027999645099043846,0.0026325006037950516,10,{}
attack_corridor_base_3,1,pos_spoof,40127,0.001263337442651391,0.0010793128749355674,-0.07846339792013168,-35.3632621,149.1652374,-0.006,-0.02,0.02,0.0,-9.942226461134851e-05,9.444992610951886e-05,0.0,1000,1000,1000,1000,12600,0,0.002635479439049959,0.00268888333812356,0.0027742250822484493,10,{}
attack_corridor_base_3,1,pos_spoof,40459,0.0012725427513942122,0.0010913492878898978,-0.07876766473054886,-35.3632621,149.1652374,-0.006,-0.02,0.02,0.0,-9.942226461134851e-05,9.444992610951886e-05,0.0,1000,1000,1000,1000,12600,0,0.002749118022620678,0.0026088436134159565,0.003057711059227586,10,{}
attack_corridor_base_3,1,pos_spoof,40792,0.00128051673527807,0.0010959975188598037,-0.07919139415025711,-35.3632621,149.1652374,-0.006,-0.02,0.02,0.0,-9.942223550751805e-05,9.444991155760363e-05,0.0,1000,1000,1000,1000,12600,0,0.002728328574448824,0.0026736995205283165,0.002627826761454344,10,{}
attack_corridor_base_3,1,pos_spoof,41124,0.0012890405487269163,0.001104219350963831,-0.07944624125957489,-35.3632621,149.1652374,-0.006,-0.02,0.02,0.0,-9.942227188730612e-05,9.444994066143408e-05,0.0,1000,1000,1000,1000,12600,0,0.0029052828904241323,0.0030527100898325443,0.0029689576476812363,10,{}
attack_corridor_base_3,1,pos_spoof,41459,0.0012944703921675682,0.0011131319915875793,-0.07975376397371292,-35.3632621,149.1652374,-0.006,-0.02,0.02,0.0,-9.942227188730612e-05,9.444994066143408e-05,0.0,1000,1000,1000,1000,12600,0,0.0027688529808074236,0.003045666264370084,0.002791627310216427,10,{}
attack_corridor_base_3,1,pos_spoof,41791,0.0013147025601938367,0.0011368280975148082,-0.08016211539506912,-35.3632621,149.1652374,-0.006,0.0,0.0,0.0,-9.942233009496704e-05,9.444991155760363e-05,0.0,1000,1000,1000,1000,12600,0,0.002857717452570796,0.002905881032347679,0.002870508935302496,10,{}
attack_corridor_base_3,1,pos_spoof,42124,0.0013898295583203435,0.0012104250490665436,-0.0804590955376625,-35.3632621,149.1652374,-0.006,0.0,0.0,0.0,-9.942233009496704e-05,9.444991155760363e-05,0.0,1000,1000,1000,1000,12600,0,0.0028805946931242943,0.002676524454727769,0.0027544768527150154,10,{}
attack_corridor_base_3,1,pos_spoof,42457,0.0014623140450567007,0.0012819822877645493,-0.08076806366443634,-35.3632621,149.1652374,-0.006,0.0,0.0,0.0,-9.942230099113658e-05,9.444990428164601e-05,0.0,1000,1000,1000,1000,12600,0,0.0028580918442457914,0.0028412844985723495,0.002564971335232258,10,{}
attack_corridor_base_3,1,pos_spoof,42789,0.0015424517914652824,0.001367206801660359,-0.08117008209228516,-35.3632621,149.1652374,-0.006,0.0,0.0,0.0,-9.942230099113658e-05,9.444992610951886e-05,0.0,1000,1000,1000,1000,12600,0,0.0026643769815564156,0.002778844442218542,0.002574979793280363,10,{}
attack_corridor_base_3,1,pos_spoof,43124,0.001600439427420497,0.0014231459936127067,-0.08147897571325302,-35.3632621,149.1652374,-0.006,-0.01,0.01,0.0,-9.942230099113658e-05,9.444992610951886e-05,0.0,1000,1000,1000,1000,12600,0,0.0027954631950706244,0.002975354203954339,0.0027731081936508417,10,{}
attack_corridor_base_3,1,pos_spoof,43456,0.0016382233006879687,0.001452897791750729,-0.08178845793008804,-35.3632621,149.1652374,-0.006,-0.01,0.01,0.0,-9.94223082670942e-05,9.444990428164601e-05,0.0,1000,1000,1000,1000,12600,0,0.0026969709433615208,0.0029198259580880404,0.0028376514092087746,10,{}
attack_corridor_base_3,1,pos_spoof,43789,0.0016595815541222692,0.0014740406768396497,-0.08219774812459946,-35.3632621,149.1652374,-0.006,-0.01,0.01,0.0,-9.942233009496704e-05,9.444985334994271e-05,0.0,1000,1000,1000,1000,12600,0,0.0032080537639558315,0.00302587216719985,0.002748596016317606,10,{}
attack_corridor_base_3,1,pos_spoof,44122,0.0016540986252948642,0.0014724936336278915,-0.08250463753938675,-35.3632621,149.1652374,-0.006,-0.01,0.01,0.0,-9.942233009496704e-05,9.444985334994271e-05,0.0,1000,1000,1000,1000,12600,0,0.0028224398847669363,0.0030298104975372553,0.0028602711390703917,10,{}
attack_corridor_base_3,1,pos_spoof,44454,0.001633670530281961,0.001448929077014327,-0.08279737830162048,-35.3632621,149.1652375,-0.006,-0.01,0.02,0.0,-9.942239557858557e-05,9.44498970056884e-05,0.0,1000,1000,1000,1000,12600,0,0.0026938566006720066,0.0030421826522797346,0.0027881963178515434,10,{}
attack_corridor_base_3,1,pos_spoof,44787,0.0015847227768972516,0.0014000884257256985,-0.08316539973020554,-35.3632621,149.1652375,-0.006,-0.01,0.02,0.0,-9.94223591987975e-05,9.444986790185794e-05,0.0,1000,1000,1000,1000,12600,0,0.0029116591904312372,0.002819639630615711,0.0027336720377206802,10,{}
attack_corridor_base_3,1,pos_spoof,45354,0.0014804797247052193,0.0012993920827284455,-0.08371040970087051,-35.3632621,149.1652375,-0.006,-0.01,0.02,0.0,-9.94223591987975e-05,9.444986790185794e-05,0.0,1000,1000,1000,1000,12600,0,0.0028116218745708466,0.002652616472914815,0.00285589718259871,10,{}
attack_corridor_base_3,1,pos_spoof,45604,0.0014411400770768523,0.0012627006508409977,-0.0839231014251709,-35.3632622,149.1652375,-0.006,-0.01,0.02,0.0,-9.942233737092465e-05,9.444988972973078e-05,0.0,1000,1000,1000,1000,12600,0,0.0028116218745708466,0.002652616472914815,0.00285589718259871,10,{}
attack_corridor_base_3,1,pos_spoof,45854,0.0013846403453499079,0.0012035705149173737,-0.08412586897611618,-35.3632622,149.1652375,-0.006,-0.01,0.02,0.0,-9.942232281900942e-05,9.444987517781556e-05,0.0,1000,1000,1000,1000,12600,0,0.0030863878782838583,0.0027566668577492237,0.002908692229539156,10,{}
attack_corridor_base_3,1,pos_spoof,46104,0.0013428085949271917,0.001158235245384276,-0.08433030545711517,-35.3632622,149.1652375,-0.006,-0.01,0.01,0.0,-9.942230099113658e-05,9.444988245377317e-05,0.0,1000,1000,1000,1000,12600,0,0.002984887221828103,0.0028086963575333357,0.0028126961551606655,10,{}
attack_corridor_base_3,1,pos_spoof,46352,0.0013025023508816957,0.0011123078875243664,-0.08450182527303696,-35.3632622,149.1652375,-0.006,-0.01,0.01,0.0,-9.942228643922135e-05,9.444988245377317e-05,0.0,1000,1000,1000,1000,12600,0,0.00257099443115294,0.002707461826503277,0.0028636532370001078,10,{}
attack_corridor_base_3,1,pos_spoof,46602,0.0012772622285410762,0.0010922300862148404,-0.08466111123561859,-35.3632622,149.1652375,-0.006,-0.01,0.01,0.0,-9.942232281900942e-05,9.444991155760363e-05,0.0,1000,1000,1000,1000,12600,0,0.00264216517098248,0.002815608400851488,0.002646306762471795,10,{}
attack_corridor_base_3,1,pos_spoof,46852,0.0012309965677559376,0.001052438747137785,-0.08486385643482208,-35.3632621,149.1652375,-0.006,-0.01,0.01,0.0,-9.942226461134851e-05,9.444991155760363e-05,0.0,1000,1000,1000,1000,12600,0,0.0029707022476941347,0.002645723056048155,0.0024611451663076878,10,{}
attack_corridor_base_3,1,pos_spoof,47104,0.0011975904926657677,0.001022713491693139,-0.08504047244787216,-35.3632621,149.1652375,-0.006,-0.01,0.01,0.0,-9.942225005943328e-05,9.444992610951886e-05,0.0,1000,1000,1000,1000,12600,0,0.0028023007325828075,0.002653572941198945,0.002382361562922597,10,{}
attack_corridor_base_3,1,pos_spoof,47354,0.0011719116009771824,0.001000384334474802,-0.08522963523864746,-35.3632621,149.1652375,-0.006,-0.01,0.01,0.0,-9.942221367964521e-05,9.44498970056884e-05,0.0,1000,1000,1000,1000,12600,0,0.00298507884144783,0.0028518245089799166,0.0027925963513553143,10,{}
attack_corridor_base_3,1,pos_spoof,47604,0.0011588070774450898,0.000987262581475079,-0.08539555966854095,-35.3632621,149.1652375,-0.006,-0.01,0.01,0.0,-9.942217729985714e-05,9.444986062590033e-05,0.0,1000,1000,1000,1000,12600,0,0.0027651889249682426,0.00278066867031157,0.002833001781255007,10,{}
attack_corridor_base_3,1,pos_spoof,47854,0.001132429693825543,0.0009647379629313946,-0.08558318018913269,-35.3632621,149.1652375,-0.006,-0.01,0.01,0.0,-9.942214819602668e-05,9.444982424611226e-05,0.0,1000,1000,1000,1000,12600,0,0.0028726437594741583,0.002711338922381401,0.0027382494881749153,10,{}
attack_corridor_base_3,1,pos_spoof,48104,0.0011169440113008022,0.0009482037858106196,-0.08573798090219498,-35.3632621,149.1652375,-0.006,-0.01,0.01,0.0,-9.942211909219623e-05,9.444982424611226e-05,0.0,1000,1000,1000,1000,12600,0,0.0030948978383094072,0.0027696487959474325,0.002795629668980837,10,{}
attack_corridor_base_3,1,pos_spoof,48352,0.0011059866519644856,0.0009370085899718106,-0.08592329174280167,-35.3632621,149.1652375,-0.006,-0.01,0.01,0.0,-9.9422104540281e-05,9.444980969419703e-05,0.0,1000,1000,1000,1000,12600,0,0.0026993537321686745,0.0029867307748645544,0.002863135654479265,10,{}
attack_corridor_base_3,1,pos_spoof,48602,0.001099247019737959,0.0009307488217018545,-0.0860808938741684,-35.3632621,149.1652375,-0.006,-0.01,0.01,0.0,-9.942207543645054e-05,9.444980969419703e-05,0.0,1000,1000,1000,1000,12600,0,0.0028912005946040154,0.0027307234704494476,0.002998277312144637,10,{}
attack_corridor_base_3,1,pos_spoof,48852,0.0010890064295381308,0.0009223561501130462,-0.08624280244112015,-35.3632621,149.1652375,-0.006,-0.01,0.01,0.0,-9.942206816049293e-05,9.444978786632419e-05,0.0,1000,1000,1000,1000,12600,0,0.002841594396159053,0.003061505500227213,0.0027512952219694853,10,{}
attack_corridor_base_3,1,pos_spoof,49102,0.0010843920754268765,0.0009158637840300798,-0.08640726655721664,-35.3632621,149.1652375,-0.006,-0.01,0.01,0.0,-9.942202450474724e-05,9.444976603845134e-05,0.0,1000,1000,1000,1000,12600,0,0.0028043596539646387,0.0031085521914064884,0.0027516770642250776,10,{}
attack_corridor_base_3,1,pos_spoof,49354,0.0010827458463609219,0.0009113935520872474,-0.08656544238328934,-35.3632621,149.1652375,-0.006,-0.01,0.01,0.0,-9.942195902112871e-05,9.444973693462089e-05,0.0,1000,1000,1000,1000,12600,0,0.002732842927798629,0.0026489251758903265,0.002798243658617139,10,{}
attack_corridor_base_3,1,pos_spoof,49604,0.001083318260498345,0.0009119200403802097,-0.08671832084655762,-35.3632621,149.1652375,-0.006,-0.01,0.01,0.0,-9.942197357304394e-05,9.444972238270566e-05,0.0,1000,1000,1000,1000,12600,0,0.002705017104744911,0.0028584597166627645,0.002694720169529319,10,{}
attack_corridor_base_3,1,pos_spoof,49854,0.0010778730502352118,0.0009135783184319735,-0.08688031882047653,-35.3632621,149.1652375,-0.006,-0.01,0.01,0.0,-9.942198812495917e-05,9.444972238270566e-05,0.0,1000,1000,1000,1000,12600,0,0.0026668154168874025,0.002837886568158865,0.002634619129821658,10,{}
attack_corridor_base_3,1,pos_spoof,50104,0.001077523222193122,0.0009146906668320298,-0.08703603595495224,-35.3632621,149.1652375,-0.006,-0.01,0.01,0.0,-9.942198812495917e-05,9.444970055483282e-05,0.0,1000,1000,1000,1000,12600,0,0.0028905768413096666,0.0027850077021867037,0.0027597155421972275,10,{}
attack_corridor_base_3,1,pos_spoof,50352,0.001080704852938652,0.0009156184969469905,-0.08718600124120712,-35.3632621,149.1652375,-0.006,-0.01,0.01,0.0,-9.94219517451711e-05,9.444964962312952e-05,0.0,1000,1000,1000,1000,12600,0,0.0024053682573139668,0.002637889701873064,0.002970012603327632,10,{}
attack_corridor_base_3,1,pos_spoof,50602,0.0010835247812792659,0.0009137835004366934,-0.08734474331140518,-35.3632621,149.1652375,-0.006,-0.01,0.01,0.0,-9.942196629708633e-05,9.444961324334145e-05,0.0,1000,1000,1000,1000,12600,0,0.002823560731485486,0.003015998052433133,0.002757385838776827,10,{}
attack_corridor_base_3,1,pos_spoof,50852,0.001085303258150816,0.0009118804591707885,-0.08749375492334366,-35.3632621,149.1652375,-0.006,-0.01,0.01,0.0,-9.942192991729826e-05,9.444955503568053e-05,0.0,1000,1000,1000,1000,12600,0,0.002834909362718463,0.003081076079979539,0.0029645063914358616,10,{}
attack_corridor_base_3,1,pos_spoof,51102,0.0010853878920897841,0.0009120735921896994,-0.08763807266950607,-35.3632621,149.1652375,-0.006,-0.01,0.01,0.0,-9.942192264134064e-05,9.444954775972292e-05,0.0,1000,1000,1000,1000,12600,0,0.0026799850165843964,0.00263270759023726,0.0027050108183175325,10,{}
attack_corridor_base_3,1,pos_spoof,51354,0.0010858133900910616,0.0009175768354907632,-0.08778438717126846,-35.3632621,149.1652375,-0.006,-0.01,0.01,0.0,-9.942189353751019e-05,9.444951865589246e-05,0.0,1000,1000,1000,1000,12600,0,0.0029122401028871536,0.0027383274864405394,0.0025523535441607237,10,{}
attack_corridor_base_3,1,pos_spoof,51604,0.0010916340397670865,0.0009184255613945425,-0.08792717009782791,-35.3632621,149.1652375,-0.006,-0.01,0.01,0.0,-9.942188626155257e-05,9.444950410397723e-05,0.0,1000,1000,1000,1000,12600,0,0.002893341239541769,0.0029222385492175817,0.0029246697667986155,10,{}
attack_corridor_base_3,1,pos_spoof,51854,0.0010946730617433786,0.0009140240726992488,-0.08806680142879486,-35.3632621,149.1652375,-0.006,-0.01,0.01,0.0,-9.942190808942541e-05,9.444951865589246e-05,0.0,1000,1000,1000,1000,12600,0,0.002978250617161393,0.002636110410094261,0.0029025685507804155,10,{}
attack_corridor_base_3,1,pos_spoof,52104,0.001099464832805097,0.0009063141187652946,-0.08821365237236023,-35.3632621,149.1652375,-0.006,-0.01,0.01,0.0,-9.94219008134678e-05,9.4449489552062e-05,0.0,1000,1000,1000,1000,12600,0,0.002980356104671955,0.0025234532076865435,0.0028609002474695444,10,{}
attack_corridor_base_3,1,pos_spoof,52354,0.0011040210956707597,0.0009052871610037982,-0.08834532648324966,-35.3632621,149.1652375,-0.006,-0.01,0.01,0.0,-9.942187898559496e-05,9.4449489552062e-05,0.0,1000,1000,1000,1000,12600,0,0.0027319409418851137,0.002879194915294647,0.0028401061426848173,10,{}
attack_corridor_base_3,1,pos_spoof,52602,0.001108131487853825,0.0009157033637166023,-0.08845441788434982,-35.3632621,149.1652375,-0.006,-0.01,0.01,0.0,-9.942186443367973e-05,9.444945317227393e-05,0.0,1000,1000,1000,1000,12600,0,0.003151178127154708,0.0027405773289501667,0.002797189634293318,10,{}
attack_corridor_base_3,1,pos_spoof,52852,0.0011104063596576452,0.0009180120541714132,-0.08859742432832718,-35.3632621,149.1652375,-0.006,-0.01,0.01,0.0,-9.942183532984927e-05,9.444941679248586e-05,0.0,1000,1000,1000,1000,12600,0,0.002935736207291484,0.0030668750405311584,0.002910713432356715,10,{}
attack_corridor_base_3,1,pos_spoof,53102,0.0011100290575996041,0.0009140246547758579,-0.08872392773628235,-35.3632621,149.1652375,-0.006,-0.01,0.01,0.0,-9.942186443367973e-05,9.444943134440109e-05,0.0,1000,1000,1000,1000,12600,0,0.0027094644028693438,0.0028501420747488737,0.002694841008633375,10,{}
attack_corridor_base_3,1,pos_spoof,53354,0.0011169607751071453,0.0009218837949447334,-0.08887330442667007,-35.3632621,149.1652375,-0.006,-0.01,0.01,0.0,-9.942185715772212e-05,9.444944589631632e-05,0.0,1000,1000,1000,1000,12600,0,0.0027912037912756205,0.0025407737120985985,0.0025785721372812986,10,{}
attack_corridor_base_3,1,pos_spoof,53604,0.0011289530666545033,0.0009298947406932712,-0.08899985998868942,-35.3632621,149.1652375,-0.006,-0.01,0.01,0.0,-9.942184260580689e-05,9.444943134440109e-05,0.0,1000,1000,1000,1000,12600,0,0.0027636028826236725,0.003063402371481061,0.0027509357314556837,10,{}
attack_corridor_base_3,1,pos_spoof,53854,0.0011316254967823625,0.0009272624738514423,-0.08913362771272659,-35.3632621,149.1652375,-0.006,-0.01,0.01,0.0,-9.942180622601882e-05,9.444941679248586e-05,0.0,1000,1000,1000,1000,12600,0,0.002527629490941763,0.002687640953809023,0.002939477562904358,10,{}
attack_corridor_base_3,1,pos_spoof,54104,0.0011331761488690972,0.000935543270315975,-0.08926473557949066,-35.3632621,149.1652375,-0.006,-0.01,0.01,0.0,-9.942177712218836e-05,9.444940951652825e-05,0.0,1000,1000,1000,1000,12600,0,0.003024512203410268,0.0028088903054594994,0.00287444656714797,10,{}
attack_corridor_base_3,1,pos_spoof,54354,0.0011349148117005825,0.000939006800763309,-0.08939656615257263,-35.3632621,149.1652375,-0.006,-0.01,0.01,0.0,-9.94217480183579e-05,9.444936586078256e-05,0.0,1000,1000,1000,1000,12600,0,0.0028915447182953358,0.00294332392513752,0.0030009583570063114,10,{}
attack_corridor_base_3,1,pos_spoof,54602,0.0011444736737757921,0.000948312459513545,-0.08951593935489655,-35.3632621,149.1652375,-0.006,-0.01,0.01,0.0,-9.942172619048506e-05,9.444937313674018e-05,0.0,1000,1000,1000,1000,12600,0,0.00264536845497787,0.0027557071298360825,0.002671495545655489,10,{}
attack_corridor_base_3,1,pos_spoof,54852,0.0011443330440670252,0.0009473909740336239,-0.08964529633522034,-35.3632621,149.1652375,-0.006,-0.01,0.01,0.0,-9.942174074240029e-05,9.444934403290972e-05,0.0,1000,1000,1000,1000,12600,0,0.003174790646880865,0.0029127050656825304,0.0029006493277847767,10,{}
attack_corridor_base_3,1,pos_spoof,55102,0.0011466871947050095,0.0009494174737483263,-0.08976775407791138,-35.3632621,149.1652375,-0.006,-0.01,0.01,0.0,-9.942173346644267e-05,9.444930037716404e-05,0.0,1000,1000,1000,1000,12600,0,0.002807936631143093,0.002824501832947135,0.0025800231378525496,10,{}
attack_corridor_base_3,1,pos_spoof,55352,0.0011457601794973016,0.0009510644595138729,-0.08989112079143524,-35.3632621,149.1652375,-0.006,-0.01,0.01,0.0,-9.94217480183579e-05,9.444930037716404e-05,0.0,1000,1000,1000,1000,12600,0,0.0025631352327764034,0.0025228960439562798,0.0025725215673446655,10,{}
attack_corridor_base_3,1,pos_spoof,55604,0.0011502888519316912,0.000956373056396842,-0.09001854807138443,-35.3632621,149.1652375,-0.006,-0.01,0.01,0.0,-9.942168981069699e-05,9.444925672141835e-05,0.0,1000,1000,1000,1000,12600,0,0.002765510929748416,0.003074964974075556,0.002696338575333357,10,{}
attack_corridor_base_3,1,pos_spoof,55854,0.0011466194409877062,0.0009505181224085391,-0.09014086425304413,-35.3632621,149.1652375,-0.006,-0.01,0.01,0.0,-9.942168253473938e-05,9.444926399737597e-05,0.0,1000,1000,1000,1000,12600,0,0.0026970626786351204,0.002862347289919853,0.0025826371274888515,10,{}
attack_corridor_base_3,1,pos_spoof,56104,0.0011461584363132715,0.0009513688273727894,-0.0902649387717247,-35.3632621,149.1652375,-0.006,-0.01,0.01,0.0,-9.942168253473938e-05,9.444926399737597e-05,0.0,1000,1000,1000,1000,12600,0,0.002768162405118346,0.0028675596695393324,0.0030393858905881643,10,{}
attack_corridor_base_3,1,pos_spoof,56354,0.0011502844281494617,0.0009554664720781147,-0.09038625657558441,-35.3632621,149.1652375,-0.006,-0.01,0.01,0.0,-9.942167525878176e-05,9.444924216950312e-05,0.0,1000,1000,1000,1000,12600,0,0.0027056431863456964,0.0029029136057943106,0.0030944880563765764,10,{}
attack_corridor_base_3,1,pos_spoof,56602,0.0011527383467182517,0.00096181157277897,-0.09050453454256058,-35.3632621,149.1652375,-0.006,-0.01,0.01,0.0,-9.94216970866546e-05,9.44492785492912e-05,0.0,1000,1000,1000,1000,12600,0,0.002758015412837267,0.002629471942782402,0.0027786518912762403,10,{}
attack_corridor_base_3,1,pos_spoof,56852,0.0011381834046915174,0.0009591942653059959,-0.0905950516462326,-35.3632621,149.1652375,-0.006,-0.01,0.01,0.0,-9.942175529431552e-05,9.444930765312165e-05,0.0,1000,1000,1000,1000,12600,0,0.002888137474656105,0.002761377254500985,0.002772427164018154,10,{}
attack_corridor_base_3,1,pos_spoof,57102,0.0011330320267006755,0.0009540771134197712,-0.09070689976215363,-35.3632621,149.1652375,-0.006,-0.01,0.01,0.0,-9.942178439814597e-05,9.444930037716404e-05,0.0,1000,1000,1000,1000,12600,0,0.002785005373880267,0.0029907100833952427,0.002825937932357192,10,{}
attack_corridor_base_3,1,pos_spoof,57352,0.0011409764410927892,0.0009569668327458203,-0.09082821756601334,-35.3632621,149.1652375,-0.006,-0.01,0.01,0.0,-9.942182805389166e-05,9.444933675695211e-05,0.0,1000,1000,1000,1000,12600,0,0.002815601183101535,0.0029023857787251472,0.002774878405034542,10,{}
attack_corridor_base_3,1,pos_spoof,57604,0.0011460911482572556,0.0009644821984693408,-0.09094139188528061,-35.3632622,149.1652375,-0.006,-0.01,0.01,0.0,-9.942182805389166e-05,9.444937313674018e-05,0.0,1000,1000,1000,1000,12600,0,0.002687373198568821,0.002643563784658909,0.0024666949175298214,10,{}
attack_corridor_base_3,1,pos_spoof,57854,0.0011466119904071093,0.000962508434895426,-0.0910528376698494,-35.3632621,149.1652375,-0.006,-0.01,0.01,0.0,-9.942181350197643e-05,9.444936586078256e-05,0.0,1000,1000,1000,1000,12600,0,0.0026802695356309414,0.0025301838759332895,0.0026132501661777496,10,{}
attack_corridor_base_3,1,pos_spoof,58104,0.0011502383276820183,0.0009602914215065539,-0.09115958958864212,-35.3632621,149.1652375,-0.006,-0.01,0.01,0.0,-9.942185715772212e-05,9.444939496461302e-05,0.0,1000,1000,1000,1000,12600,0,0.0026224867906421423,0.002778815571218729,0.002571041928604245,10,{}
attack_corridor_base_3,1,pos_spoof,58354,0.0011542538413777947,0.0009660207433626056,-0.09127738326787949,-35.3632621,149.1652375,-0.006,-0.01,0.01,0.0,-9.942185715772212e-05,9.444938041269779e-05,0.0,1000,1000,1000,1000,12600,0,0.0030612251721322536,0.0027113177347928286,0.002757216105237603,10,{}
attack_corridor_base_3,1,pos_spoof,58604,0.0011546610621735454,0.0009717983193695545,-0.09138084948062897,-35.3632622,149.1652375,-0.006,-0.01,0.01,0.0,-9.942191536538303e-05,9.444943134440109e-05,0.0,1000,1000,1000,1000,12600,0,0.003133420366793871,0.003081529401242733,0.0028623209800571203,10,{}
attack_corridor_base_3,1,pos_spoof,58852,0.0011538100661709905,0.0009683509124442935,-0.09149660915136337,-35.3632621,149.1652375,-0.006,-0.01,0.01,0.0,-9.942192991729826e-05,9.44494386203587e-05,0.0,1000,1000,1000,1000,12600,0,0.0029170187190175056,0.0027995863929390907,0.002555648796260357,10,{}
attack_corridor_base_3,1,pos_spoof,59102,0.0011551947100088,0.0009697854402475059,-0.09160082787275314,-35.3632621,149.1652375,-0.006,-0.01,0.01,0.0,-9.942192991729826e-05,9.444942406844348e-05,0.0,1000,1000,1000,1000,12600,0,0.0026698396541178226,0.002687668427824974,0.0025346761103719473,10,{}
attack_corridor_base_3,1,pos_spoof,59352,0.0011575749376788735,0.0009746067225933075,-0.09170693159103394,-35.3632621,149.1652375,-0.006,-0.01,0.01,0.0,-9.942192991729826e-05,9.444938041269779e-05,0.0,1000,1000,1000,1000,12600,0,0.002957551274448633,0.002569808391854167,0.002684804145246744,10,{}
attack_corridor_base_3,1,pos_spoof,59604,0.0011625707847997546,0.000980509095825255,-0.09181113541126251,-35.3632622,149.1652375,-0.006,-0.01,0.01,0.0,-9.942194446921349e-05,9.444936586078256e-05,0.0,1000,1000,1000,1000,12600,0,0.0030077449046075344,0.0027688895352184772,0.002743503777310252,10,{}
attack_corridor_base_3,1,pos_spoof,59854,0.0011516455560922623,0.0009753592894412577,-0.09191368520259857,-35.3632621,149.1652375,-0.006,-0.01,0.01,0.0,-9.942198812495917e-05,9.444939496461302e-05,0.0,1000,1000,1000,1000,12600,0,0.0026662040036171675,0.002803605981171131,0.002736208261922002,10,{}
attack_corridor_base_3,1,pos_spoof,60104,0.0011504569556564093,0.0009703016839921474,-0.09201113879680634,-35.3632621,149.1652375,-0.006,-0.01,0.01,0.0,-9.942199540091679e-05,9.444936586078256e-05,0.0,1000,1000,1000,1000,12600,0,0.0030158718582242727,0.0027474574744701385,0.002700456418097019,10,{}
attack_corridor_base_3,1,pos_spoof,60354,0.0011522154090926051,0.0009683694806881249,-0.09211692214012146,-35.3632622,149.1652375,-0.006,-0.01,0.01,0.0,-9.942202450474724e-05,9.444936586078256e-05,0.0,1000,1000,1000,1000,12600,0,0.0026820385828614235,0.002776504959911108,0.0027320347726345062,10,{}
attack_corridor_base_3,1,pos_spoof,60604,0.0011581178987398744,0.0009714451734907925,-0.0922129899263382,-35.3632622,149.1652375,-0.006,-0.01,0.01,0.0,-9.942203905666247e-05,9.444936586078256e-05,0.0,1000,1000,1000,1000,12600,0,0.002713428344577551,0.0028823455795645714,0.002858642488718033,10,{}
attack_corridor_base_3,1,pos_spoof,60852,0.0011499288957566023,0.000958397111389786,-0.09232009947299957,-35.3632621,149.1652375,-0.006,-0.01,0.01,0.0,-9.942202450474724e-05,9.444935858482495e-05,0.0,1000,1000,1000,1000,12600,0,0.0028073571156710386,0.0027939474675804377,0.0025490240659564734,10,{}
attack_corridor_base_3,1,pos_spoof,61102,0.0011544747976586223,0.0009527129586786032,-0.09241677075624466,-35.3632622,149.1652375,-0.006,-0.01,0.01,0.0,-9.94220536085777e-05,9.444938041269779e-05,0.0,1000,1000,1000,1000,12600,0,0.002510633785277605,0.0029175973031669855,0.002739523071795702,10,{}
attack_corridor_base_3,1,pos_spoof,61352,0.0011564003070816398,0.0009571516420692205,-0.0925113782286644,-35.3632622,149.1652375,-0.006,-0.01,0.01,0.0,-9.942203905666247e-05,9.444936586078256e-05,0.0,1000,1000,1000,1000,12600,0,0.003003196557983756,0.003056483343243599,0.002976182149723172,10,{}
attack_corridor_base_3,1,pos_spoof,61602,0.0011645826743915677,0.0009608317050151527,-0.0926024466753006,-35.3632622,149.1652375,-0.006,-0.01,0.01,0.0,-9.942208271240816e-05,9.444936586078256e-05,0.0,1000,1000,1000,1000,12600,0,0.0027469261549413204,0.002822626382112503,0.002925677690654993,10,{}
attack_corridor_base_3,1,pos_spoof,61854,0.0011553490767255425,0.0009530881070531905,-0.09267980605363846,-35.3632622,149.1652375,-0.006,-0.01,0.01,0.0,-9.942209726432338e-05,9.444940951652825e-05,0.0,1000,1000,1000,1000,12600,0,0.002903211396187544,0.002813684055581689,0.0030312021262943745,10,{}
attack_corridor_base_3,1,pos_spoof,62104,0.001157258404418826,0.0009556295699439943,-0.09276822954416275,-35.3632621,149.1652375,-0.006,-0.01,0.01,0.0,-9.942209726432338e-05,9.444942406844348e-05,0.0,1000,1000,1000,1000,12600,0,0.002529751742258668,0.0028320522978901863,0.002814509440213442,10,{}
attack_corridor_base_3,1,pos_spoof,62354,0.0011614286340773106,0.0009541811887174845,-0.09286416321992874,-35.3632622,149.1652375,-0.006,-0.01,0.01,0.0,-9.942213364411145e-05,9.444946044823155e-05,0.0,1000,1000,1000,1000,12600,0,0.002675029681995511,0.002683610888198018,0.002634878735989332,10,{}
attack_corridor_base_3,1,pos_spoof,62604,0.001163510256446898,0.0009637571638450027,-0.09294836223125458,-35.3632622,149.1652375,-0.006,-0.01,0.01,0.0,-9.942212636815384e-05,9.444947500014678e-05,0.0,1000,1000,1000,1000,12600,0,0.0026495237834751606,0.0029550199396908283,0.0028511269483715296,10,{}
attack_corridor_base_3,1,pos_spoof,62852,0.001160728163085878,0.0009621633216738701,-0.09304382652044296,-35.3632621,149.1652375,-0.006,-0.01,0.01,0.0,-9.942213364411145e-05,9.4449489552062e-05,0.0,1000,1000,1000,1000,12600,0,0.0026120177935808897,0.0031740327831357718,0.0026498541701585054,10,{}
attack_corridor_base_3,1,pos_spoof,63102,0.001159900100901723,0.000967455271165818,-0.09313782304525375,-35.3632621,149.1652375,-0.006,-0.01,0.01,0.0,-9.942211181623861e-05,9.44494386203587e-05,0.0,1000,1000,1000,1000,12600,0,0.002932027680799365,0.0028574655298143625,0.002698762807995081,10,{}
attack_corridor_base_3,1,pos_spoof,63352,0.0011587125482037663,0.0009649535641074181,-0.0932362824678421,-35.3632622,149.1652375,-0.006,-0.01,0.01,0.0,-9.9422104540281e-05,9.444940951652825e-05,0.0,1000,1000,1000,1000,12600,0,0.0027855681255459785,0.0026213510427623987,0.0028815087862312794,10,{}
attack_corridor_base_3,1,pos_spoof,63602,0.0011617381824180484,0.0009743143455125391,-0.0933159589767456,-35.3632622,149.1652375,-0.006,-0.01,0.01,0.0,-9.9422104540281e-05,9.444938041269779e-05,0.0,1000,1000,1000,1000,12600,0,0.0029318092856556177,0.0025605331175029278,0.0025548480916768312,10,{}
attack_corridor_base_3,1,pos_spoof,63854,0.0011584690073505044,0.0009707882418297231,-0.09340238571166992,-35.3632622,149.1652375,-0.006,-0.01,0.01,0.0,-9.942209726432338e-05,9.444941679248586e-05,0.0,1000,1000,1000,1000,12600,0,0.0029751271940767765,0.0029373522847890854,0.0029288255609571934,10,{}
attack_corridor_base_3,1,pos_spoof,64104,0.0011628748616203666,0.0009624826489016414,-0.09348593652248383,-35.3632622,149.1652375,-0.006,-0.01,0.01,0.0,-9.942211909219623e-05,9.444942406844348e-05,0.0,1000,1000,1000,1000,12600,0,0.0027495338581502438,0.0030118876602500677,0.0031028869561851025,10,{}
attack_corridor_base_3,1,pos_spoof,64354,0.0011642989702522755,0.0009641905198805034,-0.09357450902462006,-35.3632622,149.1652375,-0.006,-0.01,0.01,0.0,-9.94221554719843e-05,9.44494386203587e-05,0.0,1000,1000,1000,1000,12600,0,0.0029476762283593416,0.0028871356043964624,0.002852474106475711,10,{}
attack_corridor_base_3,1,pos_spoof,64604,0.0011741885682567954,0.0009669042192399502,-0.09365779906511307,-35.3632622,149.1652375,-0.006,-0.01,0.01,0.0,-9.942217002389953e-05,9.444946044823155e-05,0.0,1000,1000,1000,1000,12600,0,0.002898129168897867,0.0029549153987318277,0.002889412920922041,10,{}
attack_corridor_base_3,1,pos_spoof,64854,0.001171768642961979,0.0009591298294253647,-0.09374520927667618,-35.3632622,149.1652375,-0.006,-0.01,0.01,0.0,-9.94222064036876e-05,9.444946044823155e-05,0.0,1000,1000,1000,1000,12600,0,0.0028465164359658957,0.00294336024671793,0.002842680085450411,10,{}
attack_corridor_base_3,1,pos_spoof,65102,0.001164199085906148,0.0009521534666419029,-0.09382757544517517,-35.3632621,149.1652375,-0.006,-0.01,0.01,0.0,-9.942217729985714e-05,9.444944589631632e-05,0.0,1000,1000,1000,1000,12600,0,0.002917112782597542,0.0030844872817397118,0.002727409591898322,10,{}
attack_corridor_base_3,1,pos_spoof,65352,0.0011632529785856605,0.0009587622480466962,-0.09391269832849503,-35.3632622,149.1652375,-0.006,-0.01,0.01,0.0,-9.942219912772998e-05,9.444947500014678e-05,0.0,1000,1000,1000,1000,12600,0,0.0028165739495307207,0.0026213927194476128,0.0029441467486321926,10,{}
attack_corridor_base_3,1,pos_spoof,65602,0.0011653007240965962,0.0009651315049268305,-0.09399529546499252,-35.3632622,149.1652375,-0.006,-0.01,0.01,0.0,-9.942222095560282e-05,9.444951137993485e-05,0.0,1000,1000,1000,1000,12600,0,0.0027411801274865866,0.0025626991409808397,0.002770032500848174,10,{}
attack_corridor_base_3,1,pos_spoof,65854,0.0011631697416305542,0.0009609948610886931,-0.09408164024353027,-35.3632621,149.1652375,-0.006,-0.01,0.01,0.0,-9.942218457581475e-05,9.4449489552062e-05,0.0,1000,1000,1000,1000,12600,0,0.0027194644790142775,0.002993851201608777,0.0026798939798027277,10,{}
attack_corridor_base_3,1,pos_spoof,66104,0.0011659893207252026,0.0009625441743992269,-0.09415919333696365,-35.3632621,149.1652375,-0.006,-0.01,0.01,0.0,-9.942219912772998e-05,9.4449489552062e-05,0.0,1000,1000,1000,1000,12600,0,0.0026407046243548393,0.0029035003390163183,0.0028565218672156334,10,{}
attack_corridor_base_3,1,pos_spoof,66354,0.0011718731839209795,0.0009609108092263341,-0.0942363440990448,-35.3632621,149.1652375,-0.006,-0.01,0.01,0.0,-9.942219912772998e-05,9.444950410397723e-05,0.0,1000,1000,1000,1000,12600,0,0.0027958459686487913,0.00286304485052824,0.0027418937534093857,10,{}
attack_corridor_base_3,1,pos_spoof,66604,0.0011726110242307186,0.0009753918275237083,-0.09431953728199005,-35.3632621,149.1652375,-0.006,-0.01,0.01,0.0,-9.942219912772998e-05,9.444949682801962e-05,0.0,1000,1000,1000,1000,12600,0,0.0029651187360286713,0.0026440012734383345,0.002666248008608818,10,{}
attack_corridor_base_3,1,pos_spoof,66854,0.0011725417571142316,0.0009709883597679436,-0.09439033269882202,-35.3632621,149.1652375,-0.006,-0.01,0.01,0.0,-9.94221554719843e-05,9.444948227610439e-05,0.0,1000,1000,1000,1000,12600,0,0.0024607828818261623,0.0028213772457093,0.0029791288543492556,10,{}
attack_corridor_base_3,1,pos_spoof,67102,0.0011723568895831704,0.0009706027340143919,-0.09445023536682129,-35.3632621,149.1652375,-0.006,-0.01,0.01,0.0,-9.942216274794191e-05,9.444951137993485e-05,0.0,1000,1000,1000,1000,12600,0,0.002986763371154666,0.0026000149082392454,0.0031203904654830694,10,{}
attack_corridor_base_3,1,pos_spoof,67352,0.001173321041278541,0.0009732607868500054,-0.09451431781053543,-35.3632621,149.1652375,-0.006,-0.01,0.01,0.0,-9.94221554719843e-05,9.4449489552062e-05,0.0,1000,1000,1000,1000,12600,0,0.002960223238915205,0.002874573227018118,0.0029355392325669527,10,{}
attack_corridor_base_3,1,pos_spoof,67602,0.00117766042239964,0.0009827303001657128,-0.09458618611097336,-35.3632622,149.1652375,-0.006,-0.01,0.01,0.0,-9.942222095560282e-05,9.4449489552062e-05,0.0,1000,1000,1000,1000,12600,0,0.002562410430982709,0.002971244975924492,0.0027293353341519833,10,{}
attack_corridor_base_3,1,pos_spoof,67852,0.001176556572318077,0.0009819908300414681,-0.09466645121574402,-35.3632621,149.1652375,-0.006,-0.01,0.01,0.0,-9.942214092006907e-05,9.444947500014678e-05,0.0,1000,1000,1000,1000,12600,0,0.002663783263415098,0.002971030306071043,0.0027500344440340996,10,{}
attack_corridor_base_3,1,pos_spoof,68104,0.0011775109451264143,0.0009816321544349194,-0.09473291039466858,-35.3632621,149.1652375,-0.006,-0.01,0.01,0.0,-9.942214092006907e-05,9.444949682801962e-05,0.0,1000,1000,1000,1000,12600,0,0.0031104327645152807,0.002690546913072467,0.0024643922224640846,10,{}
attack_corridor_base_3,1,pos_spoof,68354,0.0011824790854007006,0.0009904473554342985,-0.09480943530797958,-35.3632622,149.1652375,-0.006,-0.01,0.01,0.0,-9.942217002389953e-05,9.444948227610439e-05,0.0,1000,1000,1000,1000,12600,0,0.0030359053052961826,0.0027874791994690895,0.0028328639455139637,10,{}
