flight_id,label,attack_type,timestamp,att_roll,att_pitch,att_yaw,pos_lat,pos_lon,pos_alt_rel,pos_vx,pos_vy,pos_vz,nav_roll,nav_pitch,nav_alt_error,servo1_raw,servo2_raw,servo3_raw,servo4_raw,sys_voltage_battery,sys_load,vib_x,vib_y,vib_z,gps_sats_visible,attack_params_json
attack_corridor_base_18,1,pos_spoof,10001,0.00019413149857427925,-4.4697535486193374e-05,-0.34560689330101013,-35.3632621,149.1652374,0.0,0.0,0.0,-0.03,-9.942176257027313e-05,9.444949682801962e-05,0.0,1000,1000,1000,1000,12600,0,0.002879842184484005,0.002931486116722226,0.002840620931237936,0,{}
attack_corridor_base_18,1,pos_spoof,10334,0.0001965603732969612,-3.7721249100286514e-05,-0.3343121111392975,-35.3632621,149.1652374,0.0,0.0,0.0,-0.03,-9.942168253473938e-05,9.444943134440109e-05,0.0,1000,1000,1000,1000,12600,0,0.0027363363187760115,0.002845069859176874,0.0027365805581212044,10,{}
attack_corridor_base_18,1,pos_spoof,10666,0.0001988429867196828,-2.2696254745824262e-05,-0.2928842306137085,-35.3632621,149.1652374,0.0,0.0,0.0,-0.03,-9.942168253473938e-05,9.444938041269779e-05,0.0,1000,1000,1000,1000,12600,0,0.002637015888467431,0.0029124021530151367,0.002882659435272217,10,{}
attack_corridor_base_18,1,pos_spoof,10999,0.00020471207972150296,-1.6079789929790422e-05,-0.26601624488830566,-35.3632621,149.1652374,0.0,0.0,0.0,-0.03,-9.942168253473938e-05,9.444938041269779e-05,0.0,1000,1000,1000,1000,12600,0,0.002811990911141038,0.0025620616506785154,0.0025087487883865833,10,{}
attack_corridor_base_18,1,pos_spoof,11332,0.00020771793788298965,-7.97348820924526e-06,-0.24116529524326324,-35.3632621,149.1652374,0.0,0.0,0.0,-0.03,-9.942160977516323e-05,9.444940224057063e-05,0.0,1000,1000,1000,1000,12600,0,0.0028393110260367393,0.0027995361015200615,0.003003718564286828,10,{}
attack_corridor_base_18,1,pos_spoof,11666,0.00021255355386529118,-1.362877355859382e-06,-0.21127967536449432,-35.3632621,149.1652374,0.0,0.0,0.0,-0.03,-9.942157339537516e-05,9.444940224057063e-05,0.0,1000,1000,1000,1000,12600,0,0.00275429617613554,0.002724445890635252,0.0027078730054199696,10,{}
attack_corridor_base_18,1,pos_spoof,11999,0.0002214135165559128,1.0323225978936534e-05,-0.19155654311180115,-35.3632621,149.1652374,0.0,0.0,0.0,-0.02,-9.942157339537516e-05,9.444940224057063e-05,0.0,1000,1000,1000,1000,12600,0,0.0027848398312926292,0.0026287275832146406,0.002740026218816638,10,{}
attack_corridor_base_18,1,pos_spoof,12331,0.00022345782781485468,2.0312163542257622e-05,-0.1739533394575119,-35.3632621,149.1652374,0.0,0.0,0.0,-0.02,-9.942167525878176e-05,9.444942406844348e-05,0.0,1000,1000,1000,1000,12600,0,0.0030691944994032383,0.0027002710849046707,0.002913255710154772,10,{}
attack_corridor_base_18,1,pos_spoof,12664,0.00023499736562371254,3.0846109439153224e-05,-0.1534525752067566,-35.3632621,149.1652374,0.0,0.0,0.0,-0.02,-9.942165343090892e-05,9.444936586078256e-05,0.0,1000,1000,1000,1000,12600,0,0.0028549754060804844,0.0029784971848130226,0.002990271430462599,10,{}
attack_corridor_base_18,1,pos_spoof,12997,0.0002434422931401059,3.5016910260310397e-05,-0.14001953601837158,-35.3632621,149.1652374,0.0,0.0,0.0,-0.02,-9.942165343090892e-05,9.444936586078256e-05,0.0,1000,1000,1000,1000,12600,0,0.002829780336469412,0.002659023506566882,0.0028034644201397896,10,{}
attack_corridor_base_18,1,pos_spoof,13332,0.00024843864957802,4.300126602174714e-05,-0.12819156050682068,-35.3632621,149.1652374,0.0,0.0,0.0,-0.01,-9.942163160303608e-05,9.444936586078256e-05,0.0,1000,1000,1000,1000,12600,0,0.0029076598584651947,0.0026059963274747133,0.002846508054062724,10,{}
attack_corridor_base_18,1,pos_spoof,13664,0.0002615351986605674,5.452341792988591e-05,-0.1146213486790657,-35.3632621,149.1652374,0.0,0.0,0.0,-0.01,-9.942163160303608e-05,9.444940951652825e-05,0.0,1000,1000,1000,1000,12600,0,0.0025518867187201977,0.002577100181952119,0.0027537597343325615,10,{}
attack_corridor_base_18,1,pos_spoof,13996,0.0002738376788329333,6.098539961385541e-05,-0.10589257627725601,-35.3632621,149.1652374,0.0,0.0,0.0,-0.01,-9.942163160303608e-05,9.444940951652825e-05,0.0,1000,1000,1000,1000,12600,0,0.0026091316249221563,0.0028702709823846817,0.002952306531369686,10,{}
attack_corridor_base_18,1,pos_spoof,14329,0.0002781870134640485,6.751948239980265e-05,-0.09824031591415405,-35.3632621,149.1652374,0.0,0.0,0.0,-0.01,-9.942153701558709e-05,9.444936586078256e-05,0.0,1000,1000,1000,1000,12600,0,0.0029541985131800175,0.002978626871481538,0.0027425268199294806,10,{}
attack_corridor_base_18,1,pos_spoof,14664,0.00029693354736082256,8.306191739393398e-05,-0.0895346850156784,-35.3632621,149.1652374,0.0,0.0,0.0,-0.01,-9.942152973962948e-05,9.444933675695211e-05,0.0,1000,1000,1000,1000,12600,0,0.002917124191299081,0.002930445596575737,0.0029277154244482517,10,{}
attack_corridor_base_18,1,pos_spoof,14997,0.0003061871393583715,9.442590089747682e-05,-0.08392862230539322,-35.3632621,149.1652374,0.0,0.0,0.0,-0.01,-9.942152973962948e-05,9.444933675695211e-05,0.0,1000,1000,1000,1000,12600,0,0.00288049946539104,0.0027113344985991716,0.0027450833003968,10,{}
attack_corridor_base_18,1,pos_spoof,15352,0.0003202961233910173,0.00010656270023901016,-0.07727712392807007,-35.3632621,149.1652374,0.0,0.0,0.0,-0.01,-9.942152973962948e-05,9.444933675695211e-05,0.0,1000,1000,1000,1000,12600,0,0.002876617480069399,0.0026968331076204777,0.0030765030533075333,10,{}
attack_corridor_base_18,1,pos_spoof,15602,0.0003311962354928255,0.0001118296422646381,-0.07388365268707275,-35.3632621,149.1652374,0.0,0.0,0.0,-0.01,-9.942150063579902e-05,9.444935130886734e-05,0.0,1000,1000,1000,1000,12600,0,0.0028237919323146343,0.002785932971164584,0.002806195756420493,10,{}
attack_corridor_base_18,1,pos_spoof,15854,0.0003366611781530082,0.00012025694741168991,-0.07094002515077591,-35.3632621,149.1652374,0.0,0.0,0.0,0.0,-9.942148608388379e-05,9.444936586078256e-05,0.0,1000,1000,1000,1000,12600,0,0.0027463410515338182,0.0027875511441379786,0.0025867025833576918,10,{}
attack_corridor_base_18,1,pos_spoof,16104,0.0003452042583376169,0.00012997495650779456,-0.06826519221067429,-35.3632621,149.1652374,0.0,0.0,0.0,0.0,-9.94214933598414e-05,9.444938041269779e-05,0.0,1000,1000,1000,1000,12600,0,0.0026779365725815296,0.002950527472421527,0.002540488727390766,10,{}
attack_corridor_base_18,1,pos_spoof,16354,0.0003532669215928763,0.00013789819786325097,-0.06596497446298599,-35.3632621,149.1652374,0.0,0.0,0.0,0.0,-9.94214933598414e-05,9.444938041269779e-05,0.0,1000,1000,1000,1000,12600,0,0.002869691699743271,0.002785970689728856,0.002647893503308296,10,{}
attack_corridor_base_18,1,pos_spoof,16604,0.00036598052247427404,0.00014508528693113476,-0.06390956789255142,-35.3632621,149.1652374,0.0,0.0,0.0,0.0,-9.942151518771425e-05,9.444939496461302e-05,0.0,1000,1000,1000,1000,12600,0,0.0031085845548659563,0.002815792104229331,0.0027286061085760593,10,{}
attack_corridor_base_18,1,pos_spoof,16854,0.00037629168946295977,0.00015352379705291241,-0.06214262917637825,-35.3632621,149.1652374,0.0,0.0,0.0,0.0,-9.942151518771425e-05,9.444939496461302e-05,0.0,1000,1000,1000,1000,12600,0,0.003117138985544443,0.0025906378868967295,0.002622335683554411,10,{}
attack_corridor_base_18,1,pos_spoof,17339,0.0003875784750562161,0.0001590102765476331,-0.06053543463349342,-35.3632621,149.1652374,0.0,0.0,0.0,0.0,-9.942146425601095e-05,9.444936586078256e-05,0.0,1000,1000,1000,1000,12600,0,0.002925122855231166,0.002977222204208374,0.0028551104478538036,10,{}
attack_corridor_base_18,1,pos_spoof,17672,0.000406155624659732,0.00017551986093167216,-0.05794883146882057,-35.3632621,149.1652374,0.0,0.0,0.0,0.0,-9.942160977516323e-05,9.444937313674018e-05,0.0,1000,1000,1000,1000,12600,0,0.0027306098490953445,0.0027851087506860495,0.0026244414038956165,10,{}
attack_corridor_base_18,1,pos_spoof,18006,0.0004195085202809423,0.00019134432659484446,-0.05672883987426758,-35.3632621,149.1652374,0.0,0.0,0.0,0.0,-9.942160977516323e-05,9.444937313674018e-05,0.0,1000,1000,1000,1000,12600,0,0.003070147940889001,0.002821877133101225,0.003014370333403349,10,{}
attack_corridor_base_18,1,pos_spoof,18339,0.0004332614771556109,0.00020856685296166688,-0.05544842779636383,-35.3632621,149.1652374,0.0,0.0,0.0,0.0,-9.942165343090892e-05,9.444935858482495e-05,0.0,1000,1000,1000,1000,12600,0,0.0025776501279324293,0.002685323590412736,0.0028172358870506287,10,{}
attack_corridor_base_18,1,pos_spoof,18671,0.0004458255716599524,0.00022276250820141286,-0.05471475422382355,-35.3632621,149.1652374,0.0,0.0,0.0,0.0,-9.942161705112085e-05,9.444930765312165e-05,0.0,1000,1000,1000,1000,12600,0,0.002730297390371561,0.0028875148855149746,0.0030948719941079617,10,{}
attack_corridor_base_18,1,pos_spoof,19004,0.0004639271355699748,0.0002363852981943637,-0.05411570891737938,-35.3632621,149.1652374,0.0,0.0,0.0,0.0,-9.942161705112085e-05,9.444930765312165e-05,0.0,1000,1000,1000,1000,12600,0,0.003210322232916951,0.0028939037583768368,0.0027550775557756424,10,{}
attack_corridor_base_18,1,pos_spoof,19337,0.00048232442350126803,0.0002535215171519667,-0.05355855077505112,-35.3632621,149.1652374,0.0,0.0,0.0,0.0,-9.942165343090892e-05,9.444929310120642e-05,0.0,1000,1000,1000,1000,12600,0,0.0025205679703503847,0.0029412023723125458,0.002815896412357688,10,{}
attack_corridor_base_18,1,pos_spoof,19672,0.0004993841866962612,0.0002650312380865216,-0.05322866141796112,-35.3632621,149.1652374,0.0,0.0,0.0,0.0,-9.942161705112085e-05,9.444932220503688e-05,0.0,1000,1000,1000,1000,12600,0,0.00263561331667006,0.0027879683766514063,0.0027581152971833944,10,{}
attack_corridor_base_18,1,pos_spoof,20004,0.0005176780396141112,0.00027738543576560915,-0.052909623831510544,-35.3632621,149.1652374,0.0,0.0,0.0,0.0,-9.942161705112085e-05,9.444932220503688e-05,0.0,1000,1000,1000,1000,12600,0,0.0028100113850086927,0.0027979311998933554,0.0029178063850849867,10,{}
attack_corridor_base_18,1,pos_spoof,20336,0.0005366443074308336,0.0003028790815733373,-0.05265098437666893,-35.3632621,149.1652374,-0.007,0.0,0.0,0.0,-9.942170436261222e-05,9.444935858482495e-05,0.0,1000,1000,1000,1000,12600,0,0.0030382461845874786,0.002820144174620509,0.0027052087243646383,10,{}
attack_corridor_base_18,1,pos_spoof,20669,0.0005520037957467139,0.00032074470072984695,-0.052669402211904526,-35.3632621,149.1652374,-0.008,0.0,0.0,0.0,-9.942174074240029e-05,9.444939496461302e-05,0.0,1000,1000,1000,1000,12600,0,0.002806755481287837,0.0028946727979928255,0.0026669418439269066,10,{}
attack_corridor_base_18,1,pos_spoof,21004,0.0005678297020494938,0.00033688743133097887,-0.05275784060359001,-35.3632621,149.1652374,-0.006,0.0,0.0,0.0,-9.942174074240029e-05,9.444939496461302e-05,0.0,1000,1000,1000,1000,12600,0,0.0027202891651540995,0.0027586682699620724,0.0030904621817171574,10,{}
attack_corridor_base_18,1,pos_spoof,21337,0.0005887612933292985,0.00035342437331564724,-0.05296315997838974,-35.3632621,149.1652374,-0.005,0.0,0.0,0.0,-9.942174074240029e-05,9.444938041269779e-05,0.0,1000,1000,1000,1000,12600,0,0.002668299712240696,0.002934488467872143,0.0028020404279232025,10,{}
attack_corridor_base_18,1,pos_spoof,21669,0.0006059607258066535,0.00037192407762631774,-0.05315722897648811,-35.3632621,149.1652374,-0.003,0.0,0.0,0.0,-9.942179167410359e-05,9.444935858482495e-05,0.0,1000,1000,1000,1000,12600,0,0.0027326098643243313,0.0029843419324606657,0.0028023358900099993,10,{}
attack_corridor_base_18,1,pos_spoof,22002,0.0006261389353312552,0.0003844937600661069,-0.0533762127161026,-35.3632621,149.1652374,-0.002,0.0,0.01,0.0,-9.942179167410359e-05,9.444935858482495e-05,0.0,1000,1000,1000,1000,12600,0,0.0031081519555300474,0.0029736303258687258,0.0028803381137549877,10,{}
attack_corridor_base_18,1,pos_spoof,22334,0.0006500281160697341,0.00041002011857926846,-0.05376526713371277,-35.3632621,149.1652374,-0.001,0.0,0.01,0.0,-9.942182077793404e-05,9.444940224057063e-05,0.0,1000,1000,1000,1000,12600,0,0.002768408041447401,0.0029291692189872265,0.00273914635181427,10,{}
attack_corridor_base_18,1,pos_spoof,22669,0.0006650133291259408,0.00043474556878209114,-0.05408091098070145,-35.3632621,149.1652374,0.0,0.0,0.01,0.0,-9.942194446921349e-05,9.444948227610439e-05,0.0,1000,1000,1000,1000,12600,0,0.002644225722178817,0.00281159533187747,0.0028756356332451105,10,{}
attack_corridor_base_18,1,pos_spoof,23001,0.0006875438266433775,0.00045146720367483795,-0.0544431209564209,-35.3632621,149.1652374,0.0,0.0,0.01,0.0,-9.942194446921349e-05,9.444948227610439e-05,0.0,1000,1000,1000,1000,12600,0,0.002568486612290144,0.0026365460362285376,0.0026728124357759953,10,{}
attack_corridor_base_18,1,pos_spoof,23334,0.0007058365154080093,0.0004730117507278919,-0.05497951805591583,-35.3632621,149.1652374,0.001,-0.01,0.01,0.0,-9.94219517451711e-05,9.444944589631632e-05,0.0,1000,1000,1000,1000,12600,0,0.0030946230981498957,0.002632817719131708,0.0027183210477232933,10,{}
attack_corridor_base_18,1,pos_spoof,23667,0.0007216003723442554,0.00048819062067195773,-0.05536869540810585,-35.3632621,149.1652374,0.002,-0.01,0.01,0.0,-9.942187170963734e-05,9.444944589631632e-05,0.0,1000,1000,1000,1000,12600,0,0.002823444316163659,0.002654304262250662,0.0026799188926815987,10,{}
attack_corridor_base_18,1,pos_spoof,23999,0.0007376740104518831,0.0005062203272245824,-0.05576971918344498,-35.3632621,149.1652374,0.002,-0.01,0.01,0.0,-9.942187170963734e-05,9.444944589631632e-05,0.0,1000,1000,1000,1000,12600,0,0.0026459982618689537,0.002644033869728446,0.0030599217861890793,10,{}
attack_corridor_base_18,1,pos_spoof,24334,0.0007532211020588875,0.0005262213526293635,-0.05636518821120262,-35.3632621,149.1652374,0.002,-0.01,0.01,0.0,-9.942186443367973e-05,9.444943134440109e-05,0.0,1000,1000,1000,1000,12600,0,0.0029961674008518457,0.0027916734106838703,0.0025344700552523136,10,{}
attack_corridor_base_18,1,pos_spoof,24666,0.0007683106232434511,0.0005426190909929574,-0.05678942799568176,-35.3632621,149.1652374,0.002,-0.01,0.01,0.0,-9.942188626155257e-05,9.44494386203587e-05,0.0,1000,1000,1000,1000,12600,0,0.002892585238441825,0.002773749642074108,0.0030657819006592035,10,{}
attack_corridor_base_18,1,pos_spoof,24999,0.0007873913273215294,0.0005576376570388675,-0.057240378111600876,-35.3632621,149.1652374,0.003,-0.01,0.01,0.0,-9.942188626155257e-05,9.44494386203587e-05,0.0,1000,1000,1000,1000,12600,0,0.0028371894732117653,0.0029611478094011545,0.0027726073749363422,10,{}
attack_corridor_base_18,1,pos_spoof,25331,0.0008006865391507745,0.000577370694372803,-0.05784577876329422,-35.3632621,149.1652374,0.003,-0.01,0.01,0.0,-9.942191536538303e-05,9.444950410397723e-05,0.0,1000,1000,1000,1000,12600,0,0.002737115602940321,0.003034616820514202,0.002580871107056737,10,{}
attack_corridor_base_18,1,pos_spoof,25664,0.0008211591630242765,0.0005963254370726645,-0.058192066848278046,-35.3632621,149.1652374,0.003,-0.01,0.01,0.0,-9.94219008134678e-05,9.444952593185008e-05,0.0,1000,1000,1000,1000,12600,0,0.0027964692562818527,0.0030831024050712585,0.002880190731957555,10,{}
attack_corridor_base_18,1,pos_spoof,25997,0.0008292011916637421,0.0006143719074316323,-0.05865040048956871,-35.3632621,149.1652374,0.002,-0.01,0.01,0.0,-9.94219008134678e-05,9.444952593185008e-05,0.0,1000,1000,1000,1000,12600,0,0.0026517354417592287,0.002724544843658805,0.002792495535686612,10,{}
attack_corridor_base_18,1,pos_spoof,26331,0.0008510641055181623,0.0006208542035892606,-0.059306494891643524,-35.3632621,149.1652374,0.002,-0.01,0.01,0.0,-9.94219008134678e-05,9.4449489552062e-05,0.0,1000,1000,1000,1000,12600,0,0.0027133033145219088,0.002787979319691658,0.0029872788581997156,10,{}
attack_corridor_base_18,1,pos_spoof,26664,0.0008655514684505761,0.0006310244789347053,-0.05979781225323677,-35.3632621,149.1652374,0.002,-0.01,0.01,0.0,-9.942192264134064e-05,9.444944589631632e-05,0.0,1000,1000,1000,1000,12600,0,0.0026424177922308445,0.0028222089167684317,0.0026279252488166094,10,{}
attack_corridor_base_18,1,pos_spoof,26996,0.0008758608601056039,0.0006427824846468866,-0.06029805168509483,-35.3632621,149.1652374,0.002,-0.01,0.01,0.0,-9.942192264134064e-05,9.444944589631632e-05,0.0,1000,1000,1000,1000,12600,0,0.002592782024294138,0.002946478081867099,0.0027485392056405544,10,{}
attack_corridor_base_18,1,pos_spoof,27329,0.0008934529614634812,0.0006560869514942169,-0.06094816327095032,-35.3632621,149.1652374,0.002,-0.01,0.01,0.0,-9.942198084900156e-05,9.4449489552062e-05,0.0,1000,1000,1000,1000,12600,0,0.0027153107803314924,0.0027108078356832266,0.0026362149510532618,10,{}
attack_corridor_base_18,1,pos_spoof,27662,0.0009019612916745245,0.0006640981882810593,-0.06147987022995949,-35.3632621,149.1652374,0.001,-0.01,0.01,0.0,-9.942197357304394e-05,9.4449489552062e-05,0.0,1000,1000,1000,1000,12600,0,0.0026893599424511194,0.002844583010300994,0.0023682620376348495,10,{}
attack_corridor_base_18,1,pos_spoof,27997,0.0009137536981143057,0.0006734087946824729,-0.06195902079343796,-35.3632621,149.1652374,0.001,-0.01,0.01,0.0,-9.942197357304394e-05,9.4449489552062e-05,0.0,1000,1000,1000,1000,12600,0,0.0026765589136630297,0.003086664481088519,0.002691784407943487,10,{}
attack_corridor_base_18,1,pos_spoof,28329,0.0009275511256419122,0.0006895968108437955,-0.06263770163059235,-35.3632621,149.1652374,0.001,-0.01,0.01,0.0,-9.942204633262008e-05,9.444956231163815e-05,0.0,1000,1000,1000,1000,12600,0,0.002798267640173435,0.0029381716158241034,0.0026368084363639355,10,{}
attack_corridor_base_18,1,pos_spoof,28661,0.0009430138161405921,0.0007055733003653586,-0.06311026960611343,-35.3632621,149.1652374,0.0,-0.01,0.01,0.0,-9.942208998836577e-05,9.444961324334145e-05,0.0,1000,1000,1000,1000,12600,0,0.0027214684523642063,0.0027429379988461733,0.0026813549920916557,10,{}
attack_corridor_base_18,1,pos_spoof,28994,0.0009487599018029869,0.0007182405097410083,-0.0635872334241867,-35.3632621,149.1652374,0.0,-0.01,0.01,0.0,-9.942208998836577e-05,9.444961324334145e-05,0.0,1000,1000,1000,1000,12600,0,0.003053796710446477,0.002588875824585557,0.0026028682477772236,10,{}
attack_corridor_base_18,1,pos_spoof,29329,0.0009618097683414817,0.0007356093847192824,-0.064067043364048,-35.3632621,149.1652374,0.0,-0.01,0.01,0.0,-9.942219912772998e-05,9.444967145100236e-05,0.0,1000,1000,1000,1000,12600,0,0.0027969444636255503,0.002637665718793869,0.002544120652601123,10,{}
attack_corridor_base_18,1,pos_spoof,29662,0.0009770662290975451,0.0007447864045388997,-0.06469716131687164,-35.3632621,149.1652374,0.0,-0.01,0.02,0.0,-9.942230099113658e-05,9.444972238270566e-05,0.0,1000,1000,1000,1000,12600,0,0.0027388939633965492,0.002767377533018589,0.0027198889292776585,10,{}
attack_corridor_base_18,1,pos_spoof,29994,0.0009902027668431401,0.0007579101948067546,-0.065182164311409,-35.3632621,149.1652374,0.0,-0.01,0.02,0.0,-9.942230099113658e-05,9.444972238270566e-05,0.0,1000,1000,1000,1000,12600,0,0.0029851384460926056,0.0027634508442133665,0.003042824100703001,10,{}
attack_corridor_base_18,1,pos_spoof,30352,0.0009988810634240508,0.0007762580644339323,-0.06582269817590714,-35.3632621,149.1652374,-0.001,-0.01,0.02,0.0,-9.942239557858557e-05,9.444978059036657e-05,0.0,1000,1000,1000,1000,12600,0,0.0025558830238878727,0.002740694209933281,0.0033697374165058136,10,{}
attack_corridor_base_18,1,pos_spoof,30604,0.0010026745731011033,0.0007829213282093406,-0.06621085107326508,-35.3632621,149.1652374,-0.001,-0.01,0.02,0.0,-9.942238102667034e-05,9.44497951422818e-05,0.0,1000,1000,1000,1000,12600,0,0.0025558830238878727,0.002740694209933281,0.0033697374165058136,10,{}
attack_corridor_base_18,1,pos_spoof,30854,0.001014680601656437,0.0007896236493252218,-0.06658640503883362,-35.3632621,149.1652374,-0.001,-0.01,0.02,0.0,-9.942244651028886e-05,9.444986062590033e-05,0.0,1000,1000,1000,1000,12600,0,0.002649520756676793,0.002705460647121072,0.0029449232388287783,10,{}
attack_corridor_base_18,1,pos_spoof,31334,0.0010177631629630923,0.0007951052393764257,-0.0669742152094841,-35.3632621,149.1652374,-0.002,-0.01,0.02,0.0,-9.942250471794978e-05,9.444991883356124e-05,0.0,1000,1000,1000,1000,12600,0,0.002714283997192979,0.0029571945779025555,0.0028449641540646553,10,{}
attack_corridor_base_18,1,pos_spoof,31667,0.0010383980115875602,0.0008079568506218493,-0.0677114725112915,-35.3632621,149.1652374,-0.002,-0.01,0.02,0.0,-9.942251199390739e-05,9.444992610951886e-05,0.0,1000,1000,1000,1000,12600,0,0.0026611415669322014,0.0029158140532672405,0.002972785383462906,10,{}
attack_corridor_base_18,1,pos_spoof,32002,0.0010410675313323736,0.0008086978341452777,-0.0681249275803566,-35.3632621,149.1652374,-0.003,-0.01,0.02,0.0,-9.942249016603455e-05,9.444988972973078e-05,0.0,1000,1000,1000,1000,12600,0,0.0027398988604545593,0.0029678023420274258,0.0028223826084285975,10,{}
attack_corridor_base_18,1,pos_spoof,32334,0.001055037253536284,0.0008189529762603343,-0.0687045231461525,-35.3632621,149.1652374,-0.003,-0.01,0.02,0.0,-9.942246833816171e-05,9.444992610951886e-05,0.0,1000,1000,1000,1000,12600,0,0.002995274495333433,0.002925897715613246,0.0027299353387206793,10,{}
attack_corridor_base_18,1,pos_spoof,32666,0.0010643259156495333,0.0008283561328426003,-0.0691625326871872,-35.3632621,149.1652374,-0.003,-0.01,0.02,0.0,-9.942254837369546e-05,9.444998431717977e-05,0.0,1000,1000,1000,1000,12600,0,0.0031205571722239256,0.0027488183695822954,0.0027960475999861956,10,{}
attack_corridor_base_18,1,pos_spoof,32999,0.001069609890691936,0.0008437268552370369,-0.06958605349063873,-35.3632621,149.1652374,-0.004,-0.01,0.02,0.0,-9.942254837369546e-05,9.444994066143408e-05,0.0,1000,1000,1000,1000,12600,0,0.002615538891404867,0.002623199485242367,0.0028007780201733112,10,{}
attack_corridor_base_18,1,pos_spoof,33334,0.0010883178329095244,0.0008579547866247594,-0.07015655934810638,-35.3632621,149.1652374,-0.004,-0.01,0.02,0.0,-9.942254109773785e-05,9.444991883356124e-05,0.0,1000,1000,1000,1000,12600,0,0.0029393434524536133,0.0030348296277225018,0.002687365747988224,10,{}
attack_corridor_base_18,1,pos_spoof,33666,0.0011016525095328689,0.0008692938718013465,-0.07058099657297134,-35.3632621,149.1652374,-0.004,-0.01,0.02,0.0,-9.942253382178023e-05,9.444992610951886e-05,0.0,1000,1000,1000,1000,12600,0,0.0026840672362595797,0.0029869331046938896,0.002771282335743308,10,{}
attack_corridor_base_18,1,pos_spoof,33999,0.0011132210493087769,0.0008782558143138885,-0.07101733982563019,-35.3632621,149.1652374,-0.004,-0.02,0.02,0.0,-9.942253382178023e-05,9.444992610951886e-05,0.0,1000,1000,1000,1000,12600,0,0.0027335500344634056,0.002829907927662134,0.0027125775814056396,10,{}
attack_corridor_base_18,1,pos_spoof,34332,0.0011210773373022676,0.0008880041423253715,-0.07156042754650116,-35.3632621,149.1652374,-0.005,-0.02,0.02,0.0,-9.942250471794978e-05,9.444997704122216e-05,0.0,1000,1000,1000,1000,12600,0,0.0031283709686249495,0.0026246714405715466,0.0030001394916325808,10,{}
attack_corridor_base_18,1,pos_spoof,34664,0.0011344803497195244,0.000900745508261025,-0.07196031510829926,-35.3632621,149.1652374,-0.005,-0.02,0.02,0.0,-9.942241740645841e-05,9.44499479373917e-05,0.0,1000,1000,1000,1000,12600,0,0.002473347121849656,0.002756820060312748,0.00291619380004704,10,{}
attack_corridor_base_18,1,pos_spoof,34999,0.0011448845034465194,0.0009158095344901085,-0.07235407829284668,-35.3632621,149.1652374,-0.005,-0.02,0.02,0.0,-9.942241740645841e-05,9.44499479373917e-05,0.0,1000,1000,1000,1000,12600,0,0.0027370653115212917,0.003134090220555663,0.00274397199973464,10,{}
attack_corridor_base_18,1,pos_spoof,35331,0.0011515262303873897,0.0009286239510402083,-0.07288168370723724,-35.3632621,149.1652374,-0.005,-0.02,0.02,0.0,-9.94223591987975e-05,9.444992610951886e-05,0.0,1000,1000,1000,1000,12600,0,0.0027983279433101416,0.0028191267047077417,0.0026149656623601913,10,{}
attack_corridor_base_18,1,pos_spoof,35664,0.0011605748441070318,0.0009353210916742682,-0.07326735556125641,-35.3632621,149.1652374,-0.005,-0.02,0.02,0.0,-9.942234464688227e-05,9.444992610951886e-05,0.0,1000,1000,1000,1000,12600,0,0.0027535115368664265,0.002835480961948633,0.0027626859955489635,10,{}
attack_corridor_base_18,1,pos_spoof,35997,0.0011660148156806827,0.000933631497900933,-0.07363612204790115,-35.3632621,149.1652374,-0.005,-0.02,0.02,0.0,-9.942234464688227e-05,9.444992610951886e-05,0.0,1000,1000,1000,1000,12600,0,0.0027248424012213945,0.0025896953884512186,0.0026372664142400026,10,{}
attack_corridor_base_18,1,pos_spoof,36329,0.0011755726300179958,0.0009504415793344378,-0.07408861815929413,-35.3632621,149.1652374,-0.005,-0.02,0.02,0.0,-9.942230099113658e-05,9.444991883356124e-05,0.0,1000,1000,1000,1000,12600,0,0.0030579024460166693,0.0026135349180549383,0.00294345710426569,10,{}
attack_corridor_base_18,1,pos_spoof,36664,0.0011791159631684422,0.0009661327349022031,-0.07447778433561325,-35.3632621,149.1652374,-0.005,-0.02,0.02,0.0,-9.942232281900942e-05,9.444991883356124e-05,0.0,1000,1000,1000,1000,12600,0,0.0028020464815199375,0.002718072384595871,0.00256651290692389,10,{}
attack_corridor_base_18,1,pos_spoof,36996,0.0011912507470697165,0.0009806008310988545,-0.07483390718698502,-35.3632621,149.1652374,-0.005,-0.02,0.02,0.0,-9.942232281900942e-05,9.444991883356124e-05,0.0,1000,1000,1000,1000,12600,0,0.0026388736441731453,0.00281119579449296,0.0027793843764811754,10,{}
attack_corridor_base_18,1,pos_spoof,37329,0.0012052723905071616,0.0009980046888813376,-0.07531985640525818,-35.3632621,149.1652374,-0.005,-0.02,0.02,0.0,-9.942235192283988e-05,9.44498970056884e-05,0.0,1000,1000,1000,1000,12600,0,0.0029584208969026804,0.0028558068443089724,0.002563746878877282,10,{}
attack_corridor_base_18,1,pos_spoof,37661,0.0012097645085304976,0.0010074732126668096,-0.07567905634641647,-35.3632621,149.1652374,-0.005,-0.02,0.02,0.0,-9.942234464688227e-05,9.444990428164601e-05,0.0,1000,1000,1000,1000,12600,0,0.0030427719466388226,0.002665847772732377,0.002621706109493971,10,{}
attack_corridor_base_18,1,pos_spoof,37994,0.0012104599736630917,0.0010222105775028467,-0.07604032754898071,-35.3632621,149.1652374,-0.006,-0.02,0.02,0.0,-9.942234464688227e-05,9.444990428164601e-05,0.0,1000,1000,1000,1000,12600,0,0.0029514075722545385,0.002780634444206953,0.002787878969684243,10,{}
attack_corridor_base_18,1,pos_spoof,38327,0.0012280448572710156,0.0010368991643190384,-0.07651591300964355,-35.3632621,149.1652374,-0.006,-0.02,0.02,0.0,-9.942231554305181e-05,9.44498460739851e-05,0.0,1000,1000,1000,1000,12600,0,0.002647498156875372,0.002837643725797534,0.002960139885544777,10,{}
attack_corridor_base_18,1,pos_spoof,38662,0.0012383963912725449,0.0010410932591184974,-0.0768585056066513,-35.3632621,149.1652374,-0.006,-0.02,0.02,0.0,-9.942233009496704e-05,9.444986790185794e-05,0.0,1000,1000,1000,1000,12600,0,0.0027275760658085346,0.002797139575704932,0.003073102794587612,10,{}
attack_corridor_base_18,1,pos_spoof,38994,0.001246234867721796,0.0010563312098383904,-0.07721119374036789,-35.3632621,149.1652374,-0.006,-0.02,0.02,0.0,-9.942233009496704e-05,9.444986790185794e-05,0.0,1000,1000,1000,1000,12600,0,0.0028756167739629745,0.003033583052456379,0.002771386643871665,10,{}
attack_corridor_base_18,1,pos_spoof,39326,0.0012513137189671397,0.0010663563152775168,-0.07755021750926971,-35.3632621,149.1652374,-0.006,-0.02,0.02,0.0,-9.942226461134851e-05,9.444986790185794e-05,0.0,1000,1000,1000,1000,12600,0,0.002980910474434495,0.0026684000622481108,0.0029651792719960213,10,{}
attack_corridor_base_18,1,pos_spoof,39659,0.0012529651867225766,0.0010742871090769768,-0.07799555361270905,-35.3632621,149.1652374,-0.006,-0.02,0.02,0.0,-9.942226461134851e-05,9.444987517781556e-05,0.0,1000,1000,1000,1000,12600,0,0.002710492117330432,0.0026832132134586573,0.0030571494717150927,10,{}
attack_corridor_base_18,1,pos_spoof,39992,0.0012589076068252325,0.0010775241535156965,-0.07832592725753784,-35.3632621,149.1652374,-0.006,-0.02,0.02,0.0,-9.942226461134851e-05,9.444987517781556e-05,0.0,1000,1000,1000,1000,12600,0,0.0028379284776747227,0.0028750826604664326,0.00259873503819108,10,{}
attack_corridor_base_18,1,pos_spoof,40327,0.0012662714580073953,0.0010836214059963822,-0.07864652574062347,-35.3632621,149.1652374,-0.006,-0.02,0.02,0.0,-9.942225005943328e-05,9.444990428164601e-05,0.0,1000,1000,1000,1000,12600,0,0.002707661595195532,0.003085243981331587,0.002795404987409711,10,{}
attack_corridor_base_18,1,pos_spoof,40659,0.00127659912686795,0.001092887599952519,-0.07906040549278259,-35.3632621,149.1652374,-0.006,-0.02,0.02,0.0,-9.942224278347567e-05,9.444992610951886e-05,0.0,1000,1000,1000,1000,12600,0,0.002701248275116086,0.0029084086418151855,0.0027780872769653797,10,{}
attack_corridor_base_18,1,pos_spoof,40991,0.0012837658869102597,0.0010961381485685706,-0.0793287381529808,-35.3632621,149.1652374,-0.006,-0.02,0.02,0.0,-9.942224278347567e-05,9.444992610951886e-05,0.0,1000,1000,1000,1000,12600,0,0.0025240418035537004,0.002753529464825988,0.0027592561673372984,10,{}
attack_corridor_base_18,1,pos_spoof,41324,0.0012894386891275644,0.0011096204398199916,-0.07962027192115784,-35.3632621,149.1652374,-0.006,-0.02,0.02,0.0,-9.942227916326374e-05,9.44499479373917e-05,0.0,1000,1000,1000,1000,12600,0,0.0027160898316651583,0.002756505971774459,0.002793956780806184,10,{}
attack_corridor_base_18,1,pos_spoof,41659,0.0013027745299041271,0.0011223972542211413,-0.08003151416778564,-35.3632621,149.1652374,-0.006,0.0,0.0,0.0,-9.942229371517897e-05,9.444990428164601e-05,0.0,1000,1000,1000,1000,12600,0,0.0029128440655767918,0.0025182468816637993,0.002705488819628954,10,{}
attack_corridor_base_18,1,pos_spoof,41991,0.0013511383440345526,0.001174058415926993,-0.0803302675485611,-35.3632621,149.1652374,-0.006,0.0,0.0,0.0,-9.942229371517897e-05,9.444990428164601e-05,0.0,1000,1000,1000,1000,12600,0,0.003099791007116437,0.002743152901530266,0.002763782860711217,10,{}
attack_corridor_base_18,1,pos_spoof,42324,0.0014322089264169335,0.0012532061664387584,-0.08064305037260056,-35.3632621,149.1652374,-0.006,0.0,0.0,0.0,-9.942230099113658e-05,9.44498970056884e-05,0.0,1000,1000,1000,1000,12600,0,0.0027921462897211313,0.002974298084154725,0.0031536452006548643,10,{}
attack_corridor_base_18,1,pos_spoof,42657,0.0015167640522122383,0.0013423021882772446,-0.08104418218135834,-35.3632621,149.1652374,-0.006,0.0,0.0,0.0,-9.942230099113658e-05,9.444993338547647e-05,0.0,1000,1000,1000,1000,12600,0,0.002829149132594466,0.0026478494983166456,0.002609454095363617,10,{}
attack_corridor_base_18,1,pos_spoof,42989,0.0015778448432683945,0.0013958853669464588,-0.08134502917528152,-35.3632621,149.1652374,-0.006,0.0,0.01,0.0,-9.942230099113658e-05,9.444993338547647e-05,0.0,1000,1000,1000,1000,12600,0,0.0027926394250243902,0.002780134789645672,0.002890282077714801,10,{}
attack_corridor_base_18,1,pos_spoof,43324,0.0016255398513749242,0.0014441002858802676,-0.08165834099054337,-35.3632621,149.1652374,-0.006,-0.01,0.01,0.0,-9.942230099113658e-05,9.444991155760363e-05,0.0,1000,1000,1000,1000,12600,0,0.002919816644862294,0.0029042379464954138,0.002757404465228319,10,{}
attack_corridor_base_18,1,pos_spoof,43656,0.0016595508204773068,0.0014764227671548724,-0.08206714689731598,-35.3632621,149.1652374,-0.006,-0.01,0.01,0.0,-9.942233009496704e-05,9.444983879802749e-05,0.0,1000,1000,1000,1000,12600,0,0.0027095426339656115,0.0031284496653825045,0.0027568493969738483,10,{}
attack_corridor_base_18,1,pos_spoof,43989,0.0016575894551351666,0.0014729341492056847,-0.08236972242593765,-35.3632621,149.1652374,-0.006,-0.01,0.01,0.0,-9.942233009496704e-05,9.444983879802749e-05,0.0,1000,1000,1000,1000,12600,0,0.0026993071660399437,0.0030511366203427315,0.0026141286361962557,10,{}
attack_corridor_base_18,1,pos_spoof,44322,0.0016455656150355935,0.001463829423300922,-0.08267979323863983,-35.3632621,149.1652374,-0.006,-0.01,0.01,0.0,-9.942237375071272e-05,9.444988245377317e-05,0.0,1000,1000,1000,1000,12600,0,0.002642083913087845,0.002971588633954525,0.0030017741955816746,10,{}
attack_corridor_base_18,1,pos_spoof,44654,0.0016104812966659665,0.001418139087036252,-0.08305767178535461,-35.3632621,149.1652375,-0.006,-0.01,0.02,0.0,-9.942239557858557e-05,9.444988245377317e-05,0.0,1000,1000,1000,1000,12600,0,0.0027820253744721413,0.002723988378420472,0.0029800753109157085,10,{}
attack_corridor_base_18,1,pos_spoof,44989,0.0015541142784059048,0.001371523248963058,-0.08333807438611984,-35.3632621,149.1652375,-0.006,-0.01,0.02,0.0,-9.942239557858557e-05,9.444988245377317e-05,0.0,1000,1000,1000,1000,12600,0,0.0028156961780041456,0.002910827985033393,0.00279861013405025,10,{}
attack_corridor_base_18,1,pos_spoof,45104,0.0015223314985632896,0.001340357935987413,-0.08349478244781494,-35.3632621,149.1652375,-0.006,-0.01,0.02,0.0,-9.942233737092465e-05,9.444986062590033e-05,0.0,1000,1000,1000,1000,12600,0,0.0025119706988334656,0.002777215326204896,0.0029907654970884323,10,{}
attack_corridor_base_18,1,pos_spoof,45354,0.0014804797247052193,0.0012993920827284455,-0.08371040970087051,-35.3632621,149.1652375,-0.006,-0.01,0.02,0.0,-9.942234464688227e-05,9.444988245377317e-05,0.0,1000,1000,1000,1000,12600,0,0.002571678953245282,0.002863318659365177,0.002868409501388669,10,{}
attack_corridor_base_18,1,pos_spoof,45604,0.0014411400770768523,0.0012627006508409977,-0.0839231014251709,-35.3632622,149.1652375,-0.006,-0.01,0.02,0.0,-9.942233737092465e-05,9.444988972973078e-05,0.0,1000,1000,1000,1000,12600,0,0.002572518540546298,0.0029621843714267015,0.0026198888663202524,10,{}
attack_corridor_base_18,1,pos_spoof,45854,0.0013846403453499079,0.0012035705149173737,-0.08412586897611618,-35.3632622,149.1652375,-0.006,-0.01,0.02,0.0,-9.942232281900942e-05,9.444987517781556e-05,0.0,1000,1000,1000,1000,12600,0,0.0030863878782838583,0.0027566668577492237,0.002908692229539156,10,{}
attack_corridor_base_18,1,pos_spoof,46104,0.0013428085949271917,0.001158235245384276,-0.08433030545711517,-35.3632622,149.1652375,-0.006,-0.01,0.01,0.0,-9.942230099113658e-05,9.444988245377317e-05,0.0,1000,1000,1000,1000,12600,0,0.002984887221828103,0.0028086963575333357,0.0028126961551606655,10,{}
attack_corridor_base_18,1,pos_spoof,46352,0.0013025023508816957,0.0011123078875243664,-0.08450182527303696,-35.3632622,149.1652375,-0.006,-0.01,0.01,0.0,-9.942228643922135e-05,9.444988245377317e-05,0.0,1000,1000,1000,1000,12600,0,0.00257099443115294,0.002707461826503277,0.0028636532370001078,10,{}
attack_corridor_base_18,1,pos_spoof,46602,0.0012772622285410762,0.0010922300862148404,-0.08466111123561859,-35.3632622,149.1652375,-0.006,-0.01,0.01,0.0,-9.942232281900942e-05,9.444991155760363e-05,0.0,1000,1000,1000,1000,12600,0,0.00264216517098248,0.002815608400851488,0.002646306762471795,10,{}
attack_corridor_base_18,1,pos_spoof,46852,0.0012309965677559376,0.001052438747137785,-0.08486385643482208,-35.3632621,149.1652375,-0.006,-0.01,0.01,0.0,-9.942226461134851e-05,9.444991155760363e-05,0.0,1000,1000,1000,1000,12600,0,0.0029707022476941347,0.002645723056048155,0.0024611451663076878,10,{}
attack_corridor_base_18,1,pos_spoof,47104,0.0011975904926657677,0.001022713491693139,-0.08504047244787216,-35.3632621,149.1652375,-0.006,-0.01,0.01,0.0,-9.942225005943328e-05,9.444992610951886e-05,0.0,1000,1000,1000,1000,12600,0,0.0028023007325828075,0.002653572941198945,0.002382361562922597,10,{}
attack_corridor_base_18,1,pos_spoof,47354,0.0011719116009771824,0.001000384334474802,-0.08522963523864746,-35.3632621,149.1652375,-0.006,-0.01,0.01,0.0,-9.942221367964521e-05,9.44498970056884e-05,0.0,1000,1000,1000,1000,12600,0,0.00298507884144783,0.0028518245089799166,0.0027925963513553143,10,{}
attack_corridor_base_18,1,pos_spoof,47604,0.0011588070774450898,0.000987262581475079,-0.08539555966854095,-35.3632621,149.1652375,-0.006,-0.01,0.01,0.0,-9.942217729985714e-05,9.444986062590033e-05,0.0,1000,1000,1000,1000,12600,0,0.0027651889249682426,0.00278066867031157,0.002833001781255007,10,{}
attack_corridor_base_18,1,pos_spoof,47854,0.001132429693825543,0.0009647379629313946,-0.08558318018913269,-35.3632621,149.1652375,-0.006,-0.01,0.01,0.0,-9.942214819602668e-05,9.444982424611226e-05,0.0,1000,1000,1000,1000,12600,0,0.0028726437594741583,0.002711338922381401,0.0027382494881749153,10,{}
attack_corridor_base_18,1,pos_spoof,48104,0.0011169440113008022,0.0009482037858106196,-0.08573798090219498,-35.3632621,149.1652375,-0.006,-0.01,0.01,0.0,-9.942211909219623e-05,9.444982424611226e-05,0.0,1000,1000,1000,1000,12600,0,0.0030948978383094072,0.0027696487959474325,0.002795629668980837,10,{}
attack_corridor_base_18,1,pos_spoof,48352,0.0011059866519644856,0.0009370085899718106,-0.08592329174280167,-35.3632621,149.1652375,-0.006,-0.01,0.01,0.0,-9.9422104540281e-05,9.444980969419703e-05,0.0,1000,1000,1000,1000,12600,0,0.0026993537321686745,0.0029867307748645544,0.002863135654479265,10,{}
attack_corridor_base_18,1,pos_spoof,48602,0.001099247019737959,0.0009307488217018545,-0.0860808938741684,-35.3632621,149.1652375,-0.006,-0.01,0.01,0.0,-9.942207543645054e-05,9.444980969419703e-05,0.0,1000,1000,1000,1000,12600,0,0.0028912005946040154,0.0027307234704494476,0.002998277312144637,10,{}
attack_corridor_base_18,1,pos_spoof,48852,0.0010890064295381308,0.0009223561501130462,-0.08624280244112015,-35.3632621,149.1652375,-0.006,-0.01,0.01,0.0,-9.942206816049293e-05,9.444978786632419e-05,0.0,1000,1000,1000,1000,12600,0,0.002841594396159053,0.003061505500227213,0.0027512952219694853,10,{}
attack_corridor_base_18,1,pos_spoof,49102,0.0010843920754268765,0.0009158637840300798,-0.08640726655721664,-35.3632621,149.1652375,-0.006,-0.01,0.01,0.0,-9.942202450474724e-05,9.444976603845134e-05,0.0,1000,1000,1000,1000,12600,0,0.0028043596539646387,0.0031085521914064884,0.0027516770642250776,10,{}
attack_corridor_base_18,1,pos_spoof,49354,0.0010827458463609219,0.0009113935520872474,-0.08656544238328934,-35.3632621,149.1652375,-0.006,-0.01,0.01,0.0,-9.942195902112871e-05,9.444973693462089e-05,0.0,1000,1000,1000,1000,12600,0,0.002732842927798629,0.0026489251758903265,0.002798243658617139,10,{}
attack_corridor_base_18,1,pos_spoof,49604,0.001083318260498345,0.0009119200403802097,-0.08671832084655762,-35.3632621,149.1652375,-0.006,-0.01,0.01,0.0,-9.942197357304394e-05,9.444972238270566e-05,0.0,1000,1000,1000,1000,12600,0,0.002705017104744911,0.0028584597166627645,0.002694720169529319,10,{}
attack_corridor_base_18,1,pos_spoof,49854,0.0010778730502352118,0.0009135783184319735,-0.08688031882047653,-35.3632621,149.1652375,-0.006,-0.01,0.01,0.0,-9.942198812495917e-05,9.444972238270566e-05,0.0,1000,1000,1000,1000,12600,0,0.0026668154168874025,0.002837886568158865,0.002634619129821658,10,{}
attack_corridor_base_18,1,pos_spoof,50104,0.001077523222193122,0.0009146906668320298,-0.08703603595495224,-35.3632621,149.1652375,-0.006,-0.01,0.01,0.0,-9.942198812495917e-05,9.444970055483282e-05,0.0,1000,1000,1000,1000,12600,0,0.0028905768413096666,0.0027850077021867037,0.0027597155421972275,10,{}
attack_corridor_base_18,1,pos_spoof,50352,0.001080704852938652,0.0009156184969469905,-0.08718600124120712,-35.3632621,149.1652375,-0.006,-0.01,0.01,0.0,-9.94219517451711e-05,9.444964962312952e-05,0.0,1000,1000,1000,1000,12600,0,0.0024053682573139668,0.002637889701873064,0.002970012603327632,10,{}
attack_corridor_base_18,1,pos_spoof,50602,0.0010835247812792659,0.0009137835004366934,-0.08734474331140518,-35.3632621,149.1652375,-0.006,-0.01,0.01,0.0,-9.942196629708633e-05,9.444961324334145e-05,0.0,1000,1000,1000,1000,12600,0,0.002823560731485486,0.003015998052433133,0.002757385838776827,10,{}
attack_corridor_base_18,1,pos_spoof,50852,0.001085303258150816,0.0009118804591707885,-0.08749375492334366,-35.3632621,149.1652375,-0.006,-0.01,0.01,0.0,-9.942192991729826e-05,9.444955503568053e-05,0.0,1000,1000,1000,1000,12600,0,0.002834909362718463,0.003081076079979539,0.0029645063914358616,10,{}
attack_corridor_base_18,1,pos_spoof,51102,0.0010853878920897841,0.0009120735921896994,-0.08763807266950607,-35.3632621,149.1652375,-0.006,-0.01,0.01,0.0,-9.942192264134064e-05,9.444954775972292e-05,0.0,1000,1000,1000,1000,12600,0,0.0026799850165843964,0.00263270759023726,0.0027050108183175325,10,{}
attack_corridor_base_18,1,pos_spoof,51354,0.0010858133900910616,0.0009175768354907632,-0.08778438717126846,-35.3632621,149.1652375,-0.006,-0.01,0.01,0.0,-9.942189353751019e-05,9.444951865589246e-05,0.0,1000,1000,1000,1000,12600,0,0.0029122401028871536,0.0027383274864405394,0.0025523535441607237,10,{}
attack_corridor_base_18,1,pos_spoof,51604,0.0010916340397670865,0.0009184255613945425,-0.08792717009782791,-35.3632621,149.1652375,-0.006,-0.01,0.01,0.0,-9.942188626155257e-05,9.444950410397723e-05,0.0,1000,1000,1000,1000,12600,0,0.002893341239541769,0.0029222385492175817,0.0029246697667986155,10,{}
attack_corridor_base_18,1,pos_spoof,51854,0.0010946730617433786,0.0009140240726992488,-0.08806680142879486,-35.3632621,149.1652375,-0.006,-0.01,0.01,0.0,-9.942190808942541e-05,9.444951865589246e-05,0.0,1000,1000,1000,1000,12600,0,0.002978250617161393,0.002636110410094261,0.0029025685507804155,10,{}
attack_corridor_base_18,1,pos_spoof,52104,0.001099464832805097,0.0009063141187652946,-0.08821365237236023,-35.3632621,149.1652375,-0.006,-0.01,0.01,0.0,-9.94219008134678e-05,9.4449489552062e-05,0.0,1000,1000,1000,1000,12600,0,0.002980356104671955,0.0025234532076865435,0.0028609002474695444,10,{}
attack_corridor_base_18,1,pos_spoof,52354,0.0011040210956707597,0.0009052871610037982,-0.08834532648324966,-35.3632621,149.1652375,-0.006,-0.01,0.01,0.0,-9.942187898559496e-05,9.4449489552062e-05,0.0,1000,1000,1000,1000,12600,0,0.0027319409418851137,0.002879194915294647,0.0028401061426848173,10,{}
attack_corridor_base_18,1,pos_spoof,52602,0.001108131487853825,0.0009157033637166023,-0.08845441788434982,-35.3632621,149.1652375,-0.006,-0.01,0.01,0.0,-9.942186443367973e-05,9.444945317227393e-05,0.0,1000,1000,1000,1000,12600,0,0.003151178127154708,0.0027405773289501667,0.002797189634293318,10,{}
attack_corridor_base_18,1,pos_spoof,52852,0.0011104063596576452,0.0009180120541714132,-0.08859742432832718,-35.3632621,149.1652375,-0.006,-0.01,0.01,0.0,-9.942183532984927e-05,9.444941679248586e-05,0.0,1000,1000,1000,1000,12600,0,0.002935736207291484,0.0030668750405311584,0.002910713432356715,10,{}
attack_corridor_base_18,1,pos_spoof,53102,0.0011100290575996041,0.0009140246547758579,-0.08872392773628235,-35.3632621,149.1652375,-0.006,-0.01,0.01,0.0,-9.942186443367973e-05,9.444943134440109e-05,0.0,1000,1000,1000,1000,12600,0,0.0027094644028693438,0.0028501420747488737,0.002694841008633375,10,{}
attack_corridor_base_18,1,pos_spoof,53354,0.0011169607751071453,0.0009218837949447334,-0.08887330442667007,-35.3632621,149.1652375,-0.006,-0.01,0.01,0.0,-9.942185715772212e-05,9.444944589631632e-05,0.0,1000,1000,1000,1000,12600,0,0.0027912037912756205,0.0025407737120985985,0.0025785721372812986,10,{}
attack_corridor_base_18,1,pos_spoof,53604,0.0011289530666545033,0.0009298947406932712,-0.08899985998868942,-35.3632621,149.1652375,-0.006,-0.01,0.01,0.0,-9.942184260580689e-05,9.444943134440109e-05,0.0,1000,1000,1000,1000,12600,0,0.0027636028826236725,0.003063402371481061,0.0027509357314556837,10,{}
attack_corridor_base_18,1,pos_spoof,53854,0.0011316254967823625,0.0009272624738514423,-0.08913362771272659,-35.3632621,149.1652375,-0.006,-0.01,0.01,0.0,-9.942180622601882e-05,9.444941679248586e-05,0.0,1000,1000,1000,1000,12600,0,0.002527629490941763,0.002687640953809023,0.002939477562904358,10,{}
attack_corridor_base_18,1,pos_spoof,54104,0.0011331761488690972,0.000935543270315975,-0.08926473557949066,-35.3632621,149.1652375,-0.006,-0.01,0.01,0.0,-9.942177712218836e-05,9.444940951652825e-05,0.0,1000,1000,1000,1000,12600,0,0.003024512203410268,0.0028088903054594994,0.00287444656714797,10,{}
attack_corridor_base_18,1,pos_spoof,54354,0.0011349148117005825,0.000939006800763309,-0.08939656615257263,-35.3632621,149.1652375,-0.006,-0.01,0.01,0.0,-9.94217480183579e-05,9.444936586078256e-05,0.0,1000,1000,1000,1000,12600,0,0.0028915447182953358,0.00294332392513752,0.0030009583570063114,10,{}
attack_corridor_base_18,1,pos_spoof,54602,0.0011444736737757921,0.000948312459513545,-0.08951593935489655,-35.3632621,149.1652375,-0.006,-0.01,0.01,0.0,-9.942172619048506e-05,9.444937313674018e-05,0.0,1000,1000,1000,1000,12600,0,0.00264536845497787,0.0027557071298360825,0.002671495545655489,10,{}
attack_corridor_base_18,1,pos_spoof,54852,0.0011443330440670252,0.0009473909740336239,-0.08964529633522034,-35.3632621,149.1652375,-0.006,-0.01,0.01,0.0,-9.942174074240029e-05,9.444934403290972e-05,0.0,1000,1000,1000,1000,12600,0,0.003174790646880865,0.0029127050656825304,0.0029006493277847767,10,{}
attack_corridor_base_18,1,pos_spoof,55102,0.0011466871947050095,0.0009494174737483263,-0.08976775407791138,-35.3632621,149.1652375,-0.006,-0.01,0.01,0.0,-9.942173346644267e-05,9.444930037716404e-05,0.0,1000,1000,1000,1000,12600,0,0.002807936631143093,0.002824501832947135,0.0025800231378525496,10,{}
attack_corridor_base_18,1,pos_spoof,55352,0.0011457601794973016,0.0009510644595138729,-0.08989112079143524,-35.3632621,149.1652375,-0.006,-0.01,0.01,0.0,-9.94217480183579e-05,9.444930037716404e-05,0.0,1000,1000,1000,1000,12600,0,0.0025631352327764034,0.0025228960439562798,0.0025725215673446655,10,{}
attack_corridor_base_18,1,pos_spoof,55604,0.0011502888519316912,0.000956373056396842,-0.09001854807138443,-35.3632621,149.1652375,-0.006,-0.01,0.01,0.0,-9.942168981069699e-05,9.444925672141835e-05,0.0,1000,1000,1000,1000,12600,0,0.002765510929748416,0.003074964974075556,0.002696338575333357,10,{}
attack_corridor_base_18,1,pos_spoof,55854,0.0011466194409877062,0.0009505181224085391,-0.09014086425304413,-35.3632621,149.1652375,-0.006,-0.01,0.01,0.0,-9.942168253473938e-05,9.444926399737597e-05,0.0,1000,1000,1000,1000,12600,0,0.0026970626786351204,0.002862347289919853,0.0025826371274888515,10,{}
attack_corridor_base_18,1,pos_spoof,56104,0.0011461584363132715,0.0009513688273727894,-0.0902649387717247,-35.3632621,149.1652375,-0.006,-0.01,0.01,0.0,-9.942168253473938e-05,9.444926399737597e-05,0.0,1000,1000,1000,1000,12600,0,0.002768162405118346,0.0028675596695393324,0.0030393858905881643,10,{}
attack_corridor_base_18,1,pos_spoof,56354,0.0011502844281494617,0.0009554664720781147,-0.09038625657558441,-35.3632621,149.1652375,-0.006,-0.01,0.01,0.0,-9.942167525878176e-05,9.444924216950312e-05,0.0,1000,1000,1000,1000,12600,0,0.0027056431863456964,0.0029029136057943106,0.0030944880563765764,10,{}
attack_corridor_base_18,1,pos_spoof,56602,0.0011527383467182517,0.00096181157277897,-0.09050453454256058,-35.3632621,149.1652375,-0.006,-0.01,0.01,0.0,-9.94216970866546e-05,9.44492785492912e-05,0.0,1000,1000,1000,1000,12600,0,0.002758015412837267,0.002629471942782402,0.0027786518912762403,10,{}
attack_corridor_base_18,1,pos_spoof,56852,0.0011381834046915174,0.0009591942653059959,-0.0905950516462326,-35.3632621,149.1652375,-0.006,-0.01,0.01,0.0,-9.942175529431552e-05,9.444930765312165e-05,0.0,1000,1000,1000,1000,12600,0,0.002888137474656105,0.002761377254500985,0.002772427164018154,10,{}
attack_corridor_base_18,1,pos_spoof,57102,0.0011330320267006755,0.0009540771134197712,-0.09070689976215363,-35.3632621,149.1652375,-0.006,-0.01,0.01,0.0,-9.942178439814597e-05,9.444930037716404e-05,0.0,1000,1000,1000,1000,12600,0,0.002785005373880267,0.0029907100833952427,0.002825937932357192,10,{}
attack_corridor_base_18,1,pos_spoof,57352,0.0011409764410927892,0.0009569668327458203,-0.09082821756601334,-35.3632621,149.1652375,-0.006,-0.01,0.01,0.0,-9.942182805389166e-05,9.444933675695211e-05,0.0,1000,1000,1000,1000,12600,0,0.002815601183101535,0.0029023857787251472,0.002774878405034542,10,{}
attack_corridor_base_18,1,pos_spoof,57604,0.0011460911482572556,0.0009644821984693408,-0.09094139188528061,-35.3632622,149.1652375,-0.006,-0.01,0.01,0.0,-9.942182805389166e-05,9.444937313674018e-05,0.0,1000,1000,1000,1000,12600,0,0.002687373198568821,0.002643563784658909,0.0024666949175298214,10,{}
attack_corridor_base_18,1,pos_spoof,57854,0.0011466119904071093,0.000962508434895426,-0.0910528376698494,-35.3632621,149.1652375,-0.006,-0.01,0.01,0.0,-9.942181350197643e-05,9.444936586078256e-05,0.0,1000,1000,1000,1000,12600,0,0.0026802695356309414,0.0025301838759332895,0.0026132501661777496,10,{}
attack_corridor_base_18,1,pos_spoof,58104,0.0011502383276820183,0.0009602914215065539,-0.09115958958864212,-35.3632621,149.1652375,-0.006,-0.01,0.01,0.0,-9.942185715772212e-05,9.444939496461302e-05,0.0,1000,1000,1000,1000,12600,0,0.0026224867906421423,0.002778815571218729,0.002571041928604245,10,{}
attack_corridor_base_18,1,pos_spoof,58354,0.0011542538413777947,0.0009660207433626056,-0.09127738326787949,-35.3632621,149.1652375,-0.006,-0.01,0.01,0.0,-9.942185715772212e-05,9.444938041269779e-05,0.0,1000,1000,1000,1000,12600,0,0.0030612251721322536,0.0027113177347928286,0.002757216105237603,10,{}
attack_corridor_base_18,1,pos_spoof,58604,0.0011546610621735454,0.0009717983193695545,-0.09138084948062897,-35.3632622,149.1652375,-0.006,-0.01,0.01,0.0,-9.942191536538303e-05,9.444943134440109e-05,0.0,1000,1000,1000,1000,12600,0,0.003133420366793871,0.003081529401242733,0.0028623209800571203,10,{}
attack_corridor_base_18,1,pos_spoof,58852,0.0011538100661709905,0.0009683509124442935,-0.09149660915136337,-35.3632621,149.1652375,-0.006,-0.01,0.01,0.0,-9.942192991729826e-05,9.44494386203587e-05,0.0,1000,1000,1000,1000,12600,0,0.0029170187190175056,0.0027995863929390907,0.002555648796260357,10,{}
attack_corridor_base_18,1,pos_spoof,59102,0.0011551947100088,0.0009697854402475059,-0.09160082787275314,-35.3632621,149.1652375,-0.006,-0.01,0.01,0.0,-9.942192991729826e-05,9.444942406844348e-05,0.0,1000,1000,1000,1000,12600,0,0.0026698396541178226,0.002687668427824974,0.0025346761103719473,10,{}
attack_corridor_base_18,1,pos_spoof,59352,0.0011575749376788735,0.0009746067225933075,-0.09170693159103394,-35.3632621,149.1652375,-0.006,-0.01,0.01,0.0,-9.942192991729826e-05,9.444938041269779e-05,0.0,1000,1000,1000,1000,12600,0,0.002957551274448633,0.002569808391854167,0.002684804145246744,10,{}
attack_corridor_base_18,1,pos_spoof,59604,0.0011625707847997546,0.000980509095825255,-0.09181113541126251,-35.3632622,149.1652375,-0.006,-0.01,0.01,0.0,-9.942194446921349e-05,9.444936586078256e-05,0.0,1000,1000,1000,1000,12600,0,0.0030077449046075344,0.0027688895352184772,0.002743503777310252,10,{}
attack_corridor_base_18,1,pos_spoof,59854,0.0011516455560922623,0.0009753592894412577,-0.09191368520259857,-35.3632621,149.1652375,-0.006,-0.01,0.01,0.0,-9.942198812495917e-05,9.444939496461302e-05,0.0,1000,1000,1000,1000,12600,0,0.0026662040036171675,0.002803605981171131,0.002736208261922002,10,{}
attack_corridor_base_18,1,pos_spoof,60104,0.0011504569556564093,0.0009703016839921474,-0.09201113879680634,-35.3632621,149.1652375,-0.006,-0.01,0.01,0.0,-9.942199540091679e-05,9.444936586078256e-05,0.0,1000,1000,1000,1000,12600,0,0.0030158718582242727,0.0027474574744701385,0.002700456418097019,10,{}
attack_corridor_base_18,1,pos_spoof,60354,0.0011522154090926051,0.0009683694806881249,-0.09211692214012146,-35.3632622,149.1652375,-0.006,-0.01,0.01,0.0,-9.942202450474724e-05,9.444936586078256e-05,0.0,1000,1000,1000,1000,12600,0,0.0026820385828614235,0.002776504959911108,0.0027320347726345062,10,{}
attack_corridor_base_18,1,pos_spoof,60604,0.0011581178987398744,0.0009714451734907925,-0.0922129899263382,-35.3632622,149.1652375,-0.006,-0.01,0.01,0.0,-9.942203905666247e-05,9.444936586078256e-05,0.0,1000,1000,1000,1000,12600,0,0.002713428344577551,0.0028823455795645714,0.002858642488718033,10,{}
attack_corridor_base_18,1,pos_spoof,60852,0.0011499288957566023,0.000958397111389786,-0.09232009947299957,-35.3632621,149.1652375,-0.006,-0.01,0.01,0.0,-9.942202450474724e-05,9.444935858482495e-05,0.0,1000,1000,1000,1000,12600,0,0.0028073571156710386,0.0027939474675804377,0.0025490240659564734,10,{}
attack_corridor_base_18,1,pos_spoof,61102,0.0011544747976586223,0.0009527129586786032,-0.09241677075624466,-35.3632622,149.1652375,-0.006,-0.01,0.01,0.0,-9.94220536085777e-05,9.444938041269779e-05,0.0,1000,1000,1000,1000,12600,0,0.002510633785277605,0.0029175973031669855,0.002739523071795702,10,{}
attack_corridor_base_18,1,pos_spoof,61352,0.0011564003070816398,0.0009571516420692205,-0.0925113782286644,-35.3632622,149.1652375,-0.006,-0.01,0.01,0.0,-9.942203905666247e-05,9.444936586078256e-05,0.0,1000,1000,1000,1000,12600,0,0.003003196557983756,0.003056483343243599,0.002976182149723172,10,{}
attack_corridor_base_18,1,pos_spoof,61602,0.0011645826743915677,0.0009608317050151527,-0.0926024466753006,-35.3632622,149.1652375,-0.006,-0.01,0.01,0.0,-9.942208271240816e-05,9.444936586078256e-05,0.0,1000,1000,1000,1000,12600,0,0.0027469261549413204,0.002822626382112503,0.002925677690654993,10,{}
attack_corridor_base_18,1,pos_spoof,61854,0.0011553490767255425,0.0009530881070531905,-0.09267980605363846,-35.3632622,149.1652375,-0.006,-0.01,0.01,0.0,-9.942209726432338e-05,9.444940951652825e-05,0.0,1000,1000,1000,1000,12600,0,0.002903211396187544,0.002813684055581689,0.0030312021262943745,10,{}
attack_corridor_base_18,1,pos_spoof,62104,0.001157258404418826,0.0009556295699439943,-0.09276822954416275,-35.3632621,149.1652375,-0.006,-0.01,0.01,0.0,-9.942209726432338e-05,9.444942406844348e-05,0.0,1000,1000,1000,1000,12600,0,0.002529751742258668,0.0028320522978901863,0.002814509440213442,10,{}
attack_corridor_base_18,1,pos_spoof,62354,0.0011614286340773106,0.0009541811887174845,-0.09286416321992874,-35.3632622,149.1652375,-0.006,-0.01,0.01,0.0,-9.942213364411145e-05,9.444946044823155e-05,0.0,1000,1000,1000,1000,12600,0,0.002675029681995511,0.002683610888198018,0.002634878735989332,10,{}
attack_corridor_base_18,1,pos_spoof,62604,0.001163510256446898,0.0009637571638450027,-0.09294836223125458,-35.3632622,149.1652375,-0.006,-0.01,0.01,0.0,-9.942212636815384e-05,9.444947500014678e-05,0.0,1000,1000,1000,1000,12600,0,0.0026495237834751606,0.0029550199396908283,0.0028511269483715296,10,{}
attack_corridor_base_18,1,pos_spoof,62852,0.001160728163085878,0.0009621633216738701,-0.09304382652044296,-35.3632621,149.1652375,-0.006,-0.01,0.01,0.0,-9.942213364411145e-05,9.4449489552062e-05,0.0,1000,1000,1000,1000,12600,0,0.0026120177935808897,0.0031740327831357718,0.0026498541701585054,10,{}
attack_corridor_base_18,1,pos_spoof,63102,0.001159900100901723,0.000967455271165818,-0.09313782304525375,-35.3632621,149.1652375,-0.006,-0.01,0.01,0.0,-9.942211181623861e-05,9.44494386203587e-05,0.0,1000,1000,1000,1000,12600,0,0.002932027680799365,0.0028574655298143625,0.002698762807995081,10,{}
attack_corridor_base_18,1,pos_spoof,63352,0.0011587125482037663,0.0009649535641074181,-0.0932362824678421,-35.3632622,149.1652375,-0.006,-0.01,0.01,0.0,-9.9422104540281e-05,9.444940951652825e-05,0.0,1000,1000,1000,1000,12600,0,0.0027855681255459785,0.0026213510427623987,0.0028815087862312794,10,{}
attack_corridor_base_18,1,pos_spoof,63602,0.0011617381824180484,0.0009743143455125391,-0.0933159589767456,-35.3632622,149.1652375,-0.006,-0.01,0.01,0.0,-9.9422104540281e-05,9.444938041269779e-05,0.0,1000,1000,1000,1000,12600,0,0.0029318092856556177,0.0025605331175029278,0.0025548480916768312,10,{}
attack_corridor_base_18,1,pos_spoof,63854,0.0011584690073505044,0.0009707882418297231,-0.09340238571166992,-35.3632622,149.1652375,-0.006,-0.01,0.01,0.0,-9.942209726432338e-05,9.444941679248586e-05,0.0,1000,1000,1000,1000,12600,0,0.0029751271940767765,0.0029373522847890854,0.0029288255609571934,10,{}
attack_corridor_base_18,1,pos_spoof,64104,0.0011628748616203666,0.0009624826489016414,-0.09348593652248383,-35.3632622,149.1652375,-0.006,-0.01,0.01,0.0,-9.942211909219623e-05,9.444942406844348e-05,0.0,1000,1000,1000,1000,12600,0,0.0027495338581502438,0.0030118876602500677,0.0031028869561851025,10,{}
attack_corridor_base_18,1,pos_spoof,64354,0.0011642989702522755,0.0009641905198805034,-0.09357450902462006,-35.3632622,149.1652375,-0.006,-0.01,0.01,0.0,-9.94221554719843e-05,9.44494386203587e-05,0.0,1000,1000,1000,1000,12600,0,0.0029476762283593416,0.0028871356043964624,0.002852474106475711,10,{}
attack_corridor_base_18,1,pos_spoof,64604,0.0011741885682567954,0.0009669042192399502,-0.09365779906511307,-35.3632622,149.1652375,-0.006,-0.01,0.01,0.0,-9.942217002389953e-05,9.444946044823155e-05,0.0,1000,1000,1000,1000,12600,0,0.002898129168897867,0.0029549153987318277,0.002889412920922041,10,{}
attack_corridor_base_18,1,pos_spoof,64854,0.001171768642961979,0.0009591298294253647,-0.09374520927667618,-35.3632622,149.1652375,-0.006,-0.01,0.01,0.0,-9.94222064036876e-05,9.444946044823155e-05,0.0,1000,1000,1000,1000,12600,0,0.0028465164359658957,0.00294336024671793,0.002842680085450411,10,{}
attack_corridor_base_18,1,pos_spoof,65102,0.001164199085906148,0.0009521534666419029,-0.09382757544517517,-35.3632621,149.1652375,-0.006,-0.01,0.01,0.0,-9.942217729985714e-05,9.444944589631632e-05,0.0,1000,1000,1000,1000,12600,0,0.002917112782597542,0.0030844872817397118,0.002727409591898322,10,{}
attack_corridor_base_18,1,pos_spoof,65352,0.0011632529785856605,0.0009587622480466962,-0.09391269832849503,-35.3632622,149.1652375,-0.006,-0.01,0.01,0.0,-9.942219912772998e-05,9.444947500014678e-05,0.0,1000,1000,1000,1000,12600,0,0.0028165739495307207,0.0026213927194476128,0.0029441467486321926,10,{}
attack_corridor_base_18,1,pos_spoof,65602,0.0011653007240965962,0.0009651315049268305,-0.09399529546499252,-35.3632622,149.1652375,-0.006,-0.01,0.01,0.0,-9.942222095560282e-05,9.444951137993485e-05,0.0,1000,1000,1000,1000,12600,0,0.0027411801274865866,0.0025626991409808397,0.002770032500848174,10,{}
attack_corridor_base_18,1,pos_spoof,65854,0.0011631697416305542,0.0009609948610886931,-0.09408164024353027,-35.3632621,149.1652375,-0.006,-0.01,0.01,0.0,-9.942218457581475e-05,9.4449489552062e-05,0.0,1000,1000,1000,1000,12600,0,0.0027194644790142775,0.002993851201608777,0.0026798939798027277,10,{}
attack_corridor_base_18,1,pos_spoof,66104,0.0011659893207252026,0.0009625441743992269,-0.09415919333696365,-35.3632621,149.1652375,-0.006,-0.01,0.01,0.0,-9.942219912772998e-05,9.4449489552062e-05,0.0,1000,1000,1000,1000,12600,0,0.0026407046243548393,0.0029035003390163183,0.0028565218672156334,10,{}
attack_corridor_base_18,1,pos_spoof,66354,0.0011718731839209795,0.0009609108092263341,-0.0942363440990448,-35.3632621,149.1652375,-0.006,-0.01,0.01,0.0,-9.942219912772998e-05,9.444950410397723e-05,0.0,1000,1000,1000,1000,12600,0,0.0027958459686487913,0.00286304485052824,0.0027418937534093857,10,{}
attack_corridor_base_18,1,pos_spoof,66604,0.0011726110242307186,0.0009753918275237083,-0.09431953728199005,-35.3632621,149.1652375,-0.006,-0.01,0.01,0.0,-9.942219912772998e-05,9.444949682801962e-05,0.0,1000,1000,1000,1000,12600,0,0.0029651187360286713,0.0026440012734383345,0.002666248008608818,10,{}
attack_corridor_base_18,1,pos_spoof,66854,0.0011725417571142316,0.0009709883597679436,-0.09439033269882202,-35.3632621,149.1652375,-0.006,-0.01,0.01,0.0,-9.94221554719843e-05,9.444948227610439e-05,0.0,1000,1000,1000,1000,12600,0,0.0024607828818261623,0.0028213772457093,0.0029791288543492556,10,{}
attack_corridor_base_18,1,pos_spoof,67102,0.0011723568895831704,0.0009706027340143919,-0.09445023536682129,-35.3632621,149.1652375,-0.006,-0.01,0.01,0.0,-9.942216274794191e-05,9.444951137993485e-05,0.0,1000,1000,1000,1000,12600,0,0.002986763371154666,0.0026000149082392454,0.0031203904654830694,10,{}
attack_corridor_base_18,1,pos_spoof,67352,0.001173321041278541,0.0009732607868500054,-0.09451431781053543,-35.3632621,149.1652375,-0.006,-0.01,0.01,0.0,-9.94221554719843e-05,9.4449489552062e-05,0.0,1000,1000,1000,1000,12600,0,0.002960223238915205,0.002874573227018118,0.0029355392325669527,10,{}
attack_corridor_base_18,1,pos_spoof,67602,0.00117766042239964,0.0009827303001657128,-0.09458618611097336,-35.3632622,149.1652375,-0.006,-0.01,0.01,0.0,-9.942222095560282e-05,9.4449489552062e-05,0.0,1000,1000,1000,1000,12600,0,0.002562410430982709,0.002971244975924492,0.0027293353341519833,10,{}
attack_corridor_base_18,1,pos_spoof,67852,0.001176556572318077,0.0009819908300414681,-0.09466645121574402,-35.3632621,149.1652375,-0.006,-0.01,0.01,0.0,-9.942214092006907e-05,9.444947500014678e-05,0.0,1000,1000,1000,1000,12600,0,0.002663783263415098,0.002971030306071043,0.0027500344440340996,10,{}
