flight_id,label,attack_type,timestamp,att_roll,att_pitch,att_yaw,pos_lat,pos_lon,pos_alt_rel,pos_vx,pos_vy,pos_vz,nav_roll,nav_pitch,nav_alt_error,servo1_raw,servo2_raw,servo3_raw,servo4_raw,sys_voltage_battery,sys_load,vib_x,vib_y,vib_z,gps_sats_visible,attack_params_json
attack_corridor_base_2,1,pos_spoof,10049,0.00019218445231672376,-4.325066402088851e-05,-0.34560611844062805,-35.3632621,149.1652374,0.0,0.0,0.0,-0.03,-9.942175529431552e-05,9.44495404837653e-05,0.0,1000,1000,1000,1000,12600,0,0.0028742454014718533,0.002800154499709606,0.002734722103923559,0,{}
attack_corridor_base_2,1,pos_spoof,10381,0.00019931091810576618,-3.101084803347476e-05,-0.3202131688594818,-35.3632621,149.1652374,0.0,0.0,0.0,-0.03,-9.94216970866546e-05,9.44494386203587e-05,0.0,1000,1000,1000,1000,12600,0,0.0027975740376859903,0.002967305714264512,0.0027847248129546642,10,{}
attack_corridor_base_2,1,pos_spoof,10714,0.00020124211732763797,-2.155907168344129e-05,-0.2897540330886841,-35.3632621,149.1652374,0.0,0.0,0.0,-0.03,-9.942171163856983e-05,9.444940224057063e-05,0.0,1000,1000,1000,1000,12600,0,0.0025197388604283333,0.0029587356839329004,0.0029581121634691954,10,{}
attack_corridor_base_2,1,pos_spoof,11047,0.0002062793937511742,-1.5037057892186567e-05,-0.2631142735481262,-35.3632621,149.1652374,0.0,0.0,0.0,-0.03,-9.942171163856983e-05,9.444940224057063e-05,0.0,1000,1000,1000,1000,12600,0,0.002852838719263673,0.0027094106189906597,0.002653404138982296,10,{}
attack_corridor_base_2,1,pos_spoof,11379,0.00020924904674757272,-4.220003575028386e-06,-0.23068882524967194,-35.3632621,149.1652374,0.0,0.0,0.0,-0.03,-9.942160977516323e-05,9.44493876886554e-05,0.0,1000,1000,1000,1000,12600,0,0.0030389432795345783,0.002828035969287157,0.0030002938583493233,10,{}
attack_corridor_base_2,1,pos_spoof,11714,0.00021433616348076612,2.918594077527814e-08,-0.20886798202991486,-35.3632621,149.1652374,0.0,0.0,0.0,-0.03,-9.942158794729039e-05,9.444940224057063e-05,0.0,1000,1000,1000,1000,12600,0,0.0031161755323410034,0.002797856694087386,0.002543151844292879,10,{}
attack_corridor_base_2,1,pos_spoof,12046,0.00022177273058332503,1.1602321137615945e-05,-0.18939363956451416,-35.3632621,149.1652374,0.0,0.0,0.0,-0.02,-9.942158794729039e-05,9.444940224057063e-05,0.0,1000,1000,1000,1000,12600,0,0.002988225780427456,0.002862525638192892,0.002965378575026989,10,{}
attack_corridor_base_2,1,pos_spoof,12379,0.00022742460714653134,2.4712782760616392e-05,-0.16662758588790894,-35.3632621,149.1652374,0.0,0.0,0.0,-0.02,-9.942165343090892e-05,9.444940224057063e-05,0.0,1000,1000,1000,1000,12600,0,0.002789258025586605,0.002991744317114353,0.0029002351220697165,10,{}
attack_corridor_base_2,1,pos_spoof,12711,0.0002352321898797527,3.271276000305079e-05,-0.15173012018203735,-35.3632621,149.1652374,0.0,0.0,0.0,-0.02,-9.942168253473938e-05,9.444938041269779e-05,0.0,1000,1000,1000,1000,12600,0,0.002897617407143116,0.002781178802251816,0.00298903021030128,10,{}
attack_corridor_base_2,1,pos_spoof,13044,0.00024488361668772995,3.7410885852295905e-05,-0.13849341869354248,-35.3632621,149.1652374,0.0,0.0,0.0,-0.02,-9.942168253473938e-05,9.444938041269779e-05,0.0,1000,1000,1000,1000,12600,0,0.0027627020608633757,0.002647924004122615,0.002776755951344967,10,{}
attack_corridor_base_2,1,pos_spoof,13377,0.0002569356292951852,4.5002067054156214e-05,-0.12329564988613129,-35.3632621,149.1652374,0.0,0.0,0.0,-0.01,-9.942161705112085e-05,9.444936586078256e-05,0.0,1000,1000,1000,1000,12600,0,0.002688555046916008,0.0025355105753988028,0.0029049848672002554,10,{}
attack_corridor_base_2,1,pos_spoof,13712,0.00026386039098724723,5.55261030967813e-05,-0.11345317959785461,-35.3632621,149.1652374,0.0,0.0,0.0,-0.01,-9.942160977516323e-05,9.444939496461302e-05,0.0,1000,1000,1000,1000,12600,0,0.002764177042990923,0.0028115632012486458,0.002802482573315501,10,{}
attack_corridor_base_2,1,pos_spoof,14044,0.0002755463938228786,6.13766023889184e-05,-0.10484787821769714,-35.3632621,149.1652374,0.0,0.0,0.0,-0.01,-9.942160977516323e-05,9.444939496461302e-05,0.0,1000,1000,1000,1000,12600,0,0.002704211510717869,0.0027419428806751966,0.002934778109192848,10,{}
attack_corridor_base_2,1,pos_spoof,14376,0.0002805185504257679,7.041829667286947e-05,-0.09730726480484009,-35.3632621,149.1652374,0.0,0.0,0.0,-0.01,-9.942151518771425e-05,9.444934403290972e-05,0.0,1000,1000,1000,1000,12600,0,0.0027777014765888453,0.0028960539493709803,0.00289902207441628,10,{}
attack_corridor_base_2,1,pos_spoof,14709,0.00029705354245379567,8.70708900038153e-05,-0.08871054649353027,-35.3632621,149.1652374,0.0,0.0,0.0,-0.01,-9.942152973962948e-05,9.444935130886734e-05,0.0,1000,1000,1000,1000,12600,0,0.0028925882652401924,0.0028653459157794714,0.0027611895930022,10,{}
attack_corridor_base_2,1,pos_spoof,15042,0.0003077914589084685,9.73459318629466e-05,-0.08321066200733185,-35.3632621,149.1652374,0.0,0.0,0.0,-0.01,-9.942152973962948e-05,9.444935130886734e-05,0.0,1000,1000,1000,1000,12600,0,0.0028256189543753862,0.0027292296290397644,0.002798848319798708,10,{}
attack_corridor_base_2,1,pos_spoof,15354,0.00032044018735177815,0.00010651403135852888,-0.07721276581287384,-35.3632621,149.1652374,0.0,0.0,0.0,-0.01,-9.942151518771425e-05,9.444936586078256e-05,0.0,1000,1000,1000,1000,12600,0,0.002783697796985507,0.0028518897015601397,0.0029002265073359013,10,{}
attack_corridor_base_2,1,pos_spoof,15604,0.0003307894803583622,0.00011132283543702215,-0.0738353282213211,-35.3632621,149.1652374,0.0,0.0,0.0,-0.01,-9.942150063579902e-05,9.444934403290972e-05,0.0,1000,1000,1000,1000,12600,0,0.002783697796985507,0.0028518897015601397,0.0029002265073359013,10,{}
attack_corridor_base_2,1,pos_spoof,15854,0.0003366611781530082,0.00012025694741168991,-0.07094002515077591,-35.3632621,149.1652374,0.0,0.0,0.0,0.0,-9.94214933598414e-05,9.444936586078256e-05,0.0,1000,1000,1000,1000,12600,0,0.0027072629891335964,0.002762735588476062,0.0025704740546643734,10,{}
attack_corridor_base_2,1,pos_spoof,16104,0.0003452042583376169,0.00012997495650779456,-0.06826519221067429,-35.3632621,149.1652374,0.0,0.0,0.0,0.0,-9.942147880792618e-05,9.444936586078256e-05,0.0,1000,1000,1000,1000,12600,0,0.0026779365725815296,0.002950527472421527,0.002540488727390766,10,{}
attack_corridor_base_2,1,pos_spoof,16354,0.0003532669215928763,0.00013789819786325097,-0.06596497446298599,-35.3632621,149.1652374,0.0,0.0,0.0,0.0,-9.942147880792618e-05,9.444936586078256e-05,0.0,1000,1000,1000,1000,12600,0,0.002869691699743271,0.002785970689728856,0.002647893503308296,10,{}
attack_corridor_base_2,1,pos_spoof,16604,0.00036598052247427404,0.00014508528693113476,-0.06390956789255142,-35.3632621,149.1652374,0.0,0.0,0.0,0.0,-9.942150063579902e-05,9.444938041269779e-05,0.0,1000,1000,1000,1000,12600,0,0.0031085845548659563,0.002815792104229331,0.0027286061085760593,10,{}
attack_corridor_base_2,1,pos_spoof,16854,0.00037629168946295977,0.00015352379705291241,-0.06214262917637825,-35.3632621,149.1652374,0.0,0.0,0.0,0.0,-9.942150063579902e-05,9.444938041269779e-05,0.0,1000,1000,1000,1000,12600,0,0.003117138985544443,0.0025906378868967295,0.002622335683554411,10,{}
attack_corridor_base_2,1,pos_spoof,17387,0.0003955228894483298,0.00016777533164713532,-0.05919777229428291,-35.3632621,149.1652374,0.0,0.0,0.0,0.0,-9.94214933598414e-05,9.444936586078256e-05,0.0,1000,1000,1000,1000,12600,0,0.002972843823954463,0.002656242111697793,0.0030318403150886297,10,{}
attack_corridor_base_2,1,pos_spoof,17719,0.00040479874587617815,0.00017569623014423996,-0.05798736959695816,-35.3632621,149.1652374,0.0,0.0,0.0,0.0,-9.942161705112085e-05,9.444938041269779e-05,0.0,1000,1000,1000,1000,12600,0,0.002676284871995449,0.0028294476214796305,0.002573411213234067,10,{}
attack_corridor_base_2,1,pos_spoof,18051,0.00042268013930879533,0.00019199869711883366,-0.05642704293131828,-35.3632621,149.1652374,0.0,0.0,0.0,0.0,-9.942161705112085e-05,9.444938041269779e-05,0.0,1000,1000,1000,1000,12600,0,0.003081863047555089,0.002794626634567976,0.002985062077641487,10,{}
attack_corridor_base_2,1,pos_spoof,18384,0.000433314882684499,0.00020933756604790688,-0.05548106133937836,-35.3632621,149.1652374,0.0,0.0,0.0,0.0,-9.942168253473938e-05,9.444936586078256e-05,0.0,1000,1000,1000,1000,12600,0,0.002730297390371561,0.0028875148855149746,0.0030948719941079617,10,{}
attack_corridor_base_2,1,pos_spoof,18719,0.00044753620750270784,0.00022945902310311794,-0.05451696366071701,-35.3632621,149.1652374,0.0,0.0,0.0,0.0,-9.942160249920562e-05,9.444928582524881e-05,0.0,1000,1000,1000,1000,12600,0,0.002730297390371561,0.0028875148855149746,0.0030948719941079617,10,{}
attack_corridor_base_2,1,pos_spoof,19051,0.00046962592750787735,0.00024115227279253304,-0.05393384024500847,-35.3632621,149.1652374,0.0,0.0,0.0,0.0,-9.942160249920562e-05,9.444928582524881e-05,0.0,1000,1000,1000,1000,12600,0,0.003032083623111248,0.003178509185090661,0.0027660441119223833,10,{}
attack_corridor_base_2,1,pos_spoof,19384,0.0004828686942346394,0.00025272066704928875,-0.05356341227889061,-35.3632621,149.1652374,0.0,0.0,0.0,0.0,-9.942163160303608e-05,9.444930037716404e-05,0.0,1000,1000,1000,1000,12600,0,0.0030053695663809776,0.0028564445674419403,0.0027838542591780424,10,{}
attack_corridor_base_2,1,pos_spoof,19717,0.000503192248288542,0.00027161792968399823,-0.05312401428818703,-35.3632621,149.1652374,0.0,0.0,0.0,0.0,-9.942165343090892e-05,9.444935130886734e-05,0.0,1000,1000,1000,1000,12600,0,0.0028119212947785854,0.002801302820444107,0.0025691362097859383,10,{}
attack_corridor_base_2,1,pos_spoof,20049,0.0005243223276920617,0.00028241242398507893,-0.05276406183838844,-35.3632621,149.1652374,0.008,0.0,0.0,0.0,-9.942165343090892e-05,9.444935130886734e-05,0.0,1000,1000,1000,1000,12600,0,0.0028000513557344675,0.002737683244049549,0.0028345452155917883,10,{}
attack_corridor_base_2,1,pos_spoof,20384,0.0005348987178876996,0.000303266424452886,-0.052617549896240234,-35.3632621,149.1652374,-0.007,0.0,0.0,0.0,-9.94217480183579e-05,9.444939496461302e-05,0.0,1000,1000,1000,1000,12600,0,0.0031243956182152033,0.0026443754322826862,0.002930612536147237,10,{}
attack_corridor_base_2,1,pos_spoof,20716,0.0005549211637116969,0.0003242348902858794,-0.05266126990318298,-35.3632621,149.1652374,-0.008,0.0,0.0,0.0,-9.942173346644267e-05,9.444940951652825e-05,0.0,1000,1000,1000,1000,12600,0,0.002804919146001339,0.002982266014441848,0.002943920437246561,10,{}
attack_corridor_base_2,1,pos_spoof,21049,0.0005711084231734276,0.000340418191626668,-0.052752234041690826,-35.3632621,149.1652374,-0.006,0.0,0.0,0.0,-9.942173346644267e-05,9.444940951652825e-05,0.0,1000,1000,1000,1000,12600,0,0.002775130793452263,0.002923634834587574,0.00307642319239676,10,{}
attack_corridor_base_2,1,pos_spoof,21382,0.0005880404496565461,0.0003538467863108963,-0.05292605236172676,-35.3632621,149.1652374,-0.005,0.0,0.0,0.0,-9.94217989500612e-05,9.444940951652825e-05,0.0,1000,1000,1000,1000,12600,0,0.0026866558473557234,0.0028114563319832087,0.0028960590716451406,10,{}
attack_corridor_base_2,1,pos_spoof,21714,0.0006109377136453986,0.00037575786700472236,-0.053172748535871506,-35.3632621,149.1652374,-0.003,0.0,0.0,0.0,-9.94217989500612e-05,9.444935130886734e-05,0.0,1000,1000,1000,1000,12600,0,0.0028589104767888784,0.0028425510972738266,0.0028694162610918283,10,{}
attack_corridor_base_2,1,pos_spoof,22047,0.0006315491045825183,0.00039212623960338533,-0.05342426896095276,-35.3632621,149.1652374,-0.002,0.0,0.01,0.0,-9.94217989500612e-05,9.444935130886734e-05,0.0,1000,1000,1000,1000,12600,0,0.00288830092176795,0.00295724137686193,0.0028795464895665646,10,{}
attack_corridor_base_2,1,pos_spoof,22381,0.000648553716018796,0.00040936138248071074,-0.053718529641628265,-35.3632621,149.1652374,0.0,0.0,0.01,0.0,-9.942183532984927e-05,9.444942406844348e-05,0.0,1000,1000,1000,1000,12600,0,0.002625006018206477,0.0030791331082582474,0.002642759121954441,10,{}
attack_corridor_base_2,1,pos_spoof,22714,0.0006712839240208268,0.0004378552839625627,-0.05414766073226929,-35.3632621,149.1652374,0.0,0.0,0.01,0.0,-9.942196629708633e-05,9.4449489552062e-05,0.0,1000,1000,1000,1000,12600,0,0.002705204766243696,0.00278865871950984,0.002738470444455743,10,{}
attack_corridor_base_2,1,pos_spoof,23046,0.0006911263917572796,0.00045711389975622296,-0.054514918476343155,-35.3632621,149.1652374,0.0,0.0,0.01,0.0,-9.942196629708633e-05,9.4449489552062e-05,0.0,1000,1000,1000,1000,12600,0,0.0029370333068072796,0.0026443677488714457,0.0029229565989226103,10,{}
attack_corridor_base_2,1,pos_spoof,23379,0.0007052191649563611,0.0004713748930953443,-0.05493519455194473,-35.3632621,149.1652374,0.001,-0.01,0.01,0.0,-9.94219517451711e-05,9.444946772418916e-05,0.0,1000,1000,1000,1000,12600,0,0.002863190835341811,0.0026212597731500864,0.002924612956121564,10,{}
attack_corridor_base_2,1,pos_spoof,23712,0.0007243515574373305,0.0004925218527205288,-0.05544988065958023,-35.3632621,149.1652374,0.002,-0.01,0.01,0.0,-9.942183532984927e-05,9.44494386203587e-05,0.0,1000,1000,1000,1000,12600,0,0.002803729148581624,0.0026887599378824234,0.0029131537303328514,10,{}
attack_corridor_base_2,1,pos_spoof,24047,0.0007394541753455997,0.0005126666510477662,-0.055861130356788635,-35.3632621,149.1652374,0.002,-0.01,0.01,0.0,-9.942183532984927e-05,9.44494386203587e-05,0.0,1000,1000,1000,1000,12600,0,0.002830624347552657,0.0026984778232872486,0.002860784297809005,10,{}
attack_corridor_base_2,1,pos_spoof,24379,0.0007520628278143704,0.0005263175116851926,-0.05632365494966507,-35.3632621,149.1652374,0.002,-0.01,0.01,0.0,-9.942184260580689e-05,9.444939496461302e-05,0.0,1000,1000,1000,1000,12600,0,0.002996075199916959,0.002640945604071021,0.002689381130039692,10,{}
attack_corridor_base_2,1,pos_spoof,24711,0.0007714558159932494,0.0005482063861563802,-0.05689254030585289,-35.3632621,149.1652374,0.002,-0.01,0.01,0.0,-9.94219008134678e-05,9.444946772418916e-05,0.0,1000,1000,1000,1000,12600,0,0.003177882870659232,0.0027328815776854753,0.0029539884999394417,10,{}
attack_corridor_base_2,1,pos_spoof,25044,0.0007903843652456999,0.0005626710481010377,-0.05735006555914879,-35.3632621,149.1652374,0.003,-0.01,0.01,0.0,-9.94219008134678e-05,9.444946772418916e-05,0.0,1000,1000,1000,1000,12600,0,0.002823277609422803,0.002825687639415264,0.002684473292902112,10,{}
attack_corridor_base_2,1,pos_spoof,25377,0.0007994998595677316,0.0005774542223662138,-0.05780301243066788,-35.3632621,149.1652374,0.003,-0.01,0.01,0.0,-9.942192264134064e-05,9.444953320780769e-05,0.0,1000,1000,1000,1000,12600,0,0.002731133485212922,0.002827670192345977,0.002756482223048806,10,{}
attack_corridor_base_2,1,pos_spoof,25712,0.0008204769110307097,0.0006005761097185314,-0.058272864669561386,-35.3632621,149.1652374,0.003,-0.01,0.01,0.0,-9.942190808942541e-05,9.444953320780769e-05,0.0,1000,1000,1000,1000,12600,0,0.0025710465852171183,0.002948039211332798,0.002697237301617861,10,{}
attack_corridor_base_2,1,pos_spoof,26044,0.0008347809198312461,0.0006183336372487247,-0.05875382944941521,-35.3632621,149.1652374,0.002,-0.01,0.01,0.0,-9.942190808942541e-05,9.444953320780769e-05,0.0,1000,1000,1000,1000,12600,0,0.0025953259319067,0.002758318092674017,0.002802525879815221,10,{}
attack_corridor_base_2,1,pos_spoof,26376,0.0008506494341418147,0.0006207990809343755,-0.05924934893846512,-35.3632621,149.1652374,0.002,-0.01,0.01,0.0,-9.942189353751019e-05,9.444947500014678e-05,0.0,1000,1000,1000,1000,12600,0,0.002642915351316333,0.0028700600378215313,0.0029628470074385405,10,{}
attack_corridor_base_2,1,pos_spoof,26709,0.0008648188668303192,0.000629123707767576,-0.05974072590470314,-35.3632621,149.1652374,0.002,-0.01,0.01,0.0,-9.942190808942541e-05,9.444944589631632e-05,0.0,1000,1000,1000,1000,12600,0,0.0026774241123348475,0.002855493687093258,0.0025376416742801666,10,{}
attack_corridor_base_2,1,pos_spoof,27044,0.000878944294527173,0.0006449207430705428,-0.06040719896554947,-35.3632621,149.1652374,0.002,-0.01,0.01,0.0,-9.942190808942541e-05,9.444944589631632e-05,0.0,1000,1000,1000,1000,12600,0,0.00275597395375371,0.0031024906784296036,0.0030077402479946613,10,{}
attack_corridor_base_2,1,pos_spoof,27376,0.0008907312876544893,0.0006559591274708509,-0.060901228338479996,-35.3632621,149.1652374,0.002,-0.01,0.01,0.0,-9.942198812495917e-05,9.444949682801962e-05,0.0,1000,1000,1000,1000,12600,0,0.0026484783738851547,0.0027103396132588387,0.0026969299651682377,10,{}
attack_corridor_base_2,1,pos_spoof,27709,0.0009013211820274591,0.0006634031306020916,-0.06143868714570999,-35.3632621,149.1652374,0.001,-0.01,0.01,0.0,-9.942196629708633e-05,9.444949682801962e-05,0.0,1000,1000,1000,1000,12600,0,0.0028207655996084213,0.002705866238102317,0.002408596221357584,10,{}
attack_corridor_base_2,1,pos_spoof,28042,0.0009172363206744194,0.0006773658096790314,-0.06207110360264778,-35.3632621,149.1652374,0.001,-0.01,0.01,0.0,-9.942196629708633e-05,9.444949682801962e-05,0.0,1000,1000,1000,1000,12600,0,0.0029751979745924473,0.0029924430418759584,0.0028036118019372225,10,{}
attack_corridor_base_2,1,pos_spoof,28374,0.0009275681804865599,0.0006896782433614135,-0.06259443610906601,-35.3632621,149.1652374,0.001,-0.01,0.01,0.0,-9.942203178070486e-05,9.444956958759576e-05,0.0,1000,1000,1000,1000,12600,0,0.0028962399810552597,0.002904711989685893,0.002720625139772892,10,{}
attack_corridor_base_2,1,pos_spoof,28709,0.0009401522693224251,0.0007051652064546943,-0.06306510418653488,-35.3632621,149.1652374,0.0,-0.01,0.01,0.0,-9.942211181623861e-05,9.444963507121429e-05,0.0,1000,1000,1000,1000,12600,0,0.002722532255575061,0.0026124692521989346,0.00288677797652781,10,{}
attack_corridor_base_2,1,pos_spoof,29041,0.0009513520635664463,0.0007235371158458292,-0.06371201574802399,-35.3632621,149.1652374,0.0,-0.01,0.01,0.0,-9.942211181623861e-05,9.444963507121429e-05,0.0,1000,1000,1000,1000,12600,0,0.00294087384827435,0.0026186027098447084,0.0026341434568166733,10,{}
attack_corridor_base_2,1,pos_spoof,29374,0.0009662730153650045,0.0007373321568593383,-0.06418383121490479,-35.3632621,149.1652374,0.0,-0.01,0.01,0.0,-9.942222095560282e-05,9.444968600291759e-05,0.0,1000,1000,1000,1000,12600,0,0.0027470288332551718,0.002700129058212042,0.002502560382708907,10,{}
attack_corridor_base_2,1,pos_spoof,29707,0.0009765635477378964,0.000743687676731497,-0.06465964019298553,-35.3632621,149.1652374,0.0,-0.01,0.02,0.0,-9.942229371517897e-05,9.444970783079043e-05,0.0,1000,1000,1000,1000,12600,0,0.002518154215067625,0.0030007141176611185,0.0026295490097254515,10,{}
attack_corridor_base_2,1,pos_spoof,30039,0.0009897868148982525,0.0007609309395775199,-0.06529541313648224,-35.3632621,149.1652374,0.0,-0.01,0.02,0.0,-9.942229371517897e-05,9.444970783079043e-05,0.0,1000,1000,1000,1000,12600,0,0.0031092073768377304,0.0026910160668194294,0.0029268611688166857,10,{}
attack_corridor_base_2,1,pos_spoof,30354,0.000998976523987949,0.0007765424088574946,-0.06582401692867279,-35.3632621,149.1652374,-0.001,-0.01,0.02,0.0,-9.942240285454318e-05,9.44497951422818e-05,0.0,1000,1000,1000,1000,12600,0,0.0024419331457465887,0.002924233442172408,0.0030869103502482176,10,{}
attack_corridor_base_2,1,pos_spoof,30604,0.0010026745731011033,0.0007829213282093406,-0.06621085107326508,-35.3632621,149.1652374,-0.001,-0.01,0.02,0.0,-9.942236647475511e-05,9.444978059036657e-05,0.0,1000,1000,1000,1000,12600,0,0.002867642557248473,0.0026614689268171787,0.0028687918093055487,10,{}
attack_corridor_base_2,1,pos_spoof,30854,0.001014680601656437,0.0007896236493252218,-0.06658640503883362,-35.3632621,149.1652374,-0.001,-0.01,0.02,0.0,-9.942244651028886e-05,9.444986062590033e-05,0.0,1000,1000,1000,1000,12600,0,0.002649520756676793,0.002705460647121072,0.0029449232388287783,10,{}
attack_corridor_base_2,1,pos_spoof,31384,0.0010303289163857698,0.0007989954319782555,-0.06734567135572433,-35.3632621,149.1652374,-0.002,-0.01,0.02,0.0,-9.942253382178023e-05,9.444995521334931e-05,0.0,1000,1000,1000,1000,12600,0,0.002871585311368108,0.002759430557489395,0.002892202464863658,10,{}
attack_corridor_base_2,1,pos_spoof,31717,0.0010415833676233888,0.0008086314192041755,-0.06774001568555832,-35.3632621,149.1652374,-0.002,-0.01,0.02,0.0,-9.942250471794978e-05,9.444991883356124e-05,0.0,1000,1000,1000,1000,12600,0,0.0027084099128842354,0.002891787327826023,0.0029453476890921593,10,{}
attack_corridor_base_2,1,pos_spoof,32052,0.0010427748784422874,0.0008087713504210114,-0.0681656002998352,-35.3632621,149.1652374,-0.003,-0.01,0.02,0.0,-9.942249016603455e-05,9.444988972973078e-05,0.0,1000,1000,1000,1000,12600,0,0.0026984631549566984,0.002922730753198266,0.002783539704978466,10,{}
attack_corridor_base_2,1,pos_spoof,32384,0.0010555123444646597,0.0008202999597415328,-0.06874702870845795,-35.3632621,149.1652374,-0.003,-0.01,0.02,0.0,-9.942244651028886e-05,9.444993338547647e-05,0.0,1000,1000,1000,1000,12600,0,0.0030995041597634554,0.002709648571908474,0.0028001698665320873,10,{}
attack_corridor_base_2,1,pos_spoof,32716,0.001064592506736517,0.0008316400926560163,-0.06919562071561813,-35.3632621,149.1652374,-0.003,-0.01,0.02,0.0,-9.942254837369546e-05,9.444998431717977e-05,0.0,1000,1000,1000,1000,12600,0,0.0030995041597634554,0.002709648571908474,0.0028001698665320873,10,{}
attack_corridor_base_2,1,pos_spoof,33049,0.001072032144293189,0.0008463567937724292,-0.06962127238512039,-35.3632621,149.1652374,-0.004,-0.01,0.02,0.0,-9.942254837369546e-05,9.444994066143408e-05,0.0,1000,1000,1000,1000,12600,0,0.002601685468107462,0.002557605504989624,0.0027939456049352884,10,{}
attack_corridor_base_2,1,pos_spoof,33384,0.001090747769922018,0.0008603647002018988,-0.07018965482711792,-35.3632621,149.1652374,-0.004,-0.01,0.02,0.0,-9.942253382178023e-05,9.444992610951886e-05,0.0,1000,1000,1000,1000,12600,0,0.0027952753007411957,0.002782547613605857,0.00261896220035851,10,{}
attack_corridor_base_2,1,pos_spoof,33717,0.0011037343647331,0.000870907970238477,-0.0706140473484993,-35.3632621,149.1652374,-0.004,-0.01,0.02,0.0,-9.942254837369546e-05,9.444996976526454e-05,0.0,1000,1000,1000,1000,12600,0,0.002885394496843219,0.0030180811882019043,0.0027861848939210176,10,{}
attack_corridor_base_2,1,pos_spoof,34049,0.0011142035946249962,0.0008784372475929558,-0.07104752957820892,-35.3632621,149.1652374,-0.005,-0.02,0.02,0.0,-9.942254837369546e-05,9.444996976526454e-05,0.0,1000,1000,1000,1000,12600,0,0.002626139670610428,0.00288600567728281,0.0030460734851658344,10,{}
attack_corridor_base_2,1,pos_spoof,34382,0.0011210087686777115,0.0008908002637326717,-0.07159047573804855,-35.3632621,149.1652374,-0.005,-0.02,0.02,0.0,-9.9422519269865e-05,9.444998431717977e-05,0.0,1000,1000,1000,1000,12600,0,0.0028529935516417027,0.0025216746143996716,0.002833310514688492,10,{}
attack_corridor_base_2,1,pos_spoof,34714,0.0011348009575158358,0.0009021848090924323,-0.07199174910783768,-35.3632621,149.1652374,-0.005,-0.02,0.02,0.0,-9.942242468241602e-05,9.444995521334931e-05,0.0,1000,1000,1000,1000,12600,0,0.0028388011269271374,0.002764760283753276,0.002888450399041176,10,{}
attack_corridor_base_2,1,pos_spoof,35049,0.0011487406445667148,0.0009157430613413453,-0.07238501310348511,-35.3632621,149.1652374,-0.005,-0.02,0.02,0.0,-9.942242468241602e-05,9.444995521334931e-05,0.0,1000,1000,1000,1000,12600,0,0.0028117885813117027,0.0029506299179047346,0.002789451740682125,10,{}
attack_corridor_base_2,1,pos_spoof,35381,0.001153987948782742,0.0009297168580815196,-0.07291068881750107,-35.3632621,149.1652374,-0.005,-0.02,0.02,0.0,-9.942233009496704e-05,9.444992610951886e-05,0.0,1000,1000,1000,1000,12600,0,0.0026661627925932407,0.0029318765737116337,0.0024332792963832617,10,{}
attack_corridor_base_2,1,pos_spoof,35714,0.0011616329429671168,0.0009355111396871507,-0.0732971802353859,-35.3632621,149.1652374,-0.005,-0.02,0.02,0.0,-9.942236647475511e-05,9.44499479373917e-05,0.0,1000,1000,1000,1000,12600,0,0.0027546288911253214,0.0029398936312645674,0.002726079896092415,10,{}
attack_corridor_base_2,1,pos_spoof,36047,0.001166041474789381,0.0009359744726680219,-0.07365813106298447,-35.3632621,149.1652374,-0.005,-0.02,0.02,0.0,-9.942236647475511e-05,9.44499479373917e-05,0.0,1000,1000,1000,1000,12600,0,0.0027607595548033714,0.0028103666845709085,0.0025976132601499557,10,{}
attack_corridor_base_2,1,pos_spoof,36379,0.0011776038445532322,0.0009513185359537601,-0.07412674278020859,-35.3632621,149.1652374,-0.005,-0.02,0.02,0.0,-9.942230099113658e-05,9.444994066143408e-05,0.0,1000,1000,1000,1000,12600,0,0.003037579357624054,0.0026987201999872923,0.002805289113894105,10,{}
attack_corridor_base_2,1,pos_spoof,36714,0.0011846267152577639,0.0009679542854428291,-0.07451097667217255,-35.3632621,149.1652374,-0.005,-0.02,0.02,0.0,-9.942231554305181e-05,9.444990428164601e-05,0.0,1000,1000,1000,1000,12600,0,0.0027870554476976395,0.002553508384153247,0.002816585125401616,10,{}
attack_corridor_base_2,1,pos_spoof,37046,0.0011935310903936625,0.0009835218079388142,-0.07486537843942642,-35.3632621,149.1652374,-0.005,-0.02,0.02,0.0,-9.942231554305181e-05,9.444990428164601e-05,0.0,1000,1000,1000,1000,12600,0,0.002614970551803708,0.0027715605683624744,0.0028483429923653603,10,{}
attack_corridor_base_2,1,pos_spoof,37379,0.0012073649559170008,0.0009985192446038127,-0.07535405457019806,-35.3632621,149.1652374,-0.005,-0.02,0.02,0.0,-9.942235192283988e-05,9.444990428164601e-05,0.0,1000,1000,1000,1000,12600,0,0.002926346380263567,0.0029987781308591366,0.002698692725971341,10,{}
attack_corridor_base_2,1,pos_spoof,37711,0.0012120067840442061,0.0010088210692629218,-0.07571130990982056,-35.3632621,149.1652374,-0.005,-0.02,0.02,0.0,-9.94223591987975e-05,9.444991155760363e-05,0.0,1000,1000,1000,1000,12600,0,0.002833285368978977,0.0029500629752874374,0.0025179488584399223,10,{}
attack_corridor_base_2,1,pos_spoof,38044,0.0012130854884162545,0.0010252614738419652,-0.0760732963681221,-35.3632621,149.1652374,-0.006,-0.02,0.02,0.0,-9.94223591987975e-05,9.444991155760363e-05,0.0,1000,1000,1000,1000,12600,0,0.0029848525300621986,0.002703068545088172,0.002515202620998025,10,{}
attack_corridor_base_2,1,pos_spoof,38377,0.0012305686250329018,0.0010378103470429778,-0.07654498517513275,-35.3632621,149.1652374,-0.006,-0.02,0.02,0.0,-9.942234464688227e-05,9.444986062590033e-05,0.0,1000,1000,1000,1000,12600,0,0.002688511274755001,0.0028179169166833162,0.0027593912091106176,10,{}
attack_corridor_base_2,1,pos_spoof,38712,0.001241089659743011,0.0010443844366818666,-0.07688916474580765,-35.3632621,149.1652374,-0.006,-0.02,0.02,0.0,-9.942231554305181e-05,9.444986062590033e-05,0.0,1000,1000,1000,1000,12600,0,0.0028153532184660435,0.002959383185952902,0.0028710030019283295,10,{}
attack_corridor_base_2,1,pos_spoof,39044,0.001248486340045929,0.0010588434524834156,-0.07723935693502426,-35.3632621,149.1652374,-0.006,-0.02,0.02,0.0,-9.942231554305181e-05,9.444986062590033e-05,0.0,1000,1000,1000,1000,12600,0,0.002971532754600048,0.0030966002959758043,0.0028386253397911787,10,{}
attack_corridor_base_2,1,pos_spoof,39376,0.001250174012966454,0.0010677402606233954,-0.07769225537776947,-35.3632621,149.1652374,-0.006,-0.02,0.02,0.0,-9.94222573353909e-05,9.444986062590033e-05,0.0,1000,1000,1000,1000,12600,0,0.002829446690157056,0.0026379807386547327,0.002738418523222208,10,{}
attack_corridor_base_2,1,pos_spoof,39709,0.001253285096026957,0.0010738094570115209,-0.07802190631628036,-35.3632621,149.1652374,-0.006,-0.02,0.02,0.0,-9.942228643922135e-05,9.444991155760363e-05,0.0,1000,1000,1000,1000,12600,0,0.002780360635370016,0.0028561020735651255,0.0027890524361282587,10,{}
attack_corridor_base_2,1,pos_spoof,40042,0.001262118574231863,0.0010779559379443526,-0.07834989577531815,-35.3632621,149.1652374,-0.006,-0.02,0.02,0.0,-9.942228643922135e-05,9.444991155760363e-05,0.0,1000,1000,1000,1000,12600,0,0.0026911620516330004,0.0032765560317784548,0.002636444056406617,10,{}
attack_corridor_base_2,1,pos_spoof,40377,0.0012726286659017205,0.0010910596465691924,-0.07877297699451447,-35.3632621,149.1652374,-0.006,-0.02,0.02,0.0,-9.942224278347567e-05,9.444991155760363e-05,0.0,1000,1000,1000,1000,12600,0,0.0025597834028303623,0.0030039134435355663,0.00299771293066442,10,{}
attack_corridor_base_2,1,pos_spoof,40709,0.0012792616616934538,0.0010946933180093765,-0.07907841354608536,-35.3632621,149.1652374,-0.006,-0.02,0.02,0.0,-9.942225005943328e-05,9.444992610951886e-05,0.0,1000,1000,1000,1000,12600,0,0.0025396246928721666,0.0029097236692905426,0.0028115080203861,10,{}
attack_corridor_base_2,1,pos_spoof,41041,0.0012850251514464617,0.0010998760117217898,-0.07935480028390884,-35.3632621,149.1652374,-0.006,-0.02,0.02,0.0,-9.942225005943328e-05,9.444992610951886e-05,0.0,1000,1000,1000,1000,12600,0,0.002708432963117957,0.002945216605439782,0.0027148155495524406,10,{}
attack_corridor_base_2,1,pos_spoof,41374,0.0012951928656548262,0.00111322570592165,-0.07975711673498154,-35.3632621,149.1652374,-0.006,-0.02,0.02,0.0,-9.942227188730612e-05,9.444994066143408e-05,0.0,1000,1000,1000,1000,12600,0,0.0027308508288115263,0.0030521471053361893,0.0027145857457071543,10,{}
attack_corridor_base_2,1,pos_spoof,41709,0.0013042313512414694,0.0011262389598414302,-0.08006016910076141,-35.3632621,149.1652374,-0.006,0.0,0.0,0.0,-9.942230099113658e-05,9.44498970056884e-05,0.0,1000,1000,1000,1000,12600,0,0.0029554020147770643,0.0027994357515126467,0.0028546652756631374,10,{}
attack_corridor_base_2,1,pos_spoof,42042,0.0013631022302433848,0.001185471541248262,-0.08036277443170547,-35.3632621,149.1652374,-0.006,0.0,0.0,0.0,-9.942230099113658e-05,9.44498970056884e-05,0.0,1000,1000,1000,1000,12600,0,0.002955060452222824,0.0027093312237411737,0.0027405119035393,10,{}
attack_corridor_base_2,1,pos_spoof,42374,0.0014636131236329675,0.0012837566900998354,-0.0807730108499527,-35.3632621,149.1652374,-0.006,0.0,0.0,0.0,-9.942230099113658e-05,9.444991155760363e-05,0.0,1000,1000,1000,1000,12600,0,0.0029649760108441114,0.003103678347542882,0.002785996999591589,10,{}
attack_corridor_base_2,1,pos_spoof,42707,0.0015222002984955907,0.0013482209760695696,-0.0810735747218132,-35.3632621,149.1652374,-0.006,0.0,0.0,0.0,-9.942229371517897e-05,9.444992610951886e-05,0.0,1000,1000,1000,1000,12600,0,0.002973748603835702,0.002621719613671303,0.00252446997910738,10,{}
attack_corridor_base_2,1,pos_spoof,43039,0.0015852052019909024,0.0014041645918041468,-0.0813761055469513,-35.3632621,149.1652374,-0.006,-0.01,0.01,0.0,-9.942229371517897e-05,9.444992610951886e-05,0.0,1000,1000,1000,1000,12600,0,0.002661167411133647,0.002919082762673497,0.0028525921516120434,10,{}
attack_corridor_base_2,1,pos_spoof,43374,0.0016400805907323956,0.0014539649710059166,-0.08179084956645966,-35.3632621,149.1652374,-0.006,-0.01,0.01,0.0,-9.942232281900942e-05,9.444992610951886e-05,0.0,1000,1000,1000,1000,12600,0,0.0027017833199352026,0.0029781432822346687,0.0028619354125112295,10,{}
attack_corridor_base_2,1,pos_spoof,43706,0.0016588927246630192,0.0014731812989339232,-0.08209643512964249,-35.3632621,149.1652374,-0.006,-0.01,0.01,0.0,-9.942233737092465e-05,9.444986062590033e-05,0.0,1000,1000,1000,1000,12600,0,0.002604570472612977,0.0028796952683478594,0.00270189275033772,10,{}
attack_corridor_base_2,1,pos_spoof,44039,0.0016585513949394226,0.001475271419622004,-0.08239871263504028,-35.3632621,149.1652374,-0.006,-0.01,0.01,0.0,-9.942233737092465e-05,9.444986062590033e-05,0.0,1000,1000,1000,1000,12600,0,0.002942207269370556,0.003180847270414233,0.0025743446312844753,10,{}
attack_corridor_base_2,1,pos_spoof,44372,0.0016335733234882355,0.0014493694761767983,-0.08279862999916077,-35.3632621,149.1652375,-0.006,-0.01,0.01,0.0,-9.942238830262795e-05,9.444988972973078e-05,0.0,1000,1000,1000,1000,12600,0,0.0027889821212738752,0.0029445195104926825,0.002877216087654233,10,{}
attack_corridor_base_2,1,pos_spoof,44704,0.0016009764513000846,0.0014092772034928203,-0.08308061212301254,-35.3632621,149.1652375,-0.006,-0.01,0.02,0.0,-9.942238102667034e-05,9.444988972973078e-05,0.0,1000,1000,1000,1000,12600,0,0.002700984012335539,0.0027138409204781055,0.0027623025234788656,10,{}
attack_corridor_base_2,1,pos_spoof,45039,0.001550491200760007,0.0013671108754351735,-0.08336050808429718,-35.3632621,149.1652375,-0.006,-0.01,0.02,0.0,-9.942238102667034e-05,9.444988972973078e-05,0.0,1000,1000,1000,1000,12600,0,0.002860861364752054,0.0028247537557035685,0.002948793349787593,10,{}
attack_corridor_base_2,1,pos_spoof,45354,0.0014804797247052193,0.0012993920827284455,-0.08371040970087051,-35.3632621,149.1652375,-0.006,-0.01,0.02,0.0,-9.94223591987975e-05,9.444990428164601e-05,0.0,1000,1000,1000,1000,12600,0,0.0025891836266964674,0.0026989043690264225,0.0026564758736640215,10,{}
attack_corridor_base_2,1,pos_spoof,45604,0.0014411400770768523,0.0012627006508409977,-0.0839231014251709,-35.3632622,149.1652375,-0.006,-0.01,0.02,0.0,-9.942233737092465e-05,9.444988972973078e-05,0.0,1000,1000,1000,1000,12600,0,0.0025891836266964674,0.0026989043690264225,0.0026564758736640215,10,{}
attack_corridor_base_2,1,pos_spoof,45854,0.0013846403453499079,0.0012035705149173737,-0.08412586897611618,-35.3632622,149.1652375,-0.006,-0.01,0.02,0.0,-9.942232281900942e-05,9.444987517781556e-05,0.0,1000,1000,1000,1000,12600,0,0.0030863878782838583,0.0027566668577492237,0.002908692229539156,10,{}
attack_corridor_base_2,1,pos_spoof,46104,0.0013428085949271917,0.001158235245384276,-0.08433030545711517,-35.3632622,149.1652375,-0.006,-0.01,0.01,0.0,-9.942230099113658e-05,9.444988245377317e-05,0.0,1000,1000,1000,1000,12600,0,0.002984887221828103,0.0028086963575333357,0.0028126961551606655,10,{}
attack_corridor_base_2,1,pos_spoof,46354,0.0013024138752371073,0.0011126159224659204,-0.08450206369161606,-35.3632622,149.1652375,-0.006,-0.01,0.01,0.0,-9.942228643922135e-05,9.444988245377317e-05,0.0,1000,1000,1000,1000,12600,0,0.00257099443115294,0.002707461826503277,0.0028636532370001078,10,{}
attack_corridor_base_2,1,pos_spoof,46604,0.0012766898144036531,0.0010916851460933685,-0.08466178178787231,-35.3632622,149.1652375,-0.006,-0.01,0.01,0.0,-9.942231554305181e-05,9.444991883356124e-05,0.0,1000,1000,1000,1000,12600,0,0.002620919141918421,0.002777625108137727,0.002617625752463937,10,{}
attack_corridor_base_2,1,pos_spoof,46854,0.001230591326020658,0.001052033738233149,-0.08486263453960419,-35.3632622,149.1652375,-0.006,-0.01,0.01,0.0,-9.942226461134851e-05,9.444991155760363e-05,0.0,1000,1000,1000,1000,12600,0,0.002952817128971219,0.0026925774291157722,0.0024197085294872522,10,{}
attack_corridor_base_2,1,pos_spoof,47104,0.0011975904926657677,0.001022713491693139,-0.08504047244787216,-35.3632621,149.1652375,-0.006,-0.01,0.01,0.0,-9.942224278347567e-05,9.444992610951886e-05,0.0,1000,1000,1000,1000,12600,0,0.0028693967033177614,0.0027131151873618364,0.002412908710539341,10,{}
attack_corridor_base_2,1,pos_spoof,47354,0.0011719116009771824,0.001000384334474802,-0.08522963523864746,-35.3632621,149.1652375,-0.006,-0.01,0.01,0.0,-9.942221367964521e-05,9.44498970056884e-05,0.0,1000,1000,1000,1000,12600,0,0.00298507884144783,0.0028518245089799166,0.0027925963513553143,10,{}
attack_corridor_base_2,1,pos_spoof,47604,0.0011588070774450898,0.000987262581475079,-0.08539555966854095,-35.3632621,149.1652375,-0.006,-0.01,0.01,0.0,-9.942217729985714e-05,9.444986062590033e-05,0.0,1000,1000,1000,1000,12600,0,0.0027651889249682426,0.00278066867031157,0.002833001781255007,10,{}
attack_corridor_base_2,1,pos_spoof,47854,0.001132429693825543,0.0009647379629313946,-0.08558318018913269,-35.3632621,149.1652375,-0.006,-0.01,0.01,0.0,-9.942214819602668e-05,9.444982424611226e-05,0.0,1000,1000,1000,1000,12600,0,0.0028726437594741583,0.002711338922381401,0.0027382494881749153,10,{}
attack_corridor_base_2,1,pos_spoof,48104,0.0011169440113008022,0.0009482037858106196,-0.08573798090219498,-35.3632621,149.1652375,-0.006,-0.01,0.01,0.0,-9.942211909219623e-05,9.444982424611226e-05,0.0,1000,1000,1000,1000,12600,0,0.0030948978383094072,0.0027696487959474325,0.002795629668980837,10,{}
attack_corridor_base_2,1,pos_spoof,48354,0.0011058682575821877,0.0009368909522891045,-0.08592379093170166,-35.3632621,149.1652375,-0.006,-0.01,0.01,0.0,-9.9422104540281e-05,9.444980969419703e-05,0.0,1000,1000,1000,1000,12600,0,0.0026993537321686745,0.0029867307748645544,0.002863135654479265,10,{}
attack_corridor_base_2,1,pos_spoof,48604,0.0010995513293892145,0.0009312676847912371,-0.08608142286539078,-35.3632621,149.1652375,-0.006,-0.01,0.01,0.0,-9.942207543645054e-05,9.444980969419703e-05,0.0,1000,1000,1000,1000,12600,0,0.002893059281632304,0.0027123545296490192,0.0029777023009955883,10,{}
attack_corridor_base_2,1,pos_spoof,48854,0.0010902679059654474,0.0009226369438692927,-0.086240254342556,-35.3632621,149.1652375,-0.006,-0.01,0.01,0.0,-9.942206816049293e-05,9.444978786632419e-05,0.0,1000,1000,1000,1000,12600,0,0.0028329838532954454,0.0030252898577600718,0.0027380716055631638,10,{}
attack_corridor_base_2,1,pos_spoof,49104,0.0010844389908015728,0.0009157435270026326,-0.08641047775745392,-35.3632621,149.1652375,-0.006,-0.01,0.01,0.0,-9.942201722878963e-05,9.444976603845134e-05,0.0,1000,1000,1000,1000,12600,0,0.0029291175305843353,0.003083036979660392,0.0026995802763849497,10,{}
attack_corridor_base_2,1,pos_spoof,49354,0.0010827458463609219,0.0009113935520872474,-0.08656544238328934,-35.3632621,149.1652375,-0.006,-0.01,0.01,0.0,-9.942198812495917e-05,9.444975876249373e-05,0.0,1000,1000,1000,1000,12600,0,0.002702003810554743,0.002649150090292096,0.0028011698741465807,10,{}
attack_corridor_base_2,1,pos_spoof,49604,0.001083318260498345,0.0009119200403802097,-0.08671832084655762,-35.3632621,149.1652375,-0.006,-0.01,0.01,0.0,-9.942197357304394e-05,9.444972238270566e-05,0.0,1000,1000,1000,1000,12600,0,0.002705017104744911,0.0028584597166627645,0.002694720169529319,10,{}
attack_corridor_base_2,1,pos_spoof,49854,0.0010778730502352118,0.0009135783184319735,-0.08688031882047653,-35.3632621,149.1652375,-0.006,-0.01,0.01,0.0,-9.942198812495917e-05,9.444972238270566e-05,0.0,1000,1000,1000,1000,12600,0,0.0026668154168874025,0.002837886568158865,0.002634619129821658,10,{}
attack_corridor_base_2,1,pos_spoof,50104,0.001077523222193122,0.0009146906668320298,-0.08703603595495224,-35.3632621,149.1652375,-0.006,-0.01,0.01,0.0,-9.942198812495917e-05,9.444970055483282e-05,0.0,1000,1000,1000,1000,12600,0,0.0028905768413096666,0.0027850077021867037,0.0027597155421972275,10,{}
attack_corridor_base_2,1,pos_spoof,50354,0.001080995425581932,0.0009159547043964267,-0.08718706667423248,-35.3632621,149.1652375,-0.006,-0.01,0.01,0.0,-9.94219517451711e-05,9.444964962312952e-05,0.0,1000,1000,1000,1000,12600,0,0.0024053682573139668,0.002637889701873064,0.002970012603327632,10,{}
attack_corridor_base_2,1,pos_spoof,50604,0.0010840295581147075,0.0009139911853708327,-0.08734746277332306,-35.3632621,149.1652375,-0.006,-0.01,0.01,0.0,-9.942197357304394e-05,9.444961324334145e-05,0.0,1000,1000,1000,1000,12600,0,0.0028041983023285866,0.002979018958285451,0.0027300340589135885,10,{}
attack_corridor_base_2,1,pos_spoof,50854,0.0010853197891265154,0.0009125409997068346,-0.08749181777238846,-35.3632621,149.1652375,-0.006,-0.01,0.01,0.0,-9.94219517451711e-05,9.444958413951099e-05,0.0,1000,1000,1000,1000,12600,0,0.0027916368562728167,0.0030360035598278046,0.0029243880417197943,10,{}
attack_corridor_base_2,1,pos_spoof,51104,0.001085422933101654,0.0009122409392148256,-0.08764086663722992,-35.3632621,149.1652375,-0.006,-0.01,0.01,0.0,-9.942192264134064e-05,9.444954775972292e-05,0.0,1000,1000,1000,1000,12600,0,0.0027790528256446123,0.002731712069362402,0.00267804809845984,10,{}
attack_corridor_base_2,1,pos_spoof,51354,0.0010858133900910616,0.0009175768354907632,-0.08778438717126846,-35.3632621,149.1652375,-0.006,-0.01,0.01,0.0,-9.942189353751019e-05,9.444952593185008e-05,0.0,1000,1000,1000,1000,12600,0,0.0028894292190670967,0.002777308924123645,0.002556513762101531,10,{}
attack_corridor_base_2,1,pos_spoof,51604,0.0010916340397670865,0.0009184255613945425,-0.08792717009782791,-35.3632621,149.1652375,-0.006,-0.01,0.01,0.0,-9.942188626155257e-05,9.444950410397723e-05,0.0,1000,1000,1000,1000,12600,0,0.002893341239541769,0.0029222385492175817,0.0029246697667986155,10,{}
attack_corridor_base_2,1,pos_spoof,51854,0.0010946730617433786,0.0009140240726992488,-0.08806680142879486,-35.3632621,149.1652375,-0.006,-0.01,0.01,0.0,-9.942190808942541e-05,9.444951865589246e-05,0.0,1000,1000,1000,1000,12600,0,0.002978250617161393,0.002636110410094261,0.0029025685507804155,10,{}
attack_corridor_base_2,1,pos_spoof,52104,0.001099464832805097,0.0009063141187652946,-0.08821365237236023,-35.3632621,149.1652375,-0.006,-0.01,0.01,0.0,-9.94219008134678e-05,9.4449489552062e-05,0.0,1000,1000,1000,1000,12600,0,0.002980356104671955,0.0025234532076865435,0.0028609002474695444,10,{}
attack_corridor_base_2,1,pos_spoof,52354,0.0011040210956707597,0.0009052871610037982,-0.08834532648324966,-35.3632621,149.1652375,-0.006,-0.01,0.01,0.0,-9.942187898559496e-05,9.4449489552062e-05,0.0,1000,1000,1000,1000,12600,0,0.0027319409418851137,0.002879194915294647,0.0028401061426848173,10,{}
attack_corridor_base_2,1,pos_spoof,52604,0.0011083127465099096,0.0009164477814920247,-0.08845674991607666,-35.3632621,149.1652375,-0.006,-0.01,0.01,0.0,-9.942186443367973e-05,9.444945317227393e-05,0.0,1000,1000,1000,1000,12600,0,0.003151178127154708,0.0027405773289501667,0.002797189634293318,10,{}
attack_corridor_base_2,1,pos_spoof,52854,0.001110413228161633,0.0009184700320474803,-0.08859589695930481,-35.3632621,149.1652375,-0.006,-0.01,0.01,0.0,-9.942185715772212e-05,9.44494386203587e-05,0.0,1000,1000,1000,1000,12600,0,0.002894546603783965,0.003078615292906761,0.002956736832857132,10,{}
attack_corridor_base_2,1,pos_spoof,53104,0.0011105206795036793,0.0009143298375420272,-0.08872396498918533,-35.3632621,149.1652375,-0.006,-0.01,0.01,0.0,-9.942186443367973e-05,9.44494386203587e-05,0.0,1000,1000,1000,1000,12600,0,0.00268617644906044,0.0027981665916740894,0.002734322566539049,10,{}
attack_corridor_base_2,1,pos_spoof,53354,0.0011169607751071453,0.0009218837949447334,-0.08887330442667007,-35.3632621,149.1652375,-0.006,-0.01,0.01,0.0,-9.942185715772212e-05,9.444944589631632e-05,0.0,1000,1000,1000,1000,12600,0,0.0027527203783392906,0.002606996800750494,0.002653568284586072,10,{}
attack_corridor_base_2,1,pos_spoof,53604,0.0011289530666545033,0.0009298947406932712,-0.08899985998868942,-35.3632621,149.1652375,-0.006,-0.01,0.01,0.0,-9.942184260580689e-05,9.444943134440109e-05,0.0,1000,1000,1000,1000,12600,0,0.0027636028826236725,0.003063402371481061,0.0027509357314556837,10,{}
attack_corridor_base_2,1,pos_spoof,53854,0.0011316254967823625,0.0009272624738514423,-0.08913362771272659,-35.3632621,149.1652375,-0.006,-0.01,0.01,0.0,-9.942180622601882e-05,9.444941679248586e-05,0.0,1000,1000,1000,1000,12600,0,0.002527629490941763,0.002687640953809023,0.002939477562904358,10,{}
attack_corridor_base_2,1,pos_spoof,54104,0.0011331761488690972,0.000935543270315975,-0.08926473557949066,-35.3632621,149.1652375,-0.006,-0.01,0.01,0.0,-9.942177712218836e-05,9.444940951652825e-05,0.0,1000,1000,1000,1000,12600,0,0.003024512203410268,0.0028088903054594994,0.00287444656714797,10,{}
attack_corridor_base_2,1,pos_spoof,54354,0.0011349148117005825,0.000939006800763309,-0.08939656615257263,-35.3632621,149.1652375,-0.006,-0.01,0.01,0.0,-9.94217480183579e-05,9.444936586078256e-05,0.0,1000,1000,1000,1000,12600,0,0.0028915447182953358,0.00294332392513752,0.0030009583570063114,10,{}
attack_corridor_base_2,1,pos_spoof,54604,0.0011451811296865344,0.0009487511706538498,-0.08951857686042786,-35.3632621,149.1652375,-0.006,-0.01,0.01,0.0,-9.942172619048506e-05,9.444937313674018e-05,0.0,1000,1000,1000,1000,12600,0,0.00264536845497787,0.0027557071298360825,0.002671495545655489,10,{}
attack_corridor_base_2,1,pos_spoof,54854,0.0011447860160842538,0.0009474707767367363,-0.08964414894580841,-35.3632621,149.1652375,-0.006,-0.01,0.01,0.0,-9.942174074240029e-05,9.444933675695211e-05,0.0,1000,1000,1000,1000,12600,0,0.0031946594826877117,0.002871209755539894,0.002958940574899316,10,{}
attack_corridor_base_2,1,pos_spoof,55104,0.0011465268908068538,0.0009494362166151404,-0.08976765722036362,-35.3632621,149.1652375,-0.006,-0.01,0.01,0.0,-9.942172619048506e-05,9.444929310120642e-05,0.0,1000,1000,1000,1000,12600,0,0.0027622513007372618,0.002842006739228964,0.0025625121779739857,10,{}
attack_corridor_base_2,1,pos_spoof,55354,0.001145709422416985,0.0009513864060863853,-0.08989137411117554,-35.3632621,149.1652375,-0.006,-0.01,0.01,0.0,-9.942171891452745e-05,9.44492785492912e-05,0.0,1000,1000,1000,1000,12600,0,0.0025743211153894663,0.002526539610698819,0.002598595805466175,10,{}
attack_corridor_base_2,1,pos_spoof,55604,0.0011502888519316912,0.000956373056396842,-0.09001854807138443,-35.3632621,149.1652375,-0.006,-0.01,0.01,0.0,-9.942168981069699e-05,9.444925672141835e-05,0.0,1000,1000,1000,1000,12600,0,0.0027310329023748636,0.0030370140448212624,0.002656299155205488,10,{}
attack_corridor_base_2,1,pos_spoof,55854,0.0011466194409877062,0.0009505181224085391,-0.09014086425304413,-35.3632621,149.1652375,-0.006,-0.01,0.01,0.0,-9.942168253473938e-05,9.444926399737597e-05,0.0,1000,1000,1000,1000,12600,0,0.0026970626786351204,0.002862347289919853,0.0025826371274888515,10,{}
attack_corridor_base_2,1,pos_spoof,56104,0.0011461584363132715,0.0009513688273727894,-0.0902649387717247,-35.3632621,149.1652375,-0.006,-0.01,0.01,0.0,-9.942168253473938e-05,9.444926399737597e-05,0.0,1000,1000,1000,1000,12600,0,0.002768162405118346,0.0028675596695393324,0.0030393858905881643,10,{}
attack_corridor_base_2,1,pos_spoof,56354,0.0011502844281494617,0.0009554664720781147,-0.09038625657558441,-35.3632621,149.1652375,-0.006,-0.01,0.01,0.0,-9.942167525878176e-05,9.444924216950312e-05,0.0,1000,1000,1000,1000,12600,0,0.0027056431863456964,0.0029029136057943106,0.0030944880563765764,10,{}
attack_corridor_base_2,1,pos_spoof,56604,0.0011520669795572758,0.0009616498136892915,-0.09050621092319489,-35.3632621,149.1652375,-0.006,-0.01,0.01,0.0,-9.94216970866546e-05,9.44492785492912e-05,0.0,1000,1000,1000,1000,12600,0,0.002758015412837267,0.002629471942782402,0.0027786518912762403,10,{}
attack_corridor_base_2,1,pos_spoof,56854,0.0011378041235730052,0.0009589302353560925,-0.09059517085552216,-35.3632621,149.1652375,-0.006,-0.01,0.01,0.0,-9.94217480183579e-05,9.444930037716404e-05,0.0,1000,1000,1000,1000,12600,0,0.0028746500611305237,0.0027444204315543175,0.0027303637471050024,10,{}
attack_corridor_base_2,1,pos_spoof,57104,0.0011330507695674896,0.0009548586676828563,-0.09070738404989243,-35.3632621,149.1652375,-0.006,-0.01,0.01,0.0,-9.942180622601882e-05,9.444932220503688e-05,0.0,1000,1000,1000,1000,12600,0,0.0027636894956231117,0.0029823353979736567,0.002821451285853982,10,{}
attack_corridor_base_2,1,pos_spoof,57354,0.0011411132290959358,0.0009567404049448669,-0.09082932025194168,-35.3632621,149.1652375,-0.006,-0.01,0.01,0.0,-9.942182805389166e-05,9.444934403290972e-05,0.0,1000,1000,1000,1000,12600,0,0.0028101527132093906,0.00288074160926044,0.0027481201104819775,10,{}
attack_corridor_base_2,1,pos_spoof,57604,0.0011460911482572556,0.0009644821984693408,-0.09094139188528061,-35.3632622,149.1652375,-0.006,-0.01,0.01,0.0,-9.942180622601882e-05,9.444935130886734e-05,0.0,1000,1000,1000,1000,12600,0,0.0026839966885745525,0.002638594014570117,0.0024834731593728065,10,{}
attack_corridor_base_2,1,pos_spoof,57854,0.0011466119904071093,0.000962508434895426,-0.0910528376698494,-35.3632621,149.1652375,-0.006,-0.01,0.01,0.0,-9.942181350197643e-05,9.444936586078256e-05,0.0,1000,1000,1000,1000,12600,0,0.0026802695356309414,0.0025301838759332895,0.0026132501661777496,10,{}
attack_corridor_base_2,1,pos_spoof,58104,0.0011502383276820183,0.0009602914215065539,-0.09115958958864212,-35.3632621,149.1652375,-0.006,-0.01,0.01,0.0,-9.942185715772212e-05,9.444939496461302e-05,0.0,1000,1000,1000,1000,12600,0,0.0026224867906421423,0.002778815571218729,0.002571041928604245,10,{}
attack_corridor_base_2,1,pos_spoof,58354,0.0011542538413777947,0.0009660207433626056,-0.09127738326787949,-35.3632621,149.1652375,-0.006,-0.01,0.01,0.0,-9.942185715772212e-05,9.444938041269779e-05,0.0,1000,1000,1000,1000,12600,0,0.0030612251721322536,0.0027113177347928286,0.002757216105237603,10,{}
attack_corridor_base_2,1,pos_spoof,58604,0.0011546610621735454,0.0009717983193695545,-0.09138084948062897,-35.3632622,149.1652375,-0.006,-0.01,0.01,0.0,-9.942191536538303e-05,9.444943134440109e-05,0.0,1000,1000,1000,1000,12600,0,0.003133420366793871,0.003081529401242733,0.0028623209800571203,10,{}
attack_corridor_base_2,1,pos_spoof,58854,0.0011546151945367455,0.0009683403768576682,-0.09149707108736038,-35.3632621,149.1652375,-0.006,-0.01,0.01,0.0,-9.942192991729826e-05,9.44494386203587e-05,0.0,1000,1000,1000,1000,12600,0,0.0029170187190175056,0.0027995863929390907,0.002555648796260357,10,{}
attack_corridor_base_2,1,pos_spoof,59104,0.0011554536176845431,0.0009693910251371562,-0.09160121530294418,-35.3632621,149.1652375,-0.006,-0.01,0.01,0.0,-9.942192264134064e-05,9.444939496461302e-05,0.0,1000,1000,1000,1000,12600,0,0.002669022884219885,0.0027965314220637083,0.00266708480194211,10,{}
attack_corridor_base_2,1,pos_spoof,59354,0.0011581500293686986,0.0009752632468007505,-0.09170494228601456,-35.3632621,149.1652375,-0.006,-0.01,0.01,0.0,-9.942192991729826e-05,9.444938041269779e-05,0.0,1000,1000,1000,1000,12600,0,0.0029818303883075714,0.0025442561600357294,0.0026877284981310368,10,{}
attack_corridor_base_2,1,pos_spoof,59604,0.0011625707847997546,0.000980509095825255,-0.09181113541126251,-35.3632622,149.1652375,-0.006,-0.01,0.01,0.0,-9.942192264134064e-05,9.444933675695211e-05,0.0,1000,1000,1000,1000,12600,0,0.0030010531190782785,0.002750415587797761,0.002713508438318968,10,{}
attack_corridor_base_2,1,pos_spoof,59854,0.0011516455560922623,0.0009753592894412577,-0.09191368520259857,-35.3632621,149.1652375,-0.006,-0.01,0.01,0.0,-9.942198812495917e-05,9.444939496461302e-05,0.0,1000,1000,1000,1000,12600,0,0.0026662040036171675,0.002803605981171131,0.002736208261922002,10,{}
attack_corridor_base_2,1,pos_spoof,60104,0.0011504569556564093,0.0009703016839921474,-0.09201113879680634,-35.3632621,149.1652375,-0.006,-0.01,0.01,0.0,-9.942199540091679e-05,9.444936586078256e-05,0.0,1000,1000,1000,1000,12600,0,0.0030158718582242727,0.0027474574744701385,0.002700456418097019,10,{}
attack_corridor_base_2,1,pos_spoof,60354,0.0011522154090926051,0.0009683694806881249,-0.09211692214012146,-35.3632622,149.1652375,-0.006,-0.01,0.01,0.0,-9.942202450474724e-05,9.444936586078256e-05,0.0,1000,1000,1000,1000,12600,0,0.0026820385828614235,0.002776504959911108,0.0027320347726345062,10,{}
attack_corridor_base_2,1,pos_spoof,60604,0.0011581178987398744,0.0009714451734907925,-0.0922129899263382,-35.3632622,149.1652375,-0.006,-0.01,0.01,0.0,-9.942203905666247e-05,9.444936586078256e-05,0.0,1000,1000,1000,1000,12600,0,0.002713428344577551,0.0028823455795645714,0.002858642488718033,10,{}
attack_corridor_base_2,1,pos_spoof,60854,0.001150410738773644,0.0009578220779076219,-0.09232048690319061,-35.3632621,149.1652375,-0.006,-0.01,0.01,0.0,-9.942202450474724e-05,9.444935858482495e-05,0.0,1000,1000,1000,1000,12600,0,0.0028073571156710386,0.0027939474675804377,0.0025490240659564734,10,{}
attack_corridor_base_2,1,pos_spoof,61104,0.0011544468579813838,0.0009534537675790489,-0.09241681545972824,-35.3632621,149.1652375,-0.006,-0.01,0.01,0.0,-9.94220536085777e-05,9.444938041269779e-05,0.0,1000,1000,1000,1000,12600,0,0.0024771462194621563,0.002921856939792633,0.002871362492442131,10,{}
attack_corridor_base_2,1,pos_spoof,61354,0.0011568383779376745,0.0009573406423442066,-0.09250973165035248,-35.3632622,149.1652375,-0.006,-0.01,0.01,0.0,-9.942203905666247e-05,9.444936586078256e-05,0.0,1000,1000,1000,1000,12600,0,0.0030547152273356915,0.003092537634074688,0.0030781265813857317,10,{}
attack_corridor_base_2,1,pos_spoof,61604,0.0011642789468169212,0.0009606921812519431,-0.09260385483503342,-35.3632622,149.1652375,-0.006,-0.01,0.01,0.0,-9.942208998836577e-05,9.444937313674018e-05,0.0,1000,1000,1000,1000,12600,0,0.002779454691335559,0.002832135884091258,0.002989922184497118,10,{}
attack_corridor_base_2,1,pos_spoof,61854,0.0011553490767255425,0.0009530881070531905,-0.09267980605363846,-35.3632622,149.1652375,-0.006,-0.01,0.01,0.0,-9.942208998836577e-05,9.444940951652825e-05,0.0,1000,1000,1000,1000,12600,0,0.002935419324785471,0.0027865516021847725,0.0030348747968673706,10,{}
attack_corridor_base_2,1,pos_spoof,62104,0.001157258404418826,0.0009556295699439943,-0.09276822954416275,-35.3632621,149.1652375,-0.006,-0.01,0.01,0.0,-9.942209726432338e-05,9.444942406844348e-05,0.0,1000,1000,1000,1000,12600,0,0.002529751742258668,0.0028320522978901863,0.002814509440213442,10,{}
attack_corridor_base_2,1,pos_spoof,62354,0.0011614286340773106,0.0009541811887174845,-0.09286416321992874,-35.3632622,149.1652375,-0.006,-0.01,0.01,0.0,-9.942213364411145e-05,9.444946044823155e-05,0.0,1000,1000,1000,1000,12600,0,0.002675029681995511,0.002683610888198018,0.002634878735989332,10,{}
attack_corridor_base_2,1,pos_spoof,62604,0.001163510256446898,0.0009637571638450027,-0.09294836223125458,-35.3632622,149.1652375,-0.006,-0.01,0.01,0.0,-9.942212636815384e-05,9.444947500014678e-05,0.0,1000,1000,1000,1000,12600,0,0.0026495237834751606,0.0029550199396908283,0.0028511269483715296,10,{}
attack_corridor_base_2,1,pos_spoof,62854,0.0011605904437601566,0.0009622889338061213,-0.09304437786340714,-35.3632621,149.1652375,-0.006,-0.01,0.01,0.0,-9.942213364411145e-05,9.4449489552062e-05,0.0,1000,1000,1000,1000,12600,0,0.0026120177935808897,0.0031740327831357718,0.0026498541701585054,10,{}
attack_corridor_base_2,1,pos_spoof,63104,0.0011594954412430525,0.0009676155168563128,-0.09313931316137314,-35.3632621,149.1652375,-0.006,-0.01,0.01,0.0,-9.942211181623861e-05,9.44494386203587e-05,0.0,1000,1000,1000,1000,12600,0,0.0029464049730449915,0.002858156571164727,0.002694616559892893,10,{}
attack_corridor_base_2,1,pos_spoof,63354,0.0011588280322030187,0.0009658740018494427,-0.09323497116565704,-35.3632622,149.1652375,-0.006,-0.01,0.01,0.0,-9.942212636815384e-05,9.444942406844348e-05,0.0,1000,1000,1000,1000,12600,0,0.0027962704189121723,0.002633239608258009,0.002851770492270589,10,{}
attack_corridor_base_2,1,pos_spoof,63604,0.001162234926596284,0.0009747346048243344,-0.09331740438938141,-35.3632622,149.1652375,-0.006,-0.01,0.01,0.0,-9.942211181623861e-05,9.44493876886554e-05,0.0,1000,1000,1000,1000,12600,0,0.0028849670197814703,0.002517062472179532,0.002650013891980052,10,{}
attack_corridor_base_2,1,pos_spoof,63854,0.0011584690073505044,0.0009707882418297231,-0.09340238571166992,-35.3632622,149.1652375,-0.006,-0.01,0.01,0.0,-9.942208998836577e-05,9.444940951652825e-05,0.0,1000,1000,1000,1000,12600,0,0.002952449256554246,0.0029838234186172485,0.002890804084017873,10,{}
attack_corridor_base_2,1,pos_spoof,64104,0.0011628748616203666,0.0009624826489016414,-0.09348593652248383,-35.3632622,149.1652375,-0.006,-0.01,0.01,0.0,-9.942211909219623e-05,9.444942406844348e-05,0.0,1000,1000,1000,1000,12600,0,0.0027495338581502438,0.0030118876602500677,0.0031028869561851025,10,{}
attack_corridor_base_2,1,pos_spoof,64354,0.0011642989702522755,0.0009641905198805034,-0.09357450902462006,-35.3632622,149.1652375,-0.006,-0.01,0.01,0.0,-9.94221554719843e-05,9.44494386203587e-05,0.0,1000,1000,1000,1000,12600,0,0.0029476762283593416,0.0028871356043964624,0.002852474106475711,10,{}
attack_corridor_base_2,1,pos_spoof,64604,0.0011741885682567954,0.0009669042192399502,-0.09365779906511307,-35.3632622,149.1652375,-0.006,-0.01,0.01,0.0,-9.942217002389953e-05,9.444946044823155e-05,0.0,1000,1000,1000,1000,12600,0,0.002898129168897867,0.0029549153987318277,0.002889412920922041,10,{}
attack_corridor_base_2,1,pos_spoof,64854,0.001171768642961979,0.0009591298294253647,-0.09374520927667618,-35.3632622,149.1652375,-0.006,-0.01,0.01,0.0,-9.94222064036876e-05,9.444946044823155e-05,0.0,1000,1000,1000,1000,12600,0,0.0028465164359658957,0.00294336024671793,0.002842680085450411,10,{}
attack_corridor_base_2,1,pos_spoof,65104,0.0011643279576674104,0.0009521925821900368,-0.09382952749729156,-35.3632622,149.1652375,-0.006,-0.01,0.01,0.0,-9.942217729985714e-05,9.444944589631632e-05,0.0,1000,1000,1000,1000,12600,0,0.002917112782597542,0.0030844872817397118,0.002727409591898322,10,{}
attack_corridor_base_2,1,pos_spoof,65354,0.0011631908128038049,0.0009588183602318168,-0.09391146153211594,-35.3632622,149.1652375,-0.006,-0.01,0.01,0.0,-9.942219185177237e-05,9.444948227610439e-05,0.0,1000,1000,1000,1000,12600,0,0.0027859716210514307,0.0027978583239018917,0.0029240730218589306,10,{}
attack_corridor_base_2,1,pos_spoof,65604,0.0011660548625513911,0.0009660825016908348,-0.09399561583995819,-35.3632622,149.1652375,-0.006,-0.01,0.01,0.0,-9.942219185177237e-05,9.4449489552062e-05,0.0,1000,1000,1000,1000,12600,0,0.0027187808882445097,0.0025703967548906803,0.0027245362289249897,10,{}
attack_corridor_base_2,1,pos_spoof,65854,0.0011631697416305542,0.0009609948610886931,-0.09408164024353027,-35.3632621,149.1652375,-0.006,-0.01,0.01,0.0,-9.942218457581475e-05,9.4449489552062e-05,0.0,1000,1000,1000,1000,12600,0,0.0027193487621843815,0.003015837399289012,0.00267512584105134,10,{}
attack_corridor_base_2,1,pos_spoof,66104,0.0011659893207252026,0.0009625441743992269,-0.09415919333696365,-35.3632621,149.1652375,-0.006,-0.01,0.01,0.0,-9.942219912772998e-05,9.4449489552062e-05,0.0,1000,1000,1000,1000,12600,0,0.0026407046243548393,0.0029035003390163183,0.0028565218672156334,10,{}
attack_corridor_base_2,1,pos_spoof,66354,0.0011718731839209795,0.0009609108092263341,-0.0942363440990448,-35.3632621,149.1652375,-0.006,-0.01,0.01,0.0,-9.942219912772998e-05,9.444950410397723e-05,0.0,1000,1000,1000,1000,12600,0,0.0027958459686487913,0.00286304485052824,0.0027418937534093857,10,{}
attack_corridor_base_2,1,pos_spoof,66604,0.0011726110242307186,0.0009753918275237083,-0.09431953728199005,-35.3632621,149.1652375,-0.006,-0.01,0.01,0.0,-9.942219912772998e-05,9.444949682801962e-05,0.0,1000,1000,1000,1000,12600,0,0.0029651187360286713,0.0026440012734383345,0.002666248008608818,10,{}
attack_corridor_base_2,1,pos_spoof,66854,0.0011725417571142316,0.0009709883597679436,-0.09439033269882202,-35.3632621,149.1652375,-0.006,-0.01,0.01,0.0,-9.94221554719843e-05,9.444948227610439e-05,0.0,1000,1000,1000,1000,12600,0,0.0024607828818261623,0.0028213772457093,0.0029791288543492556,10,{}
attack_corridor_base_2,1,pos_spoof,67104,0.0011720649199560285,0.000970599998254329,-0.09445139020681381,-35.3632621,149.1652375,-0.006,-0.01,0.01,0.0,-9.942216274794191e-05,9.444951137993485e-05,0.0,1000,1000,1000,1000,12600,0,0.002986763371154666,0.0026000149082392454,0.0031203904654830694,10,{}
attack_corridor_base_2,1,pos_spoof,67354,0.0011736855376511812,0.0009737202199175954,-0.0945129543542862,-35.3632621,149.1652375,-0.006,-0.01,0.01,0.0,-9.94221554719843e-05,9.4449489552062e-05,0.0,1000,1000,1000,1000,12600,0,0.0029520175885409117,0.0028427555225789547,0.0029353294521570206,10,{}
attack_corridor_base_2,1,pos_spoof,67604,0.0011774547165259719,0.0009826241293922067,-0.09458655118942261,-35.3632622,149.1652375,-0.006,-0.01,0.01,0.0,-9.942219185177237e-05,9.444947500014678e-05,0.0,1000,1000,1000,1000,12600,0,0.002626737579703331,0.0030123775359243155,0.0027331847231835127,10,{}
attack_corridor_base_2,1,pos_spoof,67854,0.0011767955729737878,0.0009818702237680554,-0.09466635435819626,-35.3632621,149.1652375,-0.006,-0.01,0.01,0.0,-9.942214092006907e-05,9.444948227610439e-05,0.0,1000,1000,1000,1000,12600,0,0.002703384729102254,0.002967151813209057,0.002734323963522911,10,{}
attack_corridor_base_2,1,pos_spoof,68104,0.0011775109451264143,0.0009816321544349194,-0.09473291039466858,-35.3632621,149.1652375,-0.006,-0.01,0.01,0.0,-9.942217002389953e-05,9.444952593185008e-05,0.0,1000,1000,1000,1000,12600,0,0.003103573340922594,0.002661065198481083,0.00245024636387825,10,{}
