flight_id,label,attack_type,timestamp,att_roll,att_pitch,att_yaw,pos_lat,pos_lon,pos_alt_rel,pos_vx,pos_vy,pos_vz,nav_roll,nav_pitch,nav_alt_error,servo1_raw,servo2_raw,servo3_raw,servo4_raw,sys_voltage_battery,sys_load,vib_x,vib_y,vib_z,gps_sats_visible,attack_params_json
attack_corridor_base_6,1,yawl_spoof,10096,0.0001905571698443,-3.8958649383857846e-05,-0.3448156416416168,-35.3632621,149.1652374,0.0,0.0,0.0,-0.03,-9.942172619048506e-05,9.44494386203587e-05,0.0,1000,1000,1000,1000,12600,0,0.0028897966258227,0.002667547436431,0.0027467852924019,3,{}
attack_corridor_base_6,1,yawl_spoof,10429,0.0001992438628803,-3.094420753768645e-05,-0.3180544078350067,-35.3632621,149.1652374,0.0,0.0,0.0,-0.03,-9.94216970866546e-05,9.44493804126978e-05,0.0,1000,1000,1000,1000,12600,0,0.0027711554430425,0.0030347662977874,0.0028218848165124,10,{}
attack_corridor_base_6,1,yawl_spoof,10761,0.0002007366274483,-2.225892785645556e-05,-0.2877771556377411,-35.3632621,149.1652374,0.0,0.0,0.0,-0.03,-9.94216970866546e-05,9.44493804126978e-05,0.0,1000,1000,1000,1000,12600,0,0.0028094658628106,0.0025983396917581,0.0029350179247558,10,{}
attack_corridor_base_6,1,yawl_spoof,11094,0.0002049129252554,-1.3395303540164605e-05,-0.2532575130462646,-35.3632621,149.1652374,0.0,0.0,0.0,-0.03,-9.94216461549513e-05,9.444936586078256e-05,0.0,1000,1000,1000,1000,12600,0,0.0027027451433241,0.0027543762698769,0.0027523464523255,10,{}
attack_corridor_base_6,1,yawl_spoof,11427,0.0002104281738866,-2.858723291865317e-06,-0.2293590754270553,-35.3632621,149.1652374,0.0,0.0,0.0,-0.03,-9.942157339537516e-05,9.444937313674018e-05,0.0,1000,1000,1000,1000,12600,0,0.0027379943057894,0.0027772458270192,0.0027140663005411,10,{}
attack_corridor_base_6,1,yawl_spoof,11761,0.0002150605869246,5.510415803655633e-07,-0.2076351046562194,-35.3632621,149.1652374,0.0,0.0,0.0,-0.03,-9.942157339537516e-05,9.444937313674018e-05,0.0,1000,1000,1000,1000,12600,0,0.0032121338881552,0.0026703951880335,0.0024403401184827,10,{}
attack_corridor_base_6,1,yawl_spoof,12094,0.0002211752143921,1.2740297279378863e-05,-0.1883035153150558,-35.3632621,149.1652374,0.0,0.0,0.0,-0.02,-9.942158067133278e-05,9.444940951652824e-05,0.0,1000,1000,1000,1000,12600,0,0.0030664452351629,0.0028647861909121,0.0027165855281054,10,{}
attack_corridor_base_6,1,yawl_spoof,12426,0.0002284889196744,2.48225151153747e-05,-0.1657192558050155,-35.3632621,149.1652374,0.0,0.0,0.0,-0.02,-9.942167525878176e-05,9.444940224057063e-05,0.0,1000,1000,1000,1000,12600,0,0.0027248903643339,0.0029022796079516,0.0027584102936089,10,{}
attack_corridor_base_6,1,yawl_spoof,12759,0.0002339611819479,3.236216798541136e-05,-0.1509320735931396,-35.3632621,149.1652374,0.0,0.0,0.0,-0.02,-9.942167525878176e-05,9.444940224057063e-05,0.0,1000,1000,1000,1000,12600,0,0.0029326165094971,0.0029342514462769,0.0029331545811146,10,{}
attack_corridor_base_6,1,yawl_spoof,13092,0.0002457311202306,3.6673216527560726e-05,-0.1377573609352111,-35.3632621,149.1652374,0.0,0.0,0.0,-0.02,-9.942163160303608e-05,9.444935858482496e-05,0.0,1000,1000,1000,1000,12600,0,0.0027213157154619,0.0027012350037693,0.0028222245164215,10,{}
attack_corridor_base_6,1,yawl_spoof,13427,0.0002579444262664,4.580859967973083e-05,-0.1226590201258659,-35.3632621,149.1652374,0.0,0.0,0.0,-0.01,-9.942160977516323e-05,9.444937313674018e-05,0.0,1000,1000,1000,1000,12600,0,0.002616207813844,0.0025168515276163,0.0029274239204823,10,{}
attack_corridor_base_6,1,yawl_spoof,13759,0.0002650226233527,5.689719182555564e-05,-0.1129258498549461,-35.3632621,149.1652374,0.0,0.0,0.0,-0.01,-9.942160977516323e-05,9.444937313674018e-05,0.0,1000,1000,1000,1000,12600,0,0.0028091561980545,0.0025532555300742,0.0025673536583781,10,{}
attack_corridor_base_6,1,yawl_spoof,14091,0.0002752548607531,6.159643089631572e-05,-0.1043926924467086,-35.3632621,149.1652374,0.0,0.0,0.0,-0.01,-9.942155156750232e-05,9.44493804126978e-05,0.0,1000,1000,1000,1000,12600,0,0.0027488383930176,0.0026121970731765,0.0029072815086692,10,{}
attack_corridor_base_6,1,yawl_spoof,14424,0.0002823111717589,7.635475049028173e-05,-0.0946386829018592,-35.3632621,149.1652374,0.0,0.0,0.0,-0.01,-9.942151518771424e-05,9.444932948099448e-05,0.0,1000,1000,1000,1000,12600,0,0.0028402360621839,0.0027613874990493,0.0025863391347229,10,{}
attack_corridor_base_6,1,yawl_spoof,14759,0.0002967570908367,8.72429009177722e-05,-0.0884178951382637,-35.3632621,149.1652374,0.0,0.0,0.0,-0.01,-9.942151518771424e-05,9.444932948099448e-05,0.0,1000,1000,1000,1000,12600,0,0.0028960898052901,0.0028062304481863,0.0027347761206328,10,{}
attack_corridor_base_6,1,yawl_spoof,15092,0.0003078946028836,9.69579123193398e-05,-0.0828826576471328,-35.3632621,149.1652374,0.0,0.0,0.0,-0.01,-9.942147153196856e-05,9.444930765312164e-05,0.0,1000,1000,1000,1000,12600,0,0.0029410400893539,0.0026363607030361,0.0026952314656227,10,{}
attack_corridor_base_6,1,yawl_spoof,15352,0.000320296123391,0.000106562700239,-0.07727712392807,-35.3632621,149.1652374,0.0,0.0,0.0,-0.01,-9.942147153196856e-05,9.444930765312164e-05,0.0,1000,1000,1000,1000,12600,0,0.0027263294905424,0.002803603420034,0.0027608594391494,10,{}
attack_corridor_base_6,1,yawl_spoof,15602,0.0003311962354928,0.0001118296422646,-0.0738836526870727,-35.3632621,149.1652374,0.0,0.0,0.0,-0.01,-9.942150063579902e-05,9.444935130886734e-05,0.0,1000,1000,1000,1000,12600,0,0.0027263294905424,0.002803603420034,0.0027608594391494,10,{}
attack_corridor_base_6,1,yawl_spoof,16089,0.000336661178153,0.0001202569474116,-0.0709400251507759,-35.3632621,149.1652374,0.0,0.0,0.0,0.0,-9.94214933598414e-05,9.44493804126978e-05,0.0,1000,1000,1000,1000,12600,0,0.0026779365725815,0.0029505274724215,0.0025404887273907,10,{}
attack_corridor_base_6,1,yawl_spoof,16421,0.0003549761895556,0.0001376170985167,-0.0658269375562667,-35.3632621,149.1652374,0.0,0.0,0.0,0.0,-9.942150791175663e-05,9.44493804126978e-05,0.0,1000,1000,1000,1000,12600,0,0.0031085845548659,0.0028157921042293,0.002728606108576,10,{}
attack_corridor_base_6,1,yawl_spoof,16754,0.0003684184048324,0.0001475393655709,-0.0634161457419395,-35.3632621,149.1652374,0.0,0.0,0.0,0.0,-9.942150063579902e-05,9.44493804126978e-05,0.0,1000,1000,1000,1000,12600,0,0.0031171389855444,0.0025906378868967,0.0026223356835544,10,{}
attack_corridor_base_6,1,yawl_spoof,17087,0.0003867738123517,0.0001587814185768,-0.0607226341962814,-35.3632621,149.1652374,0.0,0.0,0.0,0.0,-9.942147880792618e-05,9.444940224057063e-05,0.0,1000,1000,1000,1000,12600,0,0.0028657773509621,0.0028376190457493,0.0027757382486015,10,{}
attack_corridor_base_6,1,yawl_spoof,17419,0.0003961361362598,0.0001686009200057,-0.0591204576194286,-35.3632621,149.1652374,0.0,0.0,0.0,0.0,-9.9421595223248e-05,9.444939496461302e-05,0.0,1000,1000,1000,1000,12600,0,0.0029251228552311,0.0029772222042083,0.0028551104478538,10,{}
attack_corridor_base_6,1,yawl_spoof,17752,0.0004096498305443,0.0001790149544831,-0.0577213689684867,-35.3632621,149.1652374,0.0,0.0,0.0,0.0,-9.942161705112083e-05,9.44493804126978e-05,0.0,1000,1000,1000,1000,12600,0,0.0028326825704425,0.0028046963270753,0.0029464883264154,10,{}
attack_corridor_base_6,1,yawl_spoof,18086,0.0004217998357489,0.0001998503430513,-0.0562014244496822,-35.3632621,149.1652374,0.0,0.0,0.0,0.0,-9.942165343090892e-05,9.444936586078256e-05,0.0,1000,1000,1000,1000,12600,0,0.0030916871037334,0.0027766558341681,0.0027474453672766,10,{}
attack_corridor_base_6,1,yawl_spoof,18419,0.0004372843832243,0.0002109893393935,-0.0552884489297866,-35.3632621,149.1652374,0.0,0.0,0.0,0.0,-9.942168253473938e-05,9.444936586078256e-05,0.0,1000,1000,1000,1000,12600,0,0.0025306749157607,0.0026741730980575,0.0027731205336749,10,{}
attack_corridor_base_6,1,yawl_spoof,18751,0.0004483230586629,0.0002267031522933,-0.0545584298670291,-35.3632621,149.1652374,0.0,0.0,0.0,0.0,-9.942168253473938e-05,9.444936586078256e-05,0.0,1000,1000,1000,1000,12600,0,0.002546131843701,0.0029924463015049,0.0028580115176737,10,{}
attack_corridor_base_6,1,yawl_spoof,19084,0.0004716893890872,0.0002466510923113,-0.0538241080939769,-35.3632621,149.1652374,0.0,0.0,0.0,0.0,-9.942160977516323e-05,9.444930765312164e-05,0.0,1000,1000,1000,1000,12600,0,0.003058940405026,0.0033915578387677,0.0026840141508728,10,{}
attack_corridor_base_6,1,yawl_spoof,19417,0.000484443095047,0.0002545120369177,-0.0534339286386966,-35.3632621,149.1652374,0.0,0.0,0.0,0.0,-9.942161705112083e-05,9.444934403290972e-05,0.0,1000,1000,1000,1000,12600,0,0.0030165468342602,0.0028599028009921,0.0028338460251688,10,{}
attack_corridor_base_6,1,yawl_spoof,19752,0.0005012473557144,0.0002674576535355,-0.0531233362853527,-35.3632621,149.1652374,0.0,0.0,0.0,0.0,-9.942161705112083e-05,9.444934403290972e-05,0.0,1000,1000,1000,1000,12600,0,0.002813569502905,0.0028251814655959,0.0025472338311374,10,{}
attack_corridor_base_6,1,yawl_spoof,20084,0.0005285269580781,0.0002892691991291,-0.0527124069631099,-35.3632621,149.1652374,0.007,0.0,0.0,0.0,-9.942168253473938e-05,9.444935858482496e-05,0.0,1000,1000,1000,1000,12600,0,0.0026858039200305,0.0028388779610395,0.0028232925105839,10,{}
attack_corridor_base_6,1,yawl_spoof,20416,0.0005393318133428,0.000306171568809,-0.0526130981743335,-35.3632621,149.1652374,-0.008,0.0,0.0,0.0,-9.942171163856985e-05,9.444936586078256e-05,0.0,1000,1000,1000,1000,12600,0,0.0030676615424454,0.0028642117977142,0.0028965265955775,10,{}
attack_corridor_base_6,1,yawl_spoof,20749,0.0005531013594008,0.0003218070196453,-0.0526400282979011,-35.3632621,149.1652374,-0.008,0.0,0.0,0.0,-9.942171163856985e-05,9.444936586078256e-05,0.0,1000,1000,1000,1000,12600,0,0.0027894731611013,0.0028478645253926,0.002821018686518,10,{}
attack_corridor_base_6,1,yawl_spoof,21084,0.0005734873702749,0.0003426853509154,-0.0527625866234302,-35.3632621,149.1652374,-0.006,0.0,0.0,0.0,-9.942174074240028e-05,9.444936586078256e-05,0.0,1000,1000,1000,1000,12600,0,0.0028512883000075,0.0027429691981524,0.003020821372047,10,{}
attack_corridor_base_6,1,yawl_spoof,21417,0.0005907388986088,0.0003558439493644,-0.0529471486806869,-35.3632621,149.1652374,-0.004,0.0,0.0,0.0,-9.942176984623076e-05,9.44493804126978e-05,0.0,1000,1000,1000,1000,12600,0,0.0026420997455716,0.0028218599036335,0.0030027613975107,10,{}
attack_corridor_base_6,1,yawl_spoof,21749,0.0006068723159842,0.0003721413377206,-0.0531441196799278,-35.3632621,149.1652374,-0.003,0.0,0.0,0.0,-9.942176984623076e-05,9.44493804126978e-05,0.0,1000,1000,1000,1000,12600,0,0.0028738107066601,0.0028222857508808,0.0027255895547568,10,{}
attack_corridor_base_6,1,yawl_spoof,22081,0.0006355432560667,0.0003930605016648,-0.0534650757908821,-35.3632621,149.1652374,-0.001,0.0,0.01,0.0,-9.942180622601882e-05,9.444936586078256e-05,0.0,1000,1000,1000,1000,12600,0,0.0029501891694962,0.0028082125354558,0.0027449466288089,10,{}
attack_corridor_base_6,1,yawl_spoof,22414,0.0006525994976982,0.0004123475519008,-0.0537656731903553,-35.3632621,149.1652374,0.0,0.0,0.01,0.0,-9.94219008134678e-05,9.44494822761044e-05,0.0,1000,1000,1000,1000,12600,0,0.0028039868921041,0.0030508839990943,0.0027788446750491,10,{}
attack_corridor_base_6,1,yawl_spoof,22749,0.0006703390390612,0.0004375279822852,-0.0540876761078834,-35.3632621,149.1652374,0.0,0.0,0.01,0.0,-9.94219008134678e-05,9.44494822761044e-05,0.0,1000,1000,1000,1000,12600,0,0.0025231179315596,0.0029340302571654,0.0027570985257625,10,{}
attack_corridor_base_6,1,yawl_spoof,23081,0.0006948781665414,0.0004595789941959,-0.0545614026486873,-35.3632621,149.1652374,0.0,0.0,0.01,0.0,-9.942197357304394e-05,9.444946772418916e-05,0.0,1000,1000,1000,1000,12600,0,0.0027324960101395,0.002545004710555,0.002802254864946,10,{}
attack_corridor_base_6,1,yawl_spoof,23414,0.0007073082961142,0.0004768714134115,-0.0549897775053978,-35.3632621,149.1652374,0.001,-0.01,0.01,0.0,-9.942186443367972e-05,9.444940951652824e-05,0.0,1000,1000,1000,1000,12600,0,0.0026896779891103,0.0026822306681424,0.003070791484788,10,{}
attack_corridor_base_6,1,yawl_spoof,23747,0.0007220037514343,0.0004911099676974,-0.0553714819252491,-35.3632621,149.1652374,0.002,-0.01,0.01,0.0,-9.942186443367972e-05,9.444940951652824e-05,0.0,1000,1000,1000,1000,12600,0,0.0028465294744819,0.002966723171994,0.0027424916625022,10,{}
attack_corridor_base_6,1,yawl_spoof,24079,0.0007417622255161,0.0005151104996912,-0.055917777121067,-35.3632621,149.1652374,0.002,-0.01,0.01,0.0,-9.942181350197644e-05,9.44493804126978e-05,0.0,1000,1000,1000,1000,12600,0,0.0030518914572894,0.002540125278756,0.002718266332522,10,{}
attack_corridor_base_6,1,yawl_spoof,24414,0.0007532987510785,0.0005298455944284,-0.0563640110194683,-35.3632621,149.1652374,0.002,-0.01,0.01,0.0,-9.942187898559496e-05,9.444943134440108e-05,0.0,1000,1000,1000,1000,12600,0,0.0028833558317273,0.0025453455746173,0.0025773476809263,10,{}
attack_corridor_base_6,1,yawl_spoof,24746,0.0007718457491137,0.0005459576495923,-0.0567936487495899,-35.3632621,149.1652374,0.002,-0.01,0.01,0.0,-9.942187898559496e-05,9.444943134440108e-05,0.0,1000,1000,1000,1000,12600,0,0.0030000375118106,0.0027941269800066,0.0028135012835264,10,{}
attack_corridor_base_6,1,yawl_spoof,25079,0.0007925739628262,0.000569999741856,-0.0573900751769542,-35.3632621,149.1652374,0.003,-0.01,0.01,0.0,-9.942192264134064e-05,9.444949682801962e-05,0.0,1000,1000,1000,1000,12600,0,0.0026652386877685,0.0027369437739253,0.0026915771886706,10,{}
attack_corridor_base_6,1,yawl_spoof,25412,0.0008026775903999,0.0005802160594612,-0.0578476786613464,-35.3632621,149.1652374,0.003,-0.01,0.01,0.0,-9.94219080894254e-05,9.444952593185008e-05,0.0,1000,1000,1000,1000,12600,0,0.0027460895944386,0.0029131926130503,0.0029785181395709,10,{}
attack_corridor_base_6,1,yawl_spoof,25744,0.0008213826222345,0.0005996851250529,-0.0582263097167015,-35.3632621,149.1652374,0.003,-0.01,0.01,0.0,-9.94219080894254e-05,9.444952593185008e-05,0.0,1000,1000,1000,1000,12600,0,0.002719810931012,0.0028176768682897,0.0029190122149884,10,{}
attack_corridor_base_6,1,yawl_spoof,26077,0.0008370005525648,0.0006187950493767,-0.0588576793670654,-35.3632621,149.1652374,0.002,-0.01,0.01,0.0,-9.94218935375102e-05,9.444949682801962e-05,0.0,1000,1000,1000,1000,12600,0,0.0027051474899053,0.0027378920931369,0.0030759859364479,10,{}
attack_corridor_base_6,1,yawl_spoof,26411,0.0008533468935638,0.0006228707497939,-0.0593468844890594,-35.3632621,149.1652374,0.002,-0.01,0.01,0.0,-9.94219080894254e-05,9.444944589631632e-05,0.0,1000,1000,1000,1000,12600,0,0.0026095665525645,0.0028277530800551,0.0027938699349761,10,{}
attack_corridor_base_6,1,yawl_spoof,26744,0.0008677365258336,0.000630889844615,-0.0598347745835781,-35.3632621,149.1652374,0.002,-0.01,0.01,0.0,-9.94219080894254e-05,9.444944589631632e-05,0.0,1000,1000,1000,1000,12600,0,0.0025314991362392,0.0029895778279751,0.0025528422556817,10,{}
attack_corridor_base_6,1,yawl_spoof,27076,0.0008803476230241,0.0006474439287558,-0.0604914873838424,-35.3632621,149.1652374,0.002,-0.01,0.01,0.0,-9.942192991729826e-05,9.444946044823156e-05,0.0,1000,1000,1000,1000,12600,0,0.0028982227668166,0.0030155277345329,0.0028838913422077,10,{}
attack_corridor_base_6,1,yawl_spoof,27409,0.0008957675890997,0.0006543314666487,-0.0609908066689968,-35.3632621,149.1652374,0.002,-0.01,0.01,0.0,-9.942197357304394e-05,9.444950410397725e-05,0.0,1000,1000,1000,1000,12600,0,0.0026288835797458,0.0027132055256515,0.0028800724539905,10,{}
attack_corridor_base_6,1,yawl_spoof,27742,0.0009047870989888,0.0006639342755079,-0.0615115314722061,-35.3632621,149.1652374,0.001,-0.01,0.01,0.0,-9.942197357304394e-05,9.444950410397725e-05,0.0,1000,1000,1000,1000,12600,0,0.0028275125660002,0.0026729670353233,0.002621870720759,10,{}
attack_corridor_base_6,1,yawl_spoof,28077,0.0009175249724648,0.000681264034938,-0.0621567778289318,-35.3632621,149.1652374,0.001,-0.01,0.01,0.0,-9.942198812495916e-05,9.444949682801962e-05,0.0,1000,1000,1000,1000,12600,0,0.0028946185484528,0.0029960647225379,0.0026854679454118,10,{}
attack_corridor_base_6,1,yawl_spoof,28409,0.0009303127881139,0.000692238099873,-0.0626612156629562,-35.3632621,149.1652374,0.001,-0.01,0.01,0.0,-9.942203178070486e-05,9.444957686355338e-05,0.0,1000,1000,1000,1000,12600,0,0.0028511693235486,0.0028587947599589,0.002930968767032,10,{}
attack_corridor_base_6,1,yawl_spoof,28741,0.0009454463724978,0.0007065678364597,-0.063134953379631,-35.3632621,149.1652374,0.0,-0.01,0.01,0.0,-9.942203178070486e-05,9.444957686355338e-05,0.0,1000,1000,1000,1000,12600,0,0.0027566372882574,0.0028737788088619,0.0030516632832586,10,{}
attack_corridor_base_6,1,yawl_spoof,29074,0.0009547405061312,0.0007287426851689,-0.0637734532356262,-35.3632621,149.1652374,0.0,-0.01,0.01,0.0,-9.942213364411144e-05,9.444963507121427e-05,0.0,1000,1000,1000,1000,12600,0,0.0026943797711282,0.0027515429537743,0.0025271899066865,10,{}
attack_corridor_base_6,1,yawl_spoof,29409,0.0009715832420624,0.0007378673763014,-0.0642459243535995,-35.3632621,149.1652374,0.0,-0.01,0.01,0.0,-9.942226461134852e-05,9.444970055483282e-05,0.0,1000,1000,1000,1000,12600,0,0.0026921175885945,0.0027084671892225,0.0026344060897827,10,{}
attack_corridor_base_6,1,yawl_spoof,29742,0.000977982301265,0.0007460034103132,-0.0647293701767921,-35.3632621,149.1652374,0.0,-0.01,0.02,0.0,-9.942226461134852e-05,9.444970055483282e-05,0.0,1000,1000,1000,1000,12600,0,0.0028672777116298,0.003134825034067,0.0028966413810849,10,{}
attack_corridor_base_6,1,yawl_spoof,30074,0.0009892786620184,0.0007626022561453,-0.0653651282191276,-35.3632621,149.1652374,0.0,-0.01,0.02,0.0,-9.942232281900942e-05,9.444971510674804e-05,0.0,1000,1000,1000,1000,12600,0,0.0029405045788735,0.0028091040439903,0.0030811941251158,10,{}
attack_corridor_base_6,1,yawl_spoof,30352,0.0009892786620184,0.0007626022561453,-0.0653651282191276,-35.3632621,149.1652374,-0.001,-0.01,0.02,0.0,-9.942232281900942e-05,9.444971510674804e-05,0.0,1000,1000,1000,1000,12600,0,0.0025933133438229,0.0027132772374898,0.0029891706071794,10,{}
attack_corridor_base_6,1,yawl_spoof,30604,0.0010023090289905,0.0007827761000953,-0.0661956742405891,-35.3632621,149.1652374,-0.001,-0.01,0.02,0.0,-9.942238102667034e-05,9.44497951422818e-05,0.0,1000,1000,1000,1000,12600,0,0.0028912292327731,0.0026727893855422,0.0028091508429497,10,{}
attack_corridor_base_6,1,yawl_spoof,30854,0.0010114762699231,0.0007882131030783,-0.0664992108941078,-35.3632621,149.1652374,-0.001,-0.01,0.02,0.0,-9.942244651028886e-05,9.444986062590031e-05,0.0,1000,1000,1000,1000,12600,0,0.0026495207566767,0.002705460647121,0.0029449232388287,10,{}
attack_corridor_base_6,1,yawl_spoof,31104,0.0010181964607909,0.0007951392326503,-0.066959373652935,-35.3632621,149.1652374,-0.002,-0.01,0.02,0.0,-9.942250471794978e-05,9.444988972973078e-05,0.0,1000,1000,1000,1000,12600,0,0.0026380515191704,0.00269187358208,0.0029353960417211,10,{}
attack_corridor_base_6,1,yawl_spoof,31354,0.0010285841999575,0.0007990282028913,-0.0672577172517776,-35.3632621,149.1652374,-0.002,-0.01,0.02,0.0,-9.942250471794978e-05,9.444991883356124e-05,0.0,1000,1000,1000,1000,12600,0,0.0027142839971929,0.0029571945779025,0.0028449641540646,10,{}
attack_corridor_base_6,1,yawl_spoof,31602,0.001035273191519,0.0008085910230875,-0.0676532834768295,-35.3632621,149.1652374,-0.002,-0.01,0.02,0.0,-9.942253382178023e-05,9.444995521334933e-05,0.0,1000,1000,1000,1000,12600,0,0.0026611415669322,0.0029158140532672,0.0029727853834629,10,{}
attack_corridor_base_6,1,yawl_spoof,31852,0.0010443112114444,0.0008088140166364,-0.0678940117359161,-35.3632621,149.1652374,-0.003,-0.01,0.02,0.0,-9.94225119939074e-05,9.444992610951886e-05,0.0,1000,1000,1000,1000,12600,0,0.0026611415669322,0.0029158140532672,0.0029727853834629,10,{}
attack_corridor_base_6,1,yawl_spoof,32102,0.0010467731626704,0.0008110756170935,-0.0683437213301658,-35.3632621,149.1652374,-0.003,-0.01,0.02,0.0,-9.942249016603456e-05,9.444988972973078e-05,0.0,1000,1000,1000,1000,12600,0,0.0027982147876173,0.0028681610710918,0.0025177875068038,10,{}
attack_corridor_base_6,1,yawl_spoof,32352,0.0010532548185437,0.0008183796308003,-0.0686352998018264,-35.3632621,149.1652374,-0.003,-0.01,0.02,0.0,-9.942246833816172e-05,9.444992610951886e-05,0.0,1000,1000,1000,1000,12600,0,0.0026687269564718,0.0028721052221953,0.0027482658624649,10,{}
attack_corridor_base_6,1,yawl_spoof,32604,0.0010646347654983,0.0008271245751529,-0.0691009238362312,-35.3632621,149.1652374,-0.003,-0.01,0.02,0.0,-9.942246833816172e-05,9.444992610951886e-05,0.0,1000,1000,1000,1000,12600,0,0.002662454964593,0.0026719912420958,0.0029906083364039,10,{}
attack_corridor_base_6,1,yawl_spoof,32854,0.0010671524796634,0.0008376681362278,-0.0693829506635665,-35.3632621,149.1652374,-0.004,-0.01,0.02,0.0,-9.942254109773784e-05,9.444996976526454e-05,0.0,1000,1000,1000,1000,12600,0,0.002662454964593,0.0026719912420958,0.0029906083364039,10,{}
attack_corridor_base_6,1,yawl_spoof,33104,0.0010749079519882,0.0008526695310138,-0.0698122754693031,-35.3632621,149.1652374,-0.004,-0.01,0.02,0.0,-9.942254109773784e-05,9.444996976526454e-05,0.0,1000,1000,1000,1000,12600,0,0.0028759050182998,0.0029332190752029,0.0027050704229623,10,{}
attack_corridor_base_6,1,yawl_spoof,33601,0.0011017341166734,0.0008665254572406,-0.070521131157875,-35.3632621,149.1652374,-0.004,-0.01,0.02,0.0,-9.942254837369546e-05,9.444992610951886e-05,0.0,1000,1000,1000,1000,12600,0,0.0027748781722038,0.0030470616184175,0.0028968814294785,10,{}
attack_corridor_base_6,1,yawl_spoof,33934,0.0011130623752251,0.000876895035617,-0.0709531009197235,-35.3632621,149.1652374,-0.004,-0.01,0.02,0.0,-9.942253382178023e-05,9.444996248930693e-05,0.0,1000,1000,1000,1000,12600,0,0.0026558525860309,0.0028162884991616,0.0027749603614211,10,{}
attack_corridor_base_6,1,yawl_spoof,34267,0.0011171965161338,0.0008827353594824,-0.0713609829545021,-35.3632621,149.1652374,-0.005,-0.02,0.02,0.0,-9.942246106220408e-05,9.444998431717976e-05,0.0,1000,1000,1000,1000,12600,0,0.0031877185683697,0.0025572148151695,0.002885817317292,10,{}
attack_corridor_base_6,1,yawl_spoof,34599,0.0011349042179062,0.0008984432788565,-0.071905069053173,-35.3632621,149.1652374,-0.005,-0.02,0.02,0.0,-9.942246106220408e-05,9.444998431717976e-05,0.0,1000,1000,1000,1000,12600,0,0.0025467202067375,0.0029307168442755,0.0027971614617854,10,{}
attack_corridor_base_6,1,yawl_spoof,34934,0.0011437825160101,0.0009156800224445,-0.0723009333014488,-35.3632621,149.1652374,-0.005,-0.02,0.02,0.0,-9.942238830262796e-05,9.444998431717976e-05,0.0,1000,1000,1000,1000,12600,0,0.0026029762811958,0.0029558131936937,0.0026752897538244,10,{}
attack_corridor_base_6,1,yawl_spoof,35266,0.0011489031603559,0.0009242844535037,-0.0726985409855842,-35.3632621,149.1652374,-0.005,-0.02,0.02,0.0,-9.94223082670942e-05,9.444993338547648e-05,0.0,1000,1000,1000,1000,12600,0,0.0030504360329359,0.0028036360163241,0.0027653062716126,10,{}
attack_corridor_base_6,1,yawl_spoof,35599,0.0011611697264015,0.0009347114246338,-0.073218747973442,-35.3632621,149.1652374,-0.005,-0.02,0.02,0.0,-9.94223082670942e-05,9.444993338547648e-05,0.0,1000,1000,1000,1000,12600,0,0.0028139541391283,0.0027567911893129,0.0027519264258444,10,{}
attack_corridor_base_6,1,yawl_spoof,35932,0.0011633133981376,0.0009335826616734,-0.0735836699604988,-35.3632621,149.1652374,-0.005,-0.02,0.02,0.0,-9.94223591987975e-05,9.444991883356124e-05,0.0,1000,1000,1000,1000,12600,0,0.0027171289548277,0.0028055484872311,0.002919282997027,10,{}
attack_corridor_base_6,1,yawl_spoof,36264,0.0011696282308548,0.0009463664027862,-0.0738943293690681,-35.3632621,149.1652374,-0.005,-0.02,0.02,0.0,-9.942232281900942e-05,9.44499479373917e-05,0.0,1000,1000,1000,1000,12600,0,0.0029029580764472,0.002714900765568,0.0028432519175112,10,{}
attack_corridor_base_6,1,yawl_spoof,36597,0.001179575221613,0.0009651363361626,-0.0744165852665901,-35.3632621,149.1652374,-0.005,-0.02,0.02,0.0,-9.942232281900942e-05,9.44499479373917e-05,0.0,1000,1000,1000,1000,12600,0,0.0030226588714867,0.0027224314399063,0.0025844681076705,10,{}
attack_corridor_base_6,1,yawl_spoof,36931,0.0011906613362953,0.0009798340033739,-0.0747814401984214,-35.3632621,149.1652374,-0.005,-0.02,0.02,0.0,-9.942233737092464e-05,9.444991883356124e-05,0.0,1000,1000,1000,1000,12600,0,0.002611099043861,0.0027516516856849,0.002593430923298,10,{}
attack_corridor_base_6,1,yawl_spoof,37264,0.0011998057598248,0.0009931981330737,-0.0751450881361961,-35.3632621,149.1652374,-0.005,-0.02,0.02,0.0,-9.942234464688228e-05,9.44498970056884e-05,0.0,1000,1000,1000,1000,12600,0,0.0028242927510291,0.0027067696209996,0.0029216131661087,10,{}
attack_corridor_base_6,1,yawl_spoof,37596,0.0012085898779332,0.0010021942434832,-0.075512021780014,-35.3632621,149.1652374,-0.005,-0.02,0.02,0.0,-9.942234464688228e-05,9.44498970056884e-05,0.0,1000,1000,1000,1000,12600,0,0.0026773237623274,0.0025396230630576,0.0025658602826297,10,{}
attack_corridor_base_6,1,yawl_spoof,37929,0.0012119866441935,0.00102045154199,-0.0759822875261306,-35.3632621,149.1652374,-0.006,-0.02,0.02,0.0,-9.942233009496704e-05,9.444988972973078e-05,0.0,1000,1000,1000,1000,12600,0,0.002886984264478,0.0028596371412277,0.0027942392043769,10,{}
attack_corridor_base_6,1,yawl_spoof,38262,0.0012248457642272,0.0010372744873166,-0.0763460025191307,-35.3632621,149.1652374,-0.006,-0.02,0.02,0.0,-9.942233009496704e-05,9.444986062590031e-05,0.0,1000,1000,1000,1000,12600,0,0.0026529955212026,0.0026476115453988,0.0028194757178425,10,{}
attack_corridor_base_6,1,yawl_spoof,38597,0.0012322377879172,0.0010401774197816,-0.0766908749938011,-35.3632621,149.1652374,-0.006,-0.02,0.02,0.0,-9.942233009496704e-05,9.444986062590031e-05,0.0,1000,1000,1000,1000,12600,0,0.0027072664815932,0.0029785262886434,0.0027140367310494,10,{}
attack_corridor_base_6,1,yawl_spoof,38929,0.0012462825980037,0.00105708965566,-0.0771624594926834,-35.3632621,149.1652374,-0.006,-0.02,0.02,0.0,-9.942229371517897e-05,9.444985334994271e-05,0.0,1000,1000,1000,1000,12600,0,0.0027904417365789,0.003218105295673,0.0027384939603507,10,{}
attack_corridor_base_6,1,yawl_spoof,39261,0.0012511875247582,0.0010667848400771,-0.0775027498602867,-35.3632621,149.1652374,-0.006,-0.02,0.02,0.0,-9.942227916326374e-05,9.444987517781556e-05,0.0,1000,1000,1000,1000,12600,0,0.0027881423011422,0.0027455962263047,0.0029363133944571,10,{}
attack_corridor_base_6,1,yawl_spoof,39594,0.0012488579377532,0.0010721769649535,-0.0778424888849258,-35.3632621,149.1652374,-0.006,-0.02,0.02,0.0,-9.942227916326374e-05,9.444987517781556e-05,0.0,1000,1000,1000,1000,12600,0,0.0026907972060143,0.0027407470624893,0.0027703924570232,10,{}
attack_corridor_base_6,1,yawl_spoof,39929,0.0012579613830894,0.0010785032063722,-0.0782786756753921,-35.3632621,149.1652374,-0.006,-0.02,0.02,0.0,-9.942226461134852e-05,9.44498970056884e-05,0.0,1000,1000,1000,1000,12600,0,0.0027103379834443,0.0027437868993729,0.0025226462166756,10,{}
attack_corridor_base_6,1,yawl_spoof,40262,0.0012664112728089,0.0010850586695596,-0.0786034390330314,-35.3632621,149.1652374,-0.006,-0.02,0.02,0.0,-9.942229371517897e-05,9.444993338547648e-05,0.0,1000,1000,1000,1000,12600,0,0.002880556276068,0.003036773763597,0.0030532910022884,10,{}
attack_corridor_base_6,1,yawl_spoof,40594,0.0012752482434734,0.0010942694498226,-0.0789139345288276,-35.3632621,149.1652374,-0.006,-0.02,0.02,0.0,-9.942229371517897e-05,9.444993338547648e-05,0.0,1000,1000,1000,1000,12600,0,0.0027662625070661,0.0030184076167643,0.0028865444473922,10,{}
attack_corridor_base_6,1,yawl_spoof,40926,0.0012853398220613,0.0010972382733598,-0.07928516715765,-35.3632621,149.1652374,-0.006,-0.02,0.02,0.0,-9.94222573353909e-05,9.444992610951886e-05,0.0,1000,1000,1000,1000,12600,0,0.0024383687414228,0.0027100357692688,0.0026996203232556,10,{}
attack_corridor_base_6,1,yawl_spoof,41259,0.0012896353146061,0.001109259435907,-0.0795726925134658,-35.3632621,149.1652374,-0.006,-0.02,0.02,0.0,-9.942227188730612e-05,9.444992610951886e-05,0.0,1000,1000,1000,1000,12600,0,0.0028997536282986,0.0029945336282253,0.0028415357228368,10,{}
attack_corridor_base_6,1,yawl_spoof,41594,0.0012981961481273,0.0011162763694301,-0.0798849165439605,-35.3632621,149.1652374,-0.006,-0.02,0.02,0.0,-9.942227188730612e-05,9.444992610951886e-05,0.0,1000,1000,1000,1000,12600,0,0.0027805448044091,0.0027431964408606,0.0026945264544337,10,{}
attack_corridor_base_6,1,yawl_spoof,41926,0.0013448297977447,0.0011655105045065,-0.0802871063351631,-35.3632621,149.1652374,-0.006,0.0,0.0,0.0,-9.94223155430518e-05,9.444991883356124e-05,0.0,1000,1000,1000,1000,12600,0,0.0030545014888048,0.002804793883115,0.0028646930586546,10,{}
attack_corridor_base_6,1,yawl_spoof,42259,0.0014248078223317,0.0012468650238588,-0.0805939510464668,-35.3632621,149.1652374,-0.006,0.0,0.0,0.0,-9.942230099113658e-05,9.444992610951886e-05,0.0,1000,1000,1000,1000,12600,0,0.0026871643494814,0.0027943348977714,0.0027623837813735,10,{}
attack_corridor_base_6,1,yawl_spoof,42592,0.0014906867872923,0.0013116184854879,-0.0808981657028198,-35.3632621,149.1652374,-0.006,0.0,0.0,0.0,-9.942230099113658e-05,9.444992610951886e-05,0.0,1000,1000,1000,1000,12600,0,0.0029501970857381,0.0028438186272978,0.0026201708242297,10,{}
attack_corridor_base_6,1,yawl_spoof,42924,0.0015708385035395,0.001392632140778,-0.0812957286834716,-35.3632621,149.1652374,-0.006,0.0,0.01,0.0,-9.942232281900942e-05,9.444994066143408e-05,0.0,1000,1000,1000,1000,12600,0,0.0028039622120559,0.0026430217549204,0.0026205964386463,10,{}
attack_corridor_base_6,1,yawl_spoof,43259,0.0016237979289144,0.0014427697751671,-0.0816140249371528,-35.3632621,149.1652374,-0.006,-0.01,0.01,0.0,-9.942233009496704e-05,9.44498970056884e-05,0.0,1000,1000,1000,1000,12600,0,0.0030516821425408,0.0028549274429678,0.0029497980140149,10,{}
attack_corridor_base_6,1,yawl_spoof,43591,0.001647439901717,0.0014650505036115,-0.0819223001599311,-35.3632621,149.1652374,-0.006,-0.01,0.01,0.0,-9.942233009496704e-05,9.44498970056884e-05,0.0,1000,1000,1000,1000,12600,0,0.0027156809810549,0.0029887338168919,0.0027140558231621,10,{}
attack_corridor_base_6,1,yawl_spoof,43924,0.0016577050555497,0.0014752496499568,-0.0823276713490486,-35.3632621,149.1652374,-0.006,-0.01,0.01,0.0,-9.942235192283988e-05,9.444986790185794e-05,0.0,1000,1000,1000,1000,12600,0,0.0027601721230894,0.0031043535564094,0.0025318509433418,10,{}
attack_corridor_base_6,1,yawl_spoof,44257,0.0016469918191432,0.0014674648409709,-0.0826359465718269,-35.3632621,149.1652374,-0.006,-0.01,0.01,0.0,-9.942238830262796e-05,9.4449904281646e-05,0.0,1000,1000,1000,1000,12600,0,0.002713028807193,0.0027850926853716,0.0031299835536628,10,{}
attack_corridor_base_6,1,yawl_spoof,44589,0.0016183063853532,0.0014309239340946,-0.0829233229160308,-35.3632621,149.1652375,-0.006,-0.01,0.02,0.0,-9.942238830262796e-05,9.4449904281646e-05,0.0,1000,1000,1000,1000,12600,0,0.0029258800204843,0.0029323736671358,0.0026531293988227,10,{}
attack_corridor_base_6,1,yawl_spoof,44922,0.00156039907597,0.0013775078114122,-0.0832951739430427,-35.3632621,149.1652375,-0.006,-0.01,0.02,0.0,-9.942235192283988e-05,9.444988972973078e-05,0.0,1000,1000,1000,1000,12600,0,0.0028298792894929,0.0029094493947923,0.0029077599756419,10,{}
attack_corridor_base_6,1,yawl_spoof,45104,0.0015223314985632,0.0013403579359874,-0.0834947824478149,-35.3632621,149.1652375,-0.006,-0.01,0.02,0.0,-9.942235192283988e-05,9.444988972973078e-05,0.0,1000,1000,1000,1000,12600,0,0.0027639411855489,0.002871619304642,0.0027487790212035,10,{}
attack_corridor_base_6,1,yawl_spoof,45354,0.0014804797247052,0.0012993920827284,-0.0837104097008705,-35.3632621,149.1652375,-0.006,-0.01,0.02,0.0,-9.942234464688228e-05,9.444988245377316e-05,0.0,1000,1000,1000,1000,12600,0,0.0027639411855489,0.002871619304642,0.0027487790212035,10,{}
attack_corridor_base_6,1,yawl_spoof,45604,0.0014411400770768,0.0012627006508409,-0.0839231014251709,-35.3632622,149.1652375,-0.006,-0.01,0.02,0.0,-9.942233737092464e-05,9.444988972973078e-05,0.0,1000,1000,1000,1000,12600,0,0.0025725185405462,0.0029621843714267,0.0026198888663202,10,{}
attack_corridor_base_6,1,yawl_spoof,45854,0.0013846403453499,0.0012035705149173,-0.0841258689761161,-35.3632622,149.1652375,-0.006,-0.01,0.02,0.0,-9.942232281900942e-05,9.444987517781556e-05,0.0,1000,1000,1000,1000,12600,0,0.0030863878782838,0.0027566668577492,0.0029086922295391,10,{}
attack_corridor_base_6,1,yawl_spoof,46104,0.0013428085949271,0.0011582352453842,-0.0843303054571151,-35.3632622,149.1652375,-0.006,-0.01,0.01,0.0,-9.942230099113658e-05,9.444988245377316e-05,0.0,1000,1000,1000,1000,12600,0,0.0029848872218281,0.0028086963575333,0.0028126961551606,10,{}
attack_corridor_base_6,1,yawl_spoof,46352,0.0013025023508816,0.0011123078875243,-0.0845018252730369,-35.3632622,149.1652375,-0.006,-0.01,0.01,0.0,-9.942228643922137e-05,9.444988245377316e-05,0.0,1000,1000,1000,1000,12600,0,0.0025709944311529,0.0027074618265032,0.0028636532370001,10,{}
attack_corridor_base_6,1,yawl_spoof,46602,0.001277262228541,0.0010922300862148,-0.0846611112356185,-35.3632622,149.1652375,-0.006,-0.01,0.01,0.0,-9.942232281900942e-05,9.444991155760364e-05,0.0,1000,1000,1000,1000,12600,0,0.0026421651709824,0.0028156084008514,0.0026463067624717,10,{}
attack_corridor_base_6,1,yawl_spoof,46852,0.0012309965677559,0.0010524387471377,-0.084863856434822,-35.3632621,149.1652375,-0.006,-0.01,0.01,0.0,-9.942226461134852e-05,9.444991155760364e-05,0.0,1000,1000,1000,1000,12600,0,0.0029707022476941,0.0026457230560481,0.0024611451663076,10,{}
attack_corridor_base_6,1,yawl_spoof,47104,0.0011975904926657,0.0010227134916931,-0.0850404724478721,-35.3632621,149.1652375,-0.006,-0.01,0.01,0.0,-9.942225005943328e-05,9.444992610951886e-05,0.0,1000,1000,1000,1000,12600,0,0.0028023007325828,0.0026535729411989,0.0023823615629225,10,{}
attack_corridor_base_6,1,yawl_spoof,47354,0.0011719116009771,0.0010003843344748,-0.0852296352386474,-35.3632621,149.1652375,-0.006,-0.01,0.01,0.0,-9.94222136796452e-05,9.44498970056884e-05,0.0,1000,1000,1000,1000,12600,0,0.0029850788414478,0.0028518245089799,0.0027925963513553,10,{}
attack_corridor_base_6,1,yawl_spoof,47604,0.001158807077445,0.000987262581475,-0.0853955596685409,-35.3632621,149.1652375,-0.006,-0.01,0.01,0.0,-9.942217729985714e-05,9.444986062590031e-05,0.0,1000,1000,1000,1000,12600,0,0.0027651889249682,0.0027806686703115,0.002833001781255,10,{}
attack_corridor_base_6,1,yawl_spoof,47854,0.0011324296938255,0.0009647379629313,-0.0855831801891326,-35.3632621,149.1652375,-0.006,-0.01,0.01,0.0,-9.942214819602668e-05,9.444982424611226e-05,0.0,1000,1000,1000,1000,12600,0,0.0028726437594741,0.0027113389223814,0.0027382494881749,10,{}
attack_corridor_base_6,1,yawl_spoof,48104,0.0011169440113008,0.0009482037858106,-0.0857379809021949,-35.3632621,149.1652375,-0.006,-0.01,0.01,0.0,-9.942211909219624e-05,9.444982424611226e-05,0.0,1000,1000,1000,1000,12600,0,0.0030948978383094,0.0027696487959474,0.0027956296689808,10,{}
attack_corridor_base_6,1,yawl_spoof,48352,0.0011059866519644,0.0009370085899718,-0.0859232917428016,-35.3632621,149.1652375,-0.006,-0.01,0.01,0.0,-9.9422104540281e-05,9.444980969419704e-05,0.0,1000,1000,1000,1000,12600,0,0.0026993537321686,0.0029867307748645,0.0028631356544792,10,{}
attack_corridor_base_6,1,yawl_spoof,48602,0.0010992470197379,0.0009307488217018,-0.0860808938741684,-35.3632621,149.1652375,-0.006,-0.01,0.01,0.0,-9.942207543645054e-05,9.444980969419704e-05,0.0,1000,1000,1000,1000,12600,0,0.002891200594604,0.0027307234704494,0.0029982773121446,10,{}
attack_corridor_base_6,1,yawl_spoof,48852,0.0010890064295381,0.000922356150113,-0.0862428024411201,-35.3632621,149.1652375,-0.006,-0.01,0.01,0.0,-9.942206816049291e-05,9.44497878663242e-05,0.0,1000,1000,1000,1000,12600,0,0.002841594396159,0.0030615055002272,0.0027512952219694,10,{}
attack_corridor_base_6,1,yawl_spoof,49102,0.0010843920754268,0.00091586378403,-0.0864072665572166,-35.3632621,149.1652375,-0.006,-0.01,0.01,0.0,-9.942202450474724e-05,9.444976603845134e-05,0.0,1000,1000,1000,1000,12600,0,0.0028043596539646,0.0031085521914064,0.002751677064225,10,{}
attack_corridor_base_6,1,yawl_spoof,49354,0.0010827458463609,0.0009113935520872,-0.0865654423832893,-35.3632621,149.1652375,-0.006,-0.01,0.01,0.0,-9.942195902112871e-05,9.444973693462087e-05,0.0,1000,1000,1000,1000,12600,0,0.0027328429277986,0.0026489251758903,0.0027982436586171,10,{}
attack_corridor_base_6,1,yawl_spoof,49604,0.0010833182604983,0.0009119200403802,-0.0867183208465576,-35.3632621,149.1652375,-0.006,-0.01,0.01,0.0,-9.942197357304394e-05,9.444972238270566e-05,0.0,1000,1000,1000,1000,12600,0,0.0027050171047449,0.0028584597166627,0.0026947201695293,10,{}
attack_corridor_base_6,1,yawl_spoof,49854,0.0010778730502352,0.0009135783184319,-0.0868803188204765,-35.3632621,149.1652375,-0.006,-0.01,0.01,0.0,-9.942198812495916e-05,9.444972238270566e-05,0.0,1000,1000,1000,1000,12600,0,0.0026668154168874,0.0028378865681588,0.0026346191298216,10,{}
attack_corridor_base_6,1,yawl_spoof,50104,0.0010775232221931,0.000914690666832,-0.0870360359549522,-35.3632621,149.1652375,-0.006,-0.01,0.01,0.0,-9.942198812495916e-05,9.444970055483282e-05,0.0,1000,1000,1000,1000,12600,0,0.0028905768413096,0.0027850077021867,0.0027597155421972,10,{}
attack_corridor_base_6,1,yawl_spoof,50352,0.0010807048529386,0.0009156184969469,-0.0871860012412071,-35.3632621,149.1652375,-0.006,-0.01,0.01,0.0,-9.94219517451711e-05,9.444964962312952e-05,0.0,1000,1000,1000,1000,12600,0,0.0024053682573139,0.002637889701873,0.0029700126033276,10,{}
attack_corridor_base_6,1,yawl_spoof,50602,0.0010835247812792,0.0009137835004366,-0.0873447433114051,-35.3632621,149.1652375,-0.006,-0.01,0.01,0.0,-9.942196629708631e-05,9.444961324334145e-05,0.0,1000,1000,1000,1000,12600,0,0.0028235607314854,0.0030159980524331,0.0027573858387768,10,{}
attack_corridor_base_6,1,yawl_spoof,50852,0.0010853032581508,0.0009118804591707,-0.0874937549233436,-35.3632621,149.1652375,-0.006,-0.01,0.01,0.0,-9.942192991729826e-05,9.444955503568052e-05,0.0,1000,1000,1000,1000,12600,0,0.0028349093627184,0.0030810760799795,0.0029645063914358,10,{}
attack_corridor_base_6,1,yawl_spoof,51102,0.0010853878920897,0.0009120735921896,-0.087638072669506,-35.3632621,149.1652375,-0.006,-0.01,0.01,0.0,-9.942192264134064e-05,9.444954775972292e-05,0.0,1000,1000,1000,1000,12600,0,0.0026799850165843,0.0026327075902372,0.0027050108183175,10,{}
attack_corridor_base_6,1,yawl_spoof,51354,0.001085813390091,0.0009175768354907,-0.0877843871712684,-35.3632621,149.1652375,-0.006,-0.01,0.01,0.0,-9.94218935375102e-05,9.444951865589246e-05,0.0,1000,1000,1000,1000,12600,0,0.0029122401028871,0.0027383274864405,0.0025523535441607,10,{}
attack_corridor_base_6,1,yawl_spoof,51604,0.001091634039767,0.0009184255613945,-0.0879271700978279,-35.3632621,149.1652375,-0.006,-0.01,0.01,0.0,-9.942188626155256e-05,9.444950410397725e-05,0.0,1000,1000,1000,1000,12600,0,0.0028933412395417,0.0029222385492175,0.0029246697667986,10,{}
attack_corridor_base_6,1,yawl_spoof,51854,0.0010946730617433,0.0009140240726992,-0.0880668014287948,-35.3632621,149.1652375,-0.006,-0.01,0.01,0.0,-9.94219080894254e-05,9.444951865589246e-05,0.0,1000,1000,1000,1000,12600,0,0.0029782506171613,0.0026361104100942,0.0029025685507804,10,{}
attack_corridor_base_6,1,yawl_spoof,52104,0.001099464832805,0.0009063141187652,-0.0882136523723602,-35.3632621,149.1652375,-0.006,-0.01,0.01,0.0,-9.94219008134678e-05,9.4449489552062e-05,0.0,1000,1000,1000,1000,12600,0,0.0029803561046719,0.0025234532076865,0.0028609002474695,10,{}
attack_corridor_base_6,1,yawl_spoof,52354,0.0011040210956707,0.0009052871610037,-0.0883453264832496,-35.3632621,149.1652375,-0.006,-0.01,0.01,0.0,-9.942187898559496e-05,9.4449489552062e-05,0.0,1000,1000,1000,1000,12600,0,0.0027319409418851,0.0028791949152946,0.0028401061426848,10,{}
attack_corridor_base_6,1,yawl_spoof,52602,0.0011081314878538,0.0009157033637166,-0.0884544178843498,-35.3632621,149.1652375,-0.006,-0.01,0.01,0.0,-9.942186443367972e-05,9.444945317227392e-05,0.0,1000,1000,1000,1000,12600,0,0.0031511781271547,0.0027405773289501,0.0027971896342933,10,{}
attack_corridor_base_6,1,yawl_spoof,52852,0.0011104063596576,0.0009180120541714,-0.0885974243283271,-35.3632621,149.1652375,-0.006,-0.01,0.01,0.0,-9.942183532984929e-05,9.444941679248586e-05,0.0,1000,1000,1000,1000,12600,0,0.0029357362072914,0.0030668750405311,0.0029107134323567,10,{}
attack_corridor_base_6,1,yawl_spoof,53102,0.0011100290575996,0.0009140246547758,-0.0887239277362823,-35.3632621,149.1652375,-0.006,-0.01,0.01,0.0,-9.942186443367972e-05,9.444943134440108e-05,0.0,1000,1000,1000,1000,12600,0,0.0027094644028693,0.0028501420747488,0.0026948410086333,10,{}
attack_corridor_base_6,1,yawl_spoof,53354,0.0011169607751071,0.0009218837949447,-0.08887330442667,-35.3632621,149.1652375,-0.006,-0.01,0.01,0.0,-9.942185715772212e-05,9.444944589631632e-05,0.0,1000,1000,1000,1000,12600,0,0.0027912037912756,0.0025407737120985,0.0025785721372812,10,{}
attack_corridor_base_6,1,yawl_spoof,53604,0.0011289530666545,0.0009298947406932,-0.0889998599886894,-35.3632621,149.1652375,-0.006,-0.01,0.01,0.0,-9.942184260580687e-05,9.444943134440108e-05,0.0,1000,1000,1000,1000,12600,0,0.0027636028826236,0.003063402371481,0.0027509357314556,10,{}
attack_corridor_base_6,1,yawl_spoof,53854,0.0011316254967823,0.0009272624738514,-0.0891336277127265,-35.3632621,149.1652375,-0.006,-0.01,0.01,0.0,-9.942180622601882e-05,9.444941679248586e-05,0.0,1000,1000,1000,1000,12600,0,0.0025276294909417,0.002687640953809,0.0029394775629043,10,{}
attack_corridor_base_6,1,yawl_spoof,54104,0.001133176148869,0.0009355432703159,-0.0892647355794906,-35.3632621,149.1652375,-0.006,-0.01,0.01,0.0,-9.942177712218836e-05,9.444940951652824e-05,0.0,1000,1000,1000,1000,12600,0,0.0030245122034102,0.0028088903054594,0.0028744465671479,10,{}
attack_corridor_base_6,1,yawl_spoof,54354,0.0011349148117005,0.0009390068007633,-0.0893965661525726,-35.3632621,149.1652375,-0.006,-0.01,0.01,0.0,-9.94217480183579e-05,9.444936586078256e-05,0.0,1000,1000,1000,1000,12600,0,0.0028915447182953,0.0029433239251375,0.0030009583570063,10,{}
attack_corridor_base_6,1,yawl_spoof,54602,0.0011444736737757,0.0009483124595135,-0.0895159393548965,-35.3632621,149.1652375,-0.006,-0.01,0.01,0.0,-9.942172619048506e-05,9.444937313674018e-05,0.0,1000,1000,1000,1000,12600,0,0.0026453684549778,0.002755707129836,0.0026714955456554,10,{}
attack_corridor_base_6,1,yawl_spoof,54852,0.001144333044067,0.0009473909740336,-0.0896452963352203,-35.3632621,149.1652375,-0.006,-0.01,0.01,0.0,-9.942174074240028e-05,9.444934403290972e-05,0.0,1000,1000,1000,1000,12600,0,0.0031747906468808,0.0029127050656825,0.0029006493277847,10,{}
attack_corridor_base_6,1,yawl_spoof,55102,0.001146687194705,0.0009494174737483,-0.0897677540779113,-35.3632621,149.1652375,-0.006,-0.01,0.01,0.0,-9.942173346644267e-05,9.444930037716404e-05,0.0,1000,1000,1000,1000,12600,0,0.002807936631143,0.0028245018329471,0.0025800231378525,10,{}
attack_corridor_base_6,1,yawl_spoof,55352,0.0011457601794973,0.0009510644595138,-0.0898911207914352,-35.3632621,149.1652375,-0.006,-0.01,0.01,0.0,-9.94217480183579e-05,9.444930037716404e-05,0.0,1000,1000,1000,1000,12600,0,0.0025631352327764,0.0025228960439562,0.0025725215673446,10,{}
attack_corridor_base_6,1,yawl_spoof,55604,0.0011502888519316,0.0009563730563968,-0.0900185480713844,-35.3632621,149.1652375,-0.006,-0.01,0.01,0.0,-9.9421689810697e-05,9.444925672141836e-05,0.0,1000,1000,1000,1000,12600,0,0.0027655109297484,0.0030749649740755,0.0026963385753333,10,{}
attack_corridor_base_6,1,yawl_spoof,55854,0.0011466194409877,0.0009505181224085,-0.0901408642530441,-35.3632621,149.1652375,-0.006,-0.01,0.01,0.0,-9.942168253473938e-05,9.444926399737597e-05,0.0,1000,1000,1000,1000,12600,0,0.0026970626786351,0.0028623472899198,0.0025826371274888,10,{}
attack_corridor_base_6,1,yawl_spoof,56104,0.0011461584363132,0.0009513688273727,-0.0902649387717247,-35.3632621,149.1652375,-0.006,-0.01,0.01,0.0,-9.942168253473938e-05,9.444926399737597e-05,0.0,1000,1000,1000,1000,12600,0,0.0027681624051183,0.0028675596695393,0.0030393858905881,10,{}
attack_corridor_base_6,1,yawl_spoof,56354,0.0011502844281494,0.0009554664720781,-0.0903862565755844,-35.3632621,149.1652375,-0.006,-0.01,0.01,0.0,-9.942167525878176e-05,9.444924216950312e-05,0.0,1000,1000,1000,1000,12600,0,0.0027056431863456,0.0029029136057943,0.0030944880563765,10,{}
attack_corridor_base_6,1,yawl_spoof,56602,0.0011527383467182,0.0009618115727789,-0.0905045345425605,-35.3632621,149.1652375,-0.006,-0.01,0.01,0.0,-9.94216970866546e-05,9.44492785492912e-05,0.0,1000,1000,1000,1000,12600,0,0.0027580154128372,0.0026294719427824,0.0027786518912762,10,{}
attack_corridor_base_6,1,yawl_spoof,56852,0.0011381834046915,0.0009591942653059,-0.0905950516462326,-35.3632621,149.1652375,-0.006,-0.01,0.01,0.0,-9.942175529431552e-05,9.444930765312164e-05,0.0,1000,1000,1000,1000,12600,0,0.0028881374746561,0.0027613772545009,0.0027724271640181,10,{}
attack_corridor_base_6,1,yawl_spoof,57102,0.0011330320267006,0.0009540771134197,-0.0907068997621536,-35.3632621,149.1652375,-0.006,-0.01,0.01,0.0,-9.942178439814596e-05,9.444930037716404e-05,0.0,1000,1000,1000,1000,12600,0,0.0027850053738802,0.0029907100833952,0.0028259379323571,10,{}
attack_corridor_base_6,1,yawl_spoof,57352,0.0011409764410927,0.0009569668327458,-0.0908282175660133,-35.3632621,149.1652375,-0.006,-0.01,0.01,0.0,-9.942182805389166e-05,9.444933675695212e-05,0.0,1000,1000,1000,1000,12600,0,0.0028156011831015,0.0029023857787251,0.0027748784050345,10,{}
attack_corridor_base_6,1,yawl_spoof,57604,0.0011460911482572,0.0009644821984693,-0.0909413918852806,-35.3632622,149.1652375,-0.006,-0.01,0.01,0.0,-9.942182805389166e-05,9.444937313674018e-05,0.0,1000,1000,1000,1000,12600,0,0.0026873731985688,0.0026435637846589,0.0024666949175298,10,{}
attack_corridor_base_6,1,yawl_spoof,57854,0.0011466119904071,0.0009625084348954,-0.0910528376698494,-35.3632621,149.1652375,-0.006,-0.01,0.01,0.0,-9.942181350197644e-05,9.444936586078256e-05,0.0,1000,1000,1000,1000,12600,0,0.0026802695356309,0.0025301838759332,0.0026132501661777,10,{}
attack_corridor_base_6,1,yawl_spoof,58104,0.001150238327682,0.0009602914215065,-0.0911595895886421,-35.3632621,149.1652375,-0.006,-0.01,0.01,0.0,-9.942185715772212e-05,9.444939496461302e-05,0.0,1000,1000,1000,1000,12600,0,0.0026224867906421,0.0027788155712187,0.0025710419286042,10,{}
attack_corridor_base_6,1,yawl_spoof,58354,0.0011542538413777,0.0009660207433626,-0.0912773832678794,-35.3632621,149.1652375,-0.006,-0.01,0.01,0.0,-9.942185715772212e-05,9.44493804126978e-05,0.0,1000,1000,1000,1000,12600,0,0.0030612251721322,0.0027113177347928,0.0027572161052376,10,{}
attack_corridor_base_6,1,yawl_spoof,58604,0.0011546610621735,0.0009717983193695,-0.0913808494806289,-35.3632622,149.1652375,-0.006,-0.01,0.01,0.0,-9.942191536538304e-05,9.444943134440108e-05,0.0,1000,1000,1000,1000,12600,0,0.0031334203667938,0.0030815294012427,0.0028623209800571,10,{}
attack_corridor_base_6,1,yawl_spoof,58852,0.0011538100661709,0.0009683509124442,-0.0914966091513633,-35.3632621,149.1652375,-0.006,-0.01,0.01,0.0,-9.942192991729826e-05,9.44494386203587e-05,0.0,1000,1000,1000,1000,12600,0,0.0029170187190175,0.002799586392939,0.0025556487962603,10,{}
attack_corridor_base_6,1,yawl_spoof,59102,0.0011551947100088,0.0009697854402475,-0.0916008278727531,-35.3632621,149.1652375,-0.006,-0.01,0.01,0.0,-9.942192991729826e-05,9.444942406844348e-05,0.0,1000,1000,1000,1000,12600,0,0.0026698396541178,0.0026876684278249,0.0025346761103719,10,{}
attack_corridor_base_6,1,yawl_spoof,59352,0.0011575749376788,0.0009746067225933,-0.0917069315910339,-35.3632621,149.1652375,-0.006,-0.01,0.01,0.0,-9.942192991729826e-05,9.44493804126978e-05,0.0,1000,1000,1000,1000,12600,0,0.0029575512744486,0.0025698083918541,0.0026848041452467,10,{}
attack_corridor_base_6,1,yawl_spoof,59604,0.0011625707847997,0.0009805090958252,-0.0918111354112625,-35.3632622,149.1652375,-0.006,-0.01,0.01,0.0,-9.942194446921349e-05,9.444936586078256e-05,0.0,1000,1000,1000,1000,12600,0,0.0030077449046075,0.0027688895352184,0.0027435037773102,10,{}
attack_corridor_base_6,1,yawl_spoof,59854,0.0011516455560922,0.0009753592894412,-0.0919136852025985,-35.3632621,149.1652375,-0.006,-0.01,0.01,0.0,-9.942198812495916e-05,9.444939496461302e-05,0.0,1000,1000,1000,1000,12600,0,0.0026662040036171,0.0028036059811711,0.002736208261922,10,{}
attack_corridor_base_6,1,yawl_spoof,60104,0.0011504569556564,0.0009703016839921,-0.0920111387968063,-35.3632621,149.1652375,-0.006,-0.01,0.01,0.0,-9.94219954009168e-05,9.444936586078256e-05,0.0,1000,1000,1000,1000,12600,0,0.0030158718582242,0.0027474574744701,0.002700456418097,10,{}
attack_corridor_base_6,1,yawl_spoof,60354,0.0011522154090926,0.0009683694806881,-0.0921169221401214,-35.3632622,149.1652375,-0.006,-0.01,0.01,0.0,-9.942202450474724e-05,9.444936586078256e-05,0.0,1000,1000,1000,1000,12600,0,0.0026820385828614,0.0027765049599111,0.0027320347726345,10,{}
attack_corridor_base_6,1,yawl_spoof,60604,0.0011581178987398,0.0009714451734907,-0.0922129899263382,-35.3632622,149.1652375,-0.006,-0.01,0.01,0.0,-9.942203905666248e-05,9.444936586078256e-05,0.0,1000,1000,1000,1000,12600,0,0.0027134283445775,0.0028823455795645,0.002858642488718,10,{}
attack_corridor_base_6,1,yawl_spoof,60852,0.0011499288957566,0.0009583971113897,-0.0923200994729995,-35.3632621,149.1652375,-0.006,-0.01,0.01,0.0,-9.942202450474724e-05,9.444935858482496e-05,0.0,1000,1000,1000,1000,12600,0,0.002807357115671,0.0027939474675804,0.0025490240659564,10,{}
attack_corridor_base_6,1,yawl_spoof,61102,0.0011544747976586,0.0009527129586786,-0.0924167707562446,-35.3632622,149.1652375,-0.006,-0.01,0.01,0.0,-9.94220536085777e-05,9.44493804126978e-05,0.0,1000,1000,1000,1000,12600,0,0.0025106337852776,0.0029175973031669,0.0027395230717957,10,{}
attack_corridor_base_6,1,yawl_spoof,61352,0.0011564003070816,0.0009571516420692,-0.0925113782286644,-35.3632622,149.1652375,-0.006,-0.01,0.01,0.0,-9.942203905666248e-05,9.444936586078256e-05,0.0,1000,1000,1000,1000,12600,0,0.0030031965579837,0.0030564833432435,0.0029761821497231,10,{}
attack_corridor_base_6,1,yawl_spoof,61602,0.0011645826743915,0.0009608317050151,-0.0926024466753006,-35.3632622,149.1652375,-0.006,-0.01,0.01,0.0,-9.942208271240816e-05,9.444936586078256e-05,0.0,1000,1000,1000,1000,12600,0,0.0027469261549413,0.0028226263821125,0.0029256776906549,10,{}
attack_corridor_base_6,1,yawl_spoof,61854,0.0011553490767255,0.0009530881070531,-0.0926798060536384,-35.3632622,149.1652375,-0.006,-0.01,0.01,0.0,-9.942209726432338e-05,9.444940951652824e-05,0.0,1000,1000,1000,1000,12600,0,0.0029032113961875,0.0028136840555816,0.0030312021262943,10,{}
attack_corridor_base_6,1,yawl_spoof,62104,0.0011572584044188,0.0009556295699439,-0.0927682295441627,-35.3632621,149.1652375,-0.006,-0.01,0.01,0.0,-9.942209726432338e-05,9.444942406844348e-05,0.0,1000,1000,1000,1000,12600,0,0.0025297517422586,0.0028320522978901,0.0028145094402134,10,{}
attack_corridor_base_6,1,yawl_spoof,62354,0.0011614286340773,0.0009541811887174,-0.0928641632199287,-35.3632622,149.1652375,-0.006,-0.01,0.01,0.0,-9.942213364411144e-05,9.444946044823156e-05,0.0,1000,1000,1000,1000,12600,0,0.0026750296819955,0.002683610888198,0.0026348787359893,10,{}
attack_corridor_base_6,1,yawl_spoof,62604,0.0011635102564468,0.000963757163845,-0.0929483622312545,-35.3632622,149.1652375,-0.006,-0.01,0.01,0.0,-9.942212636815384e-05,9.444947500014678e-05,0.0,1000,1000,1000,1000,12600,0,0.0026495237834751,0.0029550199396908,0.0028511269483715,10,{}
attack_corridor_base_6,1,yawl_spoof,62852,0.0011607281630858,0.0009621633216738,-0.0930438265204429,-35.3632621,149.1652375,-0.006,-0.01,0.01,0.0,-9.942213364411144e-05,9.4449489552062e-05,0.0,1000,1000,1000,1000,12600,0,0.0026120177935808,0.0031740327831357,0.0026498541701585,10,{}
attack_corridor_base_6,1,yawl_spoof,63102,0.0011599001009017,0.0009674552711658,-0.0931378230452537,-35.3632621,149.1652375,-0.006,-0.01,0.01,0.0,-9.94221118162386e-05,9.44494386203587e-05,0.0,1000,1000,1000,1000,12600,0,0.0029320276807993,0.0028574655298143,0.002698762807995,10,{}
attack_corridor_base_6,1,yawl_spoof,63352,0.0011587125482037,0.0009649535641074,-0.0932362824678421,-35.3632622,149.1652375,-0.006,-0.01,0.01,0.0,-9.9422104540281e-05,9.444940951652824e-05,0.0,1000,1000,1000,1000,12600,0,0.0027855681255459,0.0026213510427623,0.0028815087862312,10,{}
attack_corridor_base_6,1,yawl_spoof,63602,0.001161738182418,0.0009743143455125,-0.0933159589767456,-35.3632622,149.1652375,-0.006,-0.01,0.01,0.0,-9.9422104540281e-05,9.44493804126978e-05,0.0,1000,1000,1000,1000,12600,0,0.0029318092856556,0.0025605331175029,0.0025548480916768,10,{}
attack_corridor_base_6,1,yawl_spoof,63854,0.0011584690073505,0.0009707882418297,-0.0934023857116699,-35.3632622,149.1652375,-0.006,-0.01,0.01,0.0,-9.942209726432338e-05,9.444941679248586e-05,0.0,1000,1000,1000,1000,12600,0,0.0029751271940767,0.002937352284789,0.0029288255609571,10,{}
attack_corridor_base_6,1,yawl_spoof,64104,0.0011628748616203,0.0009624826489016,-0.0934859365224838,-35.3632622,149.1652375,-0.006,-0.01,0.01,0.0,-9.942211909219624e-05,9.444942406844348e-05,0.0,1000,1000,1000,1000,12600,0,0.0027495338581502,0.00301188766025,0.0031028869561851,10,{}
attack_corridor_base_6,1,yawl_spoof,64354,0.0011642989702522,0.0009641905198805,-0.09357450902462,-35.3632622,149.1652375,-0.006,-0.01,0.01,0.0,-9.94221554719843e-05,9.44494386203587e-05,0.0,1000,1000,1000,1000,12600,0,0.0029476762283593,0.0028871356043964,0.0028524741064757,10,{}
attack_corridor_base_6,1,yawl_spoof,64604,0.0011741885682567,0.0009669042192399,-0.093657799065113,-35.3632622,149.1652375,-0.006,-0.01,0.01,0.0,-9.942217002389953e-05,9.444946044823156e-05,0.0,1000,1000,1000,1000,12600,0,0.0028981291688978,0.0029549153987318,0.002889412920922,10,{}
attack_corridor_base_6,1,yawl_spoof,64854,0.0011717686429619,0.0009591298294253,-0.0937452092766761,-35.3632622,149.1652375,-0.006,-0.01,0.01,0.0,-9.94222064036876e-05,9.444946044823156e-05,0.0,1000,1000,1000,1000,12600,0,0.0028465164359658,0.0029433602467179,0.0028426800854504,10,{}
attack_corridor_base_6,1,yawl_spoof,65102,0.0011641990859061,0.0009521534666419,-0.0938275754451751,-35.3632621,149.1652375,-0.006,-0.01,0.01,0.0,-9.942217729985714e-05,9.444944589631632e-05,0.0,1000,1000,1000,1000,12600,0,0.0029171127825975,0.0030844872817397,0.0027274095918983,10,{}
attack_corridor_base_6,1,yawl_spoof,65352,0.0011632529785856,0.0009587622480466,-0.093912698328495,-35.3632622,149.1652375,-0.006,-0.01,0.01,0.0,-9.942219912772998e-05,9.444947500014678e-05,0.0,1000,1000,1000,1000,12600,0,0.0028165739495307,0.0026213927194476,0.0029441467486321,10,{}
attack_corridor_base_6,1,yawl_spoof,65602,0.0011653007240965,0.0009651315049268,-0.0939952954649925,-35.3632622,149.1652375,-0.006,-0.01,0.01,0.0,-9.942222095560282e-05,9.444951137993483e-05,0.0,1000,1000,1000,1000,12600,0,0.0027411801274865,0.0025626991409808,0.0027700325008481,10,{}
attack_corridor_base_6,1,yawl_spoof,65854,0.0011631697416305,0.0009609948610886,-0.0940816402435302,-35.3632621,149.1652375,-0.006,-0.01,0.01,0.0,-9.942218457581475e-05,9.4449489552062e-05,0.0,1000,1000,1000,1000,12600,0,0.0027194644790142,0.0029938512016087,0.0026798939798027,10,{}
attack_corridor_base_6,1,yawl_spoof,66104,0.0011659893207252,0.0009625441743992,-0.0941591933369636,-35.3632621,149.1652375,-0.006,-0.01,0.01,0.0,-9.942219912772998e-05,9.4449489552062e-05,0.0,1000,1000,1000,1000,12600,0,0.0026407046243548,0.0029035003390163,0.0028565218672156,10,{}
attack_corridor_base_6,1,yawl_spoof,66354,0.0011718731839209,0.0009609108092263,-0.0942363440990448,-35.3632621,149.1652375,-0.006,-0.01,0.01,0.0,-9.942219912772998e-05,9.444950410397725e-05,0.0,1000,1000,1000,1000,12600,0,0.0027958459686487,0.0028630448505282,0.0027418937534093,10,{}
attack_corridor_base_6,1,yawl_spoof,66604,0.0011726110242307,0.0009753918275237,-0.09431953728199,-35.3632621,149.1652375,-0.006,-0.01,0.01,0.0,-9.942219912772998e-05,9.444949682801962e-05,0.0,1000,1000,1000,1000,12600,0,0.0029651187360286,0.0026440012734383,0.0026662480086088,10,{}
attack_corridor_base_6,1,yawl_spoof,66854,0.0011725417571142,0.0009709883597679,-0.094390332698822,-35.3632621,149.1652375,-0.006,-0.01,0.01,0.0,-9.94221554719843e-05,9.44494822761044e-05,0.0,1000,1000,1000,1000,12600,0,0.0024607828818261,0.0028213772457093,0.0029791288543492,10,{}
attack_corridor_base_6,1,yawl_spoof,67102,0.0011723568895831,0.0009706027340143,-0.0944502353668212,-35.3632621,149.1652375,-0.006,-0.01,0.01,0.0,-9.942216274794192e-05,9.444951137993483e-05,0.0,1000,1000,1000,1000,12600,0,0.0029867633711546,0.0026000149082392,0.003120390465483,10,{}
attack_corridor_base_6,1,yawl_spoof,67352,0.0011733210412785,0.00097326078685,-0.0945143178105354,-35.3632621,149.1652375,-0.006,-0.01,0.01,0.0,-9.94221554719843e-05,9.4449489552062e-05,0.0,1000,1000,1000,1000,12600,0,0.0029602232389152,0.0028745732270181,0.0029355392325669,10,{}
attack_corridor_base_6,1,yawl_spoof,67602,0.0011776604223996,0.0009827303001657,-0.0945861861109733,-35.3632622,149.1652375,-0.006,-0.01,0.01,0.0,-9.942222095560282e-05,9.4449489552062e-05,0.0,1000,1000,1000,1000,12600,0,0.0025624104309827,0.0029712449759244,0.0027293353341519,10,{}
attack_corridor_base_6,1,yawl_spoof,67852,0.001176556572318,0.0009819908300414,-0.094666451215744,-35.3632621,149.1652375,-0.006,-0.01,0.01,0.0,-9.942214092006908e-05,9.444947500014678e-05,0.0,1000,1000,1000,1000,12600,0,0.002663783263415,0.002971030306071,0.002750034444034,10,{}
attack_corridor_base_6,1,yawl_spoof,68104,0.0011775109451264,0.0009816321544349,-0.0947329103946685,-35.3632621,149.1652375,-0.006,-0.01,0.01,0.0,-9.942214092006908e-05,9.444949682801962e-05,0.0,1000,1000,1000,1000,12600,0,0.0031104327645152,0.0026905469130724,0.002464392222464,10,{}
attack_corridor_base_6,1,yawl_spoof,68354,0.0011824790854007,0.0009904473554342,-0.0948094353079795,-35.3632622,149.1652375,-0.006,-0.01,0.01,0.0,-9.942217002389953e-05,9.44494822761044e-05,0.0,1000,1000,1000,1000,12600,0,0.0030359053052961,0.002787479199469,0.0028328639455139,10,{}
attack_corridor_base_6,1,yawl_spoof,68604,0.0011913982452824,0.0009972259867936,-0.0948782339692115,-35.3632622,149.1652375,0.003,-0.01,0.01,0.0,-9.942212636815384e-05,9.44494386203587e-05,0.0,1000,1000,1000,1000,12600,0,0.0028010692913085,0.0031360036227852,0.0030197782907634,10,{}
attack_corridor_base_6,1,yawl_spoof,68854,0.001189706264995,0.0009872312657535,-0.0949513763189315,-35.3632621,149.1652375,0.003,-0.01,0.01,0.0,-9.445300383958966e-05,8.97287973202765e-05,0.0,1000,1000,1000,1000,12600,32,0.0027713514864444,0.0026820129714906,0.0027829583268612,10,{}
attack_corridor_base_6,1,yawl_spoof,69102,0.0011937794042751,0.0009885878534987,-0.0950200408697128,-35.3632621,149.1652375,0.003,-0.01,0.01,0.0,-9.445306932320818e-05,8.972883370006457e-05,0.0,1000,1000,1000,1000,12600,0,0.0027856668457388,0.0026549294125288,0.0025459681637585,10,{}
attack_corridor_base_6,1,yawl_spoof,69352,0.0012153602438047,0.0010050885612145,-0.095095008611679,-35.3632621,149.1652375,0.003,-0.01,0.01,0.0,-9.445309115108104e-05,8.972885552793741e-05,0.0,1000,1000,1000,1000,12600,0,0.0029327464289963,0.002788464538753,0.0028055456932634,10,{}
attack_corridor_base_6,1,yawl_spoof,69602,0.0012440242571756,0.0010363081237301,-0.0951646566390991,-35.3632621,149.1652375,0.003,0.0,0.0,0.0,-9.445309115108104e-05,8.972881914814934e-05,0.0,1000,1000,1000,1000,12600,0,0.0031144137028604,0.003056276589632,0.002839314751327,10,{}
attack_corridor_base_6,1,yawl_spoof,69852,0.0012877641711384,0.0010849594837054,-0.0952364206314086,-35.3632621,149.1652375,0.003,0.0,0.0,0.0,-9.445309115108104e-05,8.97287973202765e-05,0.0,1000,1000,1000,1000,12600,0,0.0026676971465349,0.0029931874014437,0.0029967813752591,10,{}
attack_corridor_base_6,1,yawl_spoof,70104,0.0013440061593428,0.001141480053775,-0.0952835381031036,-35.3632621,149.1652375,0.003,0.0,0.0,0.0,-9.445309115108104e-05,8.972881914814934e-05,0.0,1000,1000,1000,1000,12600,0,0.0026382678188383,0.0026975576765835,0.0027242819778621,10,{}
attack_corridor_base_6,1,yawl_spoof,70354,0.001408094074577,0.0011996092507615,-0.0953685119748115,-35.3632621,149.1652375,0.003,0.0,0.0,0.0,-9.445304749533534e-05,8.972880459623411e-05,0.0,1000,1000,1000,1000,12600,0,0.0028938932809978,0.0027414935175329,0.0027137075085192,10,{}
