flight_id,label,attack_type,timestamp,att_roll,att_pitch,att_yaw,pos_lat,pos_lon,pos_alt_rel,pos_vx,pos_vy,pos_vz,nav_roll,nav_pitch,nav_alt_error,servo1_raw,servo2_raw,servo3_raw,servo4_raw,sys_voltage_battery,sys_load,vib_x,vib_y,vib_z,gps_sats_visible,attack_params_json
attack_corridor_base_17,1,pos_spoof,10084,0.00019025789515580982,-4.1970808524638414e-05,-0.345608651638031,-35.3632621,149.1652374,0.0,0.0,0.0,-0.03,-9.942168253473938e-05,9.444943134440109e-05,0.0,1000,1000,1000,1000,12600,0,0.002969499444589019,0.002794126281514764,0.0028143227100372314,10,{}
attack_corridor_base_17,1,pos_spoof,10416,0.00019763896125368774,-3.2977019145619124e-05,-0.3232947885990143,-35.3632621,149.1652374,0.0,0.0,0.0,-0.03,-9.942168253473938e-05,9.444943134440109e-05,0.0,1000,1000,1000,1000,12600,0,0.0028737857937812805,0.0030885084997862577,0.002697211457416415,10,{}
attack_corridor_base_17,1,pos_spoof,10749,0.00020015524933114648,-2.1984482373227365e-05,-0.2829281985759735,-35.3632621,149.1652374,0.0,0.0,0.0,-0.03,-9.942171163856983e-05,9.444940224057063e-05,0.0,1000,1000,1000,1000,12600,0,0.002822219394147396,0.0027116008568555117,0.00273359683342278,10,{}
attack_corridor_base_17,1,pos_spoof,11082,0.00020408781711012125,-1.4224015103536658e-05,-0.2571628987789154,-35.3632621,149.1652374,0.0,0.0,0.0,-0.03,-9.942161705112085e-05,9.444938041269779e-05,0.0,1000,1000,1000,1000,12600,0,0.002792580518871546,0.0027751305606216192,0.0026959350798279047,10,{}
attack_corridor_base_17,1,pos_spoof,11414,0.00020871605374850333,-6.933332770131528e-06,-0.23295390605926514,-35.3632621,149.1652374,0.0,0.0,0.0,-0.03,-9.942161705112085e-05,9.444938041269779e-05,0.0,1000,1000,1000,1000,12600,0,0.002747411374002695,0.0026371742133051157,0.0027991521637886763,10,{}
attack_corridor_base_17,1,pos_spoof,11749,0.0002158552233595401,5.249519290373428e-07,-0.20410439372062683,-35.3632621,149.1652374,0.0,0.0,0.0,-0.03,-9.942160249920562e-05,9.444941679248586e-05,0.0,1000,1000,1000,1000,12600,0,0.0032993934582918882,0.002687100786715746,0.002421825658529997,10,{}
attack_corridor_base_17,1,pos_spoof,12081,0.00021988713706377894,1.538804644951597e-05,-0.1851813793182373,-35.3632621,149.1652374,0.0,0.0,0.0,-0.02,-9.942162432707846e-05,9.444938041269779e-05,0.0,1000,1000,1000,1000,12600,0,0.002880068263038993,0.002821480156853795,0.0028013791888952255,10,{}
attack_corridor_base_17,1,pos_spoof,12414,0.00022612149768974632,2.135330760211218e-05,-0.1682794690132141,-35.3632621,149.1652374,0.0,0.0,0.0,-0.02,-9.942162432707846e-05,9.444938041269779e-05,0.0,1000,1000,1000,1000,12600,0,0.00275562540628016,0.002889086492359638,0.0028576343320310116,10,{}
attack_corridor_base_17,1,pos_spoof,12746,0.00023624853929504752,3.514202398946509e-05,-0.1485888808965683,-35.3632621,149.1652374,0.0,0.0,0.0,-0.02,-9.942166070686653e-05,9.444935858482495e-05,0.0,1000,1000,1000,1000,12600,0,0.002989754779264331,0.0028661780524998903,0.0029795763548463583,10,{}
attack_corridor_base_17,1,pos_spoof,13079,0.00024683913215994835,3.626735633588396e-05,-0.13569912314414978,-35.3632621,149.1652374,0.0,0.0,0.0,-0.02,-9.942161705112085e-05,9.444936586078256e-05,0.0,1000,1000,1000,1000,12600,0,0.00279306061565876,0.0025599845685064793,0.0028954490553587675,10,{}
attack_corridor_base_17,1,pos_spoof,13412,0.00025587197160348296,4.3985517550027e-05,-0.1243988648056984,-35.3632621,149.1652374,0.0,0.0,0.0,-0.01,-9.942161705112085e-05,9.444936586078256e-05,0.0,1000,1000,1000,1000,12600,0,0.0026573087088763714,0.0025339426938444376,0.0031000685412436724,10,{}
attack_corridor_base_17,1,pos_spoof,13746,0.00026594559312798083,5.651886385749094e-05,-0.11143341660499573,-35.3632621,149.1652374,0.0,0.0,0.0,-0.01,-9.942161705112085e-05,9.444940224057063e-05,0.0,1000,1000,1000,1000,12600,0,0.0027896640822291374,0.0026783072389662266,0.0026771584525704384,10,{}
attack_corridor_base_17,1,pos_spoof,14079,0.0002766734978649765,6.372847565216944e-05,-0.10309643298387527,-35.3632621,149.1652374,0.0,0.0,0.0,-0.01,-9.942151518771425e-05,9.444934403290972e-05,0.0,1000,1000,1000,1000,12600,0,0.002762980991974473,0.002596398815512657,0.0029999057296663523,10,{}
attack_corridor_base_17,1,pos_spoof,14411,0.0002822593960445374,7.292681402759627e-05,-0.09579096734523773,-35.3632621,149.1652374,0.0,0.0,0.0,-0.01,-9.942151518771425e-05,9.444934403290972e-05,0.0,1000,1000,1000,1000,12600,0,0.0028597605414688587,0.0027069607749581337,0.0026365029625594616,10,{}
attack_corridor_base_17,1,pos_spoof,14744,0.0002973198425024748,8.317918400280178e-05,-0.08943267911672592,-35.3632621,149.1652374,0.0,0.0,0.0,-0.01,-9.942150791175663e-05,9.444932220503688e-05,0.0,1000,1000,1000,1000,12600,0,0.0029120391700416803,0.002733659464865923,0.0027298617642372847,10,{}
attack_corridor_base_17,1,pos_spoof,15077,0.00030949903884902596,9.605081140762195e-05,-0.08207830786705017,-35.3632621,149.1652374,0.0,0.0,0.0,-0.01,-9.942151518771425e-05,9.444937313674018e-05,0.0,1000,1000,1000,1000,12600,0,0.0029958407394587994,0.0025778398849070072,0.0027929143980145454,10,{}
attack_corridor_base_17,1,pos_spoof,15359,0.0003211866714991629,0.00010703221778385341,-0.0771338939666748,-35.3632621,149.1652374,0.0,0.0,0.0,-0.01,-9.942151518771425e-05,9.444937313674018e-05,0.0,1000,1000,1000,1000,12600,0,0.0026851643342524767,0.0028445946518331766,0.0028775304090231657,10,{}
attack_corridor_base_17,1,pos_spoof,15609,0.0003307907027192414,0.00011150518548674881,-0.07378612458705902,-35.3632621,149.1652374,0.0,0.0,0.0,-0.01,-9.942150063579902e-05,9.444935858482495e-05,0.0,1000,1000,1000,1000,12600,0,0.0026851643342524767,0.0028445946518331766,0.0028775304090231657,10,{}
attack_corridor_base_17,1,pos_spoof,15859,0.0003363890282344073,0.00012000498827546835,-0.07087501883506775,-35.3632621,149.1652374,0.0,0.0,0.0,0.0,-9.942148608388379e-05,9.444936586078256e-05,0.0,1000,1000,1000,1000,12600,0,0.0026640279684215784,0.002792098093777895,0.0025840585585683584,10,{}
attack_corridor_base_17,1,pos_spoof,16109,0.00034575845347717404,0.00012983879423700273,-0.06822995096445084,-35.3632621,149.1652374,0.0,0.0,0.0,0.0,-9.942147153196856e-05,9.444935858482495e-05,0.0,1000,1000,1000,1000,12600,0,0.0026499242521822453,0.002886570291593671,0.0024996548891067505,10,{}
attack_corridor_base_17,1,pos_spoof,16359,0.00035378028405830264,0.0001375292195007205,-0.06591206789016724,-35.3632621,149.1652374,0.0,0.0,0.0,0.0,-9.942147153196856e-05,9.444935858482495e-05,0.0,1000,1000,1000,1000,12600,0,0.002905152505263686,0.0028612499590963125,0.0026816504541784525,10,{}
attack_corridor_base_17,1,pos_spoof,16609,0.00036622723564505577,0.0001452677242923528,-0.06388644129037857,-35.3632621,149.1652374,0.0,0.0,0.0,0.0,-9.942151518771425e-05,9.444939496461302e-05,0.0,1000,1000,1000,1000,12600,0,0.0030702329240739346,0.0028023950289934874,0.0027498232666403055,10,{}
attack_corridor_base_17,1,pos_spoof,16859,0.0003762731794267893,0.00015426664322149009,-0.062099505215883255,-35.3632621,149.1652374,0.0,0.0,0.0,0.0,-9.942151518771425e-05,9.444939496461302e-05,0.0,1000,1000,1000,1000,12600,0,0.003136045066639781,0.002573417266830802,0.0025887133087962866,10,{}
attack_corridor_base_17,1,pos_spoof,17417,0.00039598075090907514,0.00016818726726341993,-0.05916174501180649,-35.3632621,149.1652374,0.0,0.0,0.0,0.0,-9.942146425601095e-05,9.444935130886734e-05,0.0,1000,1000,1000,1000,12600,0,0.003016294213011861,0.0026016102638095617,0.003029768355190754,10,{}
attack_corridor_base_17,1,pos_spoof,17749,0.0004118081124033779,0.00018175478908233345,-0.05741751566529274,-35.3632621,149.1652374,0.0,0.0,0.0,0.0,-9.942162432707846e-05,9.444937313674018e-05,0.0,1000,1000,1000,1000,12600,0,0.0026194038800895214,0.0028639514930546284,0.002528201090171933,10,{}
attack_corridor_base_17,1,pos_spoof,18081,0.00042310418211854994,0.0001974884798983112,-0.05630369856953621,-35.3632621,149.1652374,0.0,0.0,0.0,0.0,-9.942165343090892e-05,9.444935130886734e-05,0.0,1000,1000,1000,1000,12600,0,0.0030783317051827908,0.002832933561876416,0.0029439814388751984,10,{}
attack_corridor_base_17,1,pos_spoof,18414,0.0004345015622675419,0.00021006733004469424,-0.05538032948970795,-35.3632621,149.1652374,0.0,0.0,0.0,0.0,-9.942165343090892e-05,9.444935130886734e-05,0.0,1000,1000,1000,1000,12600,0,0.0027133189141750336,0.002904227701947093,0.003171168267726898,10,{}
attack_corridor_base_17,1,pos_spoof,18749,0.00044679653365164995,0.0002253019920317456,-0.05465735122561455,-35.3632621,149.1652374,0.0,0.0,0.0,0.0,-9.942161705112085e-05,9.444930037716404e-05,0.0,1000,1000,1000,1000,12600,0,0.0027133189141750336,0.002904227701947093,0.003171168267726898,10,{}
attack_corridor_base_17,1,pos_spoof,19081,0.0004717833362519741,0.00024556374410167336,-0.05388868972659111,-35.3632621,149.1652374,0.0,0.0,0.0,0.0,-9.942165343090892e-05,9.444930037716404e-05,0.0,1000,1000,1000,1000,12600,0,0.003074739361181855,0.003367649158462882,0.0026950002647936344,10,{}
attack_corridor_base_17,1,pos_spoof,19414,0.0004831823462154716,0.0002545509778428823,-0.053514666855335236,-35.3632621,149.1652374,0.0,0.0,0.0,0.0,-9.942165343090892e-05,9.444930037716404e-05,0.0,1000,1000,1000,1000,12600,0,0.0030109728686511517,0.002799158450216055,0.0027157007716596127,10,{}
attack_corridor_base_17,1,pos_spoof,19747,0.0004989444278180599,0.0002662921033333987,-0.053191475570201874,-35.3632621,149.1652374,0.0,0.0,0.0,0.0,-9.94216461549513e-05,9.444933675695211e-05,0.0,1000,1000,1000,1000,12600,0,0.002815170446410775,0.002850548131391406,0.0024546205531805754,10,{}
attack_corridor_base_17,1,pos_spoof,20079,0.0005284781800583005,0.00028825647314079106,-0.052757155150175095,-35.3632621,149.1652374,0.007,0.0,0.0,0.0,-9.942174074240029e-05,9.444937313674018e-05,0.0,1000,1000,1000,1000,12600,0,0.0027528342325240374,0.002862508175894618,0.0028320136480033398,10,{}
attack_corridor_base_17,1,pos_spoof,20414,0.0005371561856009066,0.0003046338679268956,-0.05264509841799736,-35.3632621,149.1652374,-0.008,0.0,0.0,0.0,-9.942174074240029e-05,9.444937313674018e-05,0.0,1000,1000,1000,1000,12600,0,0.0030959846917539835,0.002851929748430848,0.0029391904827207327,10,{}
attack_corridor_base_17,1,pos_spoof,20746,0.0005521971615962684,0.00032260024454444647,-0.052669066935777664,-35.3632621,149.1652374,-0.008,0.0,0.0,0.0,-9.942172619048506e-05,9.44493876886554e-05,0.0,1000,1000,1000,1000,12600,0,0.002827942371368408,0.0028809586074203253,0.0028394407127052546,10,{}
attack_corridor_base_17,1,pos_spoof,21079,0.0005716860760003328,0.00034115754533559084,-0.05280059203505516,-35.3632621,149.1652374,-0.006,0.0,0.0,0.0,-9.942177712218836e-05,9.444940224057063e-05,0.0,1000,1000,1000,1000,12600,0,0.002877101767808199,0.0027332815807312727,0.003003427293151617,10,{}
attack_corridor_base_17,1,pos_spoof,21412,0.0005901781260035932,0.0003537211159709841,-0.05297232046723366,-35.3632621,149.1652374,-0.004,0.0,0.0,0.0,-9.942177712218836e-05,9.444940224057063e-05,0.0,1000,1000,1000,1000,12600,0,0.002621064195409417,0.0029036139603704214,0.0030346568673849106,10,{}
attack_corridor_base_17,1,pos_spoof,21744,0.0006060348823666573,0.0003724823473021388,-0.05316585302352905,-35.3632621,149.1652374,-0.003,0.0,0.0,0.0,-9.942179167410359e-05,9.444934403290972e-05,0.0,1000,1000,1000,1000,12600,0,0.0029289433732628822,0.002873015124350786,0.002687697531655431,10,{}
attack_corridor_base_17,1,pos_spoof,22079,0.0006327551091089845,0.0003925400669686496,-0.05348239466547966,-35.3632621,149.1652374,-0.001,0.0,0.01,0.0,-9.942183532984927e-05,9.444942406844348e-05,0.0,1000,1000,1000,1000,12600,0,0.002951237605884671,0.002860450651496649,0.002779291244223714,10,{}
attack_corridor_base_17,1,pos_spoof,22411,0.0006518001318909228,0.0004110144218429923,-0.05378078296780586,-35.3632621,149.1652374,0.0,0.0,0.01,0.0,-9.942183532984927e-05,9.444942406844348e-05,0.0,1000,1000,1000,1000,12600,0,0.002830690238624811,0.0030116077978163958,0.00271585606969893,10,{}
attack_corridor_base_17,1,pos_spoof,22744,0.0006686508422717452,0.0004348329093772918,-0.05409930646419525,-35.3632621,149.1652374,0.0,0.0,0.01,0.0,-9.942194446921349e-05,9.444948227610439e-05,0.0,1000,1000,1000,1000,12600,0,0.002513290150091052,0.0029518629889935255,0.0027843420393764973,10,{}
attack_corridor_base_17,1,pos_spoof,23076,0.0006934392149560153,0.0004583281115628779,-0.05458403378725052,-35.3632621,149.1652374,0.0,0.0,0.01,0.0,-9.942195902112871e-05,9.444947500014678e-05,0.0,1000,1000,1000,1000,12600,0,0.0027759058866649866,0.002569810254499316,0.0028110574930906296,10,{}
attack_corridor_base_17,1,pos_spoof,23409,0.0007070013671182096,0.00047475757310166955,-0.05499948561191559,-35.3632621,149.1652374,0.001,-0.01,0.01,0.0,-9.942195902112871e-05,9.444947500014678e-05,0.0,1000,1000,1000,1000,12600,0,0.002707144943997264,0.0027053419034928083,0.003137465100735426,10,{}
attack_corridor_base_17,1,pos_spoof,23742,0.00072102079866454,0.0004888851544819772,-0.055384743958711624,-35.3632621,149.1652374,0.002,-0.01,0.01,0.0,-9.94218498817645e-05,9.44494386203587e-05,0.0,1000,1000,1000,1000,12600,0,0.0028185038827359676,0.0029890777077525854,0.0027528442442417145,10,{}
attack_corridor_base_17,1,pos_spoof,24077,0.0007418065797537565,0.0005144888418726623,-0.055922649800777435,-35.3632621,149.1652374,0.002,-0.01,0.01,0.0,-9.942186443367973e-05,9.444941679248586e-05,0.0,1000,1000,1000,1000,12600,0,0.0029357895255088806,0.002515292027965188,0.002783531788736582,10,{}
attack_corridor_base_17,1,pos_spoof,24409,0.0007537677884101868,0.0005273231654427946,-0.056375253945589066,-35.3632621,149.1652374,0.002,-0.01,0.01,0.0,-9.942186443367973e-05,9.444941679248586e-05,0.0,1000,1000,1000,1000,12600,0,0.002910879673436284,0.0025305759627372026,0.0025797104462981224,10,{}
attack_corridor_base_17,1,pos_spoof,24741,0.0007711689104326069,0.0005447455914691091,-0.05680128186941147,-35.3632621,149.1652374,0.002,-0.01,0.01,0.0,-9.942190808942541e-05,9.444947500014678e-05,0.0,1000,1000,1000,1000,12600,0,0.003048370126634836,0.0028326879255473614,0.0027879311237484217,10,{}
attack_corridor_base_17,1,pos_spoof,25074,0.0007918460760265589,0.0005674771964550018,-0.05740649625658989,-35.3632621,149.1652374,0.003,-0.01,0.01,0.0,-9.942190808942541e-05,9.444949682801962e-05,0.0,1000,1000,1000,1000,12600,0,0.0027407039888203144,0.0027785683050751686,0.0027277322951704264,10,{}
attack_corridor_base_17,1,pos_spoof,25407,0.0008017939398996532,0.0005784373497590423,-0.05786101520061493,-35.3632621,149.1652374,0.003,-0.01,0.01,0.0,-9.942190808942541e-05,9.444949682801962e-05,0.0,1000,1000,1000,1000,12600,0,0.0028007393702864647,0.0028577703051269054,0.002896574791520834,10,{}
attack_corridor_base_17,1,pos_spoof,25742,0.0008204861078411341,0.0005976916290819645,-0.05821606516838074,-35.3632621,149.1652374,0.003,-0.01,0.01,0.0,-9.94219008134678e-05,9.444952593185008e-05,0.0,1000,1000,1000,1000,12600,0,0.002754500135779381,0.0027534302789717913,0.0028391792438924313,10,{}
attack_corridor_base_17,1,pos_spoof,26074,0.0008370836731046438,0.0006184245576150715,-0.058848198503255844,-35.3632621,149.1652374,0.002,-0.01,0.01,0.0,-9.942187898559496e-05,9.444946772418916e-05,0.0,1000,1000,1000,1000,12600,0,0.002737777540460229,0.0027439752593636513,0.0029773388523608446,10,{}
attack_corridor_base_17,1,pos_spoof,26406,0.0008519734255969524,0.000620910432189703,-0.05933873727917671,-35.3632621,149.1652374,0.002,-0.01,0.01,0.0,-9.942187898559496e-05,9.444946772418916e-05,0.0,1000,1000,1000,1000,12600,0,0.0026375458110123873,0.002851461060345173,0.002825129311531782,10,{}
attack_corridor_base_17,1,pos_spoof,26739,0.0008664089255034924,0.0006311538745649159,-0.059827812016010284,-35.3632621,149.1652374,0.002,-0.01,0.01,0.0,-9.942191536538303e-05,9.444946044823155e-05,0.0,1000,1000,1000,1000,12600,0,0.002541563007980585,0.0030097984708845615,0.0025503570213913918,10,{}
attack_corridor_base_17,1,pos_spoof,27074,0.0008795055327937007,0.0006449555512517691,-0.06049179658293724,-35.3632621,149.1652374,0.002,-0.01,0.01,0.0,-9.942195902112871e-05,9.4449489552062e-05,0.0,1000,1000,1000,1000,12600,0,0.0029550089966505766,0.003058123402297497,0.0029211172368377447,10,{}
attack_corridor_base_17,1,pos_spoof,27406,0.0008941706037148833,0.0006552305421791971,-0.060983166098594666,-35.3632621,149.1652374,0.002,-0.01,0.01,0.0,-9.942195902112871e-05,9.4449489552062e-05,0.0,1000,1000,1000,1000,12600,0,0.0026391008868813515,0.0027268806006759405,0.002783785806968808,10,{}
attack_corridor_base_17,1,pos_spoof,27739,0.0009043230093084276,0.0006643096567131579,-0.06150725483894348,-35.3632621,149.1652374,0.001,-0.01,0.01,0.0,-9.942195902112871e-05,9.444947500014678e-05,0.0,1000,1000,1000,1000,12600,0,0.0028462728951126337,0.002686312422156334,0.0025533614680171013,10,{}
attack_corridor_base_17,1,pos_spoof,28072,0.000918859092053026,0.0006795989465899765,-0.06215030327439308,-35.3632621,149.1652374,0.001,-0.01,0.01,0.0,-9.942200995283201e-05,9.444954775972292e-05,0.0,1000,1000,1000,1000,12600,0,0.002839966444298625,0.0029861941002309322,0.0027074129320681095,10,{}
attack_corridor_base_17,1,pos_spoof,28404,0.0009291772148571908,0.0006909887306392193,-0.0626591295003891,-35.3632621,149.1652374,0.001,-0.01,0.01,0.0,-9.942200995283201e-05,9.444954775972292e-05,0.0,1000,1000,1000,1000,12600,0,0.002855285769328475,0.002724010730162263,0.0028499613981693983,10,{}
attack_corridor_base_17,1,pos_spoof,28739,0.0009459624416194856,0.0007059992640279233,-0.06313201040029526,-35.3632621,149.1652374,0.0,-0.01,0.01,0.0,-9.9422104540281e-05,9.444961324334145e-05,0.0,1000,1000,1000,1000,12600,0,0.002762553282082081,0.0028917300514876842,0.003053150372579694,10,{}
attack_corridor_base_17,1,pos_spoof,29071,0.0009529570234008133,0.0007248564506880939,-0.06377744674682617,-35.3632621,149.1652374,0.0,-0.01,0.01,0.0,-9.942221367964521e-05,9.444967872695997e-05,0.0,1000,1000,1000,1000,12600,0,0.002678163116797805,0.0027257613837718964,0.0025093890726566315,10,{}
attack_corridor_base_17,1,pos_spoof,29404,0.0009687635465525091,0.000737447349820286,-0.06424973905086517,-35.3632621,149.1652374,0.0,-0.01,0.01,0.0,-9.942221367964521e-05,9.444967872695997e-05,0.0,1000,1000,1000,1000,12600,0,0.0027040981221944094,0.0027155079878866673,0.0026558677200227976,10,{}
attack_corridor_base_17,1,pos_spoof,29737,0.0009775429498404264,0.0007449546828866005,-0.06472276151180267,-35.3632621,149.1652374,0.0,-0.01,0.02,0.0,-9.942228643922135e-05,9.44496932788752e-05,0.0,1000,1000,1000,1000,12600,0,0.0028979263734072447,0.0032320194877684116,0.002915088552981615,10,{}
attack_corridor_base_17,1,pos_spoof,30069,0.0009891664376482368,0.0007623895653523505,-0.0653599426150322,-35.3632621,149.1652374,0.0,-0.01,0.02,0.0,-9.94224101305008e-05,9.444980241823941e-05,0.0,1000,1000,1000,1000,12600,0,0.0029034402687102556,0.002773815067484975,0.0030529387295246124,10,{}
attack_corridor_base_17,1,pos_spoof,30359,0.0009993229759857059,0.0007764409529045224,-0.06582429260015488,-35.3632621,149.1652374,-0.001,-0.01,0.02,0.0,-9.94224101305008e-05,9.444980241823941e-05,0.0,1000,1000,1000,1000,12600,0,0.0026301175821572542,0.002756571862846613,0.003066662698984146,10,{}
attack_corridor_base_17,1,pos_spoof,30609,0.0010032141581177711,0.000782694376539439,-0.06622231006622314,-35.3632621,149.1652374,-0.001,-0.01,0.02,0.0,-9.942236647475511e-05,9.444978059036657e-05,0.0,1000,1000,1000,1000,12600,0,0.0026301175821572542,0.002756571862846613,0.003066662698984146,10,{}
attack_corridor_base_17,1,pos_spoof,30859,0.0010150817688554525,0.000789501762483269,-0.06658732891082764,-35.3632621,149.1652374,-0.001,-0.01,0.02,0.0,-9.942243195837364e-05,9.444985334994271e-05,0.0,1000,1000,1000,1000,12600,0,0.0027452956419438124,0.0027041237335652113,0.0029417253099381924,10,{}
attack_corridor_base_17,1,pos_spoof,31404,0.0010302014416083694,0.0008001132518984377,-0.06734599173069,-35.3632621,149.1652374,-0.002,-0.01,0.02,0.0,-9.942253382178023e-05,9.444995521334931e-05,0.0,1000,1000,1000,1000,12600,0,0.0028622495010495186,0.002820268040522933,0.002973902504891157,10,{}
attack_corridor_base_17,1,pos_spoof,31737,0.0010399596067145467,0.0008091439958661795,-0.06773605942726135,-35.3632621,149.1652374,-0.002,-0.01,0.02,0.0,-9.942250471794978e-05,9.444991883356124e-05,0.0,1000,1000,1000,1000,12600,0,0.002667003544047475,0.002894102595746517,0.002950228750705719,10,{}
attack_corridor_base_17,1,pos_spoof,32069,0.0010437481105327606,0.000810996803920716,-0.06829917430877686,-35.3632621,149.1652374,-0.003,-0.01,0.02,0.0,-9.942249016603455e-05,9.444988972973078e-05,0.0,1000,1000,1000,1000,12600,0,0.0027702704537659883,0.002921447390690446,0.002719338284805417,10,{}
attack_corridor_base_17,1,pos_spoof,32402,0.0010564950061962008,0.0008200086303986609,-0.06873688846826553,-35.3632621,149.1652374,-0.003,-0.01,0.02,0.0,-9.942243923433125e-05,9.444992610951886e-05,0.0,1000,1000,1000,1000,12600,0,0.003146572271361947,0.002726596547290683,0.0029289782978594303,10,{}
attack_corridor_base_17,1,pos_spoof,32734,0.0010643722489476204,0.000830227043479681,-0.06918973475694656,-35.3632621,149.1652374,-0.003,-0.01,0.02,0.0,-9.942254837369546e-05,9.444998431717977e-05,0.0,1000,1000,1000,1000,12600,0,0.003146572271361947,0.002726596547290683,0.0029289782978594303,10,{}
attack_corridor_base_17,1,pos_spoof,33069,0.0010742906015366316,0.0008469499298371375,-0.06975739449262619,-35.3632621,149.1652374,-0.004,-0.01,0.02,0.0,-9.942254837369546e-05,9.444994066143408e-05,0.0,1000,1000,1000,1000,12600,0,0.0025669103488326073,0.002498623915016651,0.002899191342294216,10,{}
attack_corridor_base_17,1,pos_spoof,33401,0.001088815159164369,0.0008588646887801588,-0.07018669694662094,-35.3632621,149.1652374,-0.004,-0.01,0.02,0.0,-9.942253382178023e-05,9.444992610951886e-05,0.0,1000,1000,1000,1000,12600,0,0.002778698457404971,0.002686606952920556,0.0026427002158015966,10,{}
attack_corridor_base_17,1,pos_spoof,33734,0.0011021880200132728,0.0008695994620211422,-0.07060777395963669,-35.3632621,149.1652374,-0.004,-0.01,0.02,0.0,-9.942253382178023e-05,9.444992610951886e-05,0.0,1000,1000,1000,1000,12600,0,0.002891074400395155,0.0029131537303328514,0.0028255139477550983,10,{}
attack_corridor_base_17,1,pos_spoof,34067,0.0011173175880685449,0.000877134210895747,-0.07117509841918945,-35.3632621,149.1652374,-0.005,-0.02,0.02,0.0,-9.942249744199216e-05,9.444998431717977e-05,0.0,1000,1000,1000,1000,12600,0,0.0025568718556314707,0.002870545955374837,0.0029153835494071245,10,{}
attack_corridor_base_17,1,pos_spoof,34399,0.0011206472991034389,0.0008896344806998968,-0.07157810032367706,-35.3632621,149.1652374,-0.005,-0.02,0.02,0.0,-9.942249744199216e-05,9.444998431717977e-05,0.0,1000,1000,1000,1000,12600,0,0.002803684677928686,0.002876044949516654,0.002764181699603796,10,{}
attack_corridor_base_17,1,pos_spoof,34734,0.0011336096795275807,0.0009010051726363599,-0.07198461145162582,-35.3632621,149.1652374,-0.005,-0.02,0.02,0.0,-9.942241740645841e-05,9.44499479373917e-05,0.0,1000,1000,1000,1000,12600,0,0.0028229709714651108,0.002704314421862364,0.0031242319382727146,10,{}
attack_corridor_base_17,1,pos_spoof,35066,0.0011463630944490433,0.0009183367365039885,-0.07251133024692535,-35.3632621,149.1652374,-0.005,-0.02,0.02,0.0,-9.942235192283988e-05,9.444992610951886e-05,0.0,1000,1000,1000,1000,12600,0,0.002744147088378668,0.002877973485738039,0.0027320808731019497,10,{}
attack_corridor_base_17,1,pos_spoof,35399,0.0011515544028952718,0.0009278377401642501,-0.07290922850370407,-35.3632621,149.1652374,-0.005,-0.02,0.02,0.0,-9.942235192283988e-05,9.444992610951886e-05,0.0,1000,1000,1000,1000,12600,0,0.0026190190110355616,0.0028870203532278538,0.0024286918342113495,10,{}
attack_corridor_base_17,1,pos_spoof,35731,0.0011601706501096487,0.0009346735314466059,-0.07329468429088593,-35.3632621,149.1652374,-0.005,-0.02,0.02,0.0,-9.942236647475511e-05,9.444993338547647e-05,0.0,1000,1000,1000,1000,12600,0,0.0027367020957171917,0.002890209201723337,0.002828540513291955,10,{}
attack_corridor_base_17,1,pos_spoof,36064,0.0011665037600323558,0.0009388676844537258,-0.07374954968690872,-35.3632621,149.1652374,-0.005,-0.02,0.02,0.0,-9.942233737092465e-05,9.44499479373917e-05,0.0,1000,1000,1000,1000,12600,0,0.0026794823352247477,0.0027447028551250696,0.0026451258454471827,10,{}
attack_corridor_base_17,1,pos_spoof,36397,0.0011758258333429694,0.0009519307059235871,-0.07411164790391922,-35.3632621,149.1652374,-0.005,-0.02,0.02,0.0,-9.942233737092465e-05,9.44499479373917e-05,0.0,1000,1000,1000,1000,12600,0,0.0029015231411904097,0.0026862705126404762,0.0027473156806081533,10,{}
attack_corridor_base_17,1,pos_spoof,36731,0.0011827151756733656,0.0009667997364886105,-0.07450424134731293,-35.3632621,149.1652374,-0.005,-0.02,0.02,0.0,-9.942233009496704e-05,9.444991155760363e-05,0.0,1000,1000,1000,1000,12600,0,0.002800909336656332,0.0025933044962584972,0.0027820789255201817,10,{}
attack_corridor_base_17,1,pos_spoof,37064,0.0011974809458479285,0.0009863432496786118,-0.07497979700565338,-35.3632621,149.1652374,-0.005,-0.02,0.02,0.0,-9.942235192283988e-05,9.44498970056884e-05,0.0,1000,1000,1000,1000,12600,0,0.0026258898433297873,0.002812790684401989,0.0027843357529491186,10,{}
attack_corridor_base_17,1,pos_spoof,37396,0.0012059545842930675,0.0009981326293200254,-0.07534892857074738,-35.3632621,149.1652374,-0.005,-0.02,0.02,0.0,-9.942235192283988e-05,9.44498970056884e-05,0.0,1000,1000,1000,1000,12600,0,0.002901263302192092,0.0030746401753276587,0.0027572596445679665,10,{}
attack_corridor_base_17,1,pos_spoof,37729,0.0012106791837140918,0.0010074463207274675,-0.07570759207010269,-35.3632621,149.1652374,-0.005,-0.02,0.02,0.0,-9.942234464688227e-05,9.444990428164601e-05,0.0,1000,1000,1000,1000,12600,0,0.002826770767569542,0.0030686622485518456,0.0025991785805672407,10,{}
attack_corridor_base_17,1,pos_spoof,38062,0.0012168416287750006,0.001028070691972971,-0.07618723809719086,-35.3632621,149.1652374,-0.006,-0.02,0.02,0.0,-9.942233737092465e-05,9.444986062590033e-05,0.0,1000,1000,1000,1000,12600,0,0.0030384184792637825,0.002740402240306139,0.002478172769770026,10,{}
attack_corridor_base_17,1,pos_spoof,38397,0.0012297244975343347,0.001037239097058773,-0.07653412222862244,-35.3632621,149.1652374,-0.006,-0.02,0.02,0.0,-9.942233737092465e-05,9.444986062590033e-05,0.0,1000,1000,1000,1000,12600,0,0.002932357368990779,0.0028518273029476404,0.0027170178946107626,10,{}
attack_corridor_base_17,1,pos_spoof,38729,0.001239535748027265,0.0010432814015075564,-0.07688131183385849,-35.3632621,149.1652374,-0.006,-0.02,0.02,0.0,-9.942233009496704e-05,9.444986790185794e-05,0.0,1000,1000,1000,1000,12600,0,0.002696567215025425,0.002798458095639944,0.002750029321759939,10,{}
attack_corridor_base_17,1,pos_spoof,39061,0.0012474217219278216,0.0010642582783475518,-0.07734160870313644,-35.3632621,149.1652374,-0.006,-0.02,0.02,0.0,-9.942227916326374e-05,9.444988245377317e-05,0.0,1000,1000,1000,1000,12600,0,0.0029853121377527714,0.0030998438596725464,0.002856799401342869,10,{}
attack_corridor_base_17,1,pos_spoof,39394,0.0012507627252489328,0.0010666283778846264,-0.07768533378839493,-35.3632621,149.1652374,-0.006,-0.02,0.02,0.0,-9.942227916326374e-05,9.444988245377317e-05,0.0,1000,1000,1000,1000,12600,0,0.002772105624899268,0.0025877614971250296,0.0028876590076833963,10,{}
attack_corridor_base_17,1,pos_spoof,39729,0.0012526737991720438,0.0010740716243162751,-0.07801872491836548,-35.3632621,149.1652374,-0.006,-0.02,0.02,0.0,-9.942228643922135e-05,9.44498970056884e-05,0.0,1000,1000,1000,1000,12600,0,0.002793813357129693,0.002807525685057044,0.0027127268258482218,10,{}
attack_corridor_base_17,1,pos_spoof,40062,0.0012618236942216754,0.001077332766726613,-0.07845880836248398,-35.3632621,149.1652374,-0.006,-0.02,0.02,0.0,-9.942224278347567e-05,9.444990428164601e-05,0.0,1000,1000,1000,1000,12600,0,0.0026389695703983307,0.0031080155167728662,0.002606284571811557,10,{}
attack_corridor_base_17,1,pos_spoof,40394,0.001271688612177968,0.0010906858369708061,-0.07876424491405487,-35.3632621,149.1652374,-0.006,-0.02,0.02,0.0,-9.942224278347567e-05,9.444990428164601e-05,0.0,1000,1000,1000,1000,12600,0,0.0026941110845655203,0.0028957827016711235,0.0030873867217451334,10,{}
attack_corridor_base_17,1,pos_spoof,40727,0.0012783805141225457,0.0010945269605144858,-0.07907434552907944,-35.3632621,149.1652374,-0.006,-0.02,0.02,0.0,-9.942224278347567e-05,9.444992610951886e-05,0.0,1000,1000,1000,1000,12600,0,0.0026125230360776186,0.0029182315338402987,0.002763643627986312,10,{}
attack_corridor_base_17,1,pos_spoof,41059,0.0012871036306023598,0.001102758222259581,-0.07944140583276749,-35.3632621,149.1652374,-0.006,-0.02,0.02,0.0,-9.942227188730612e-05,9.444992610951886e-05,0.0,1000,1000,1000,1000,12600,0,0.002649428090080619,0.0028656660579144955,0.002648829249665141,10,{}
attack_corridor_base_17,1,pos_spoof,41394,0.001294058165512979,0.00111326202750206,-0.07974763959646225,-35.3632621,149.1652374,-0.006,-0.02,0.02,0.0,-9.942227188730612e-05,9.444992610951886e-05,0.0,1000,1000,1000,1000,12600,0,0.002807270735502243,0.003150316420942545,0.0029210930224508047,10,{}
attack_corridor_base_17,1,pos_spoof,41726,0.0013033960713073611,0.0011241090251132846,-0.08005592226982117,-35.3632621,149.1652374,-0.006,0.0,0.0,0.0,-9.942230099113658e-05,9.444991155760363e-05,0.0,1000,1000,1000,1000,12600,0,0.00292226392775774,0.0028673517517745495,0.0029235670808702707,10,{}
attack_corridor_base_17,1,pos_spoof,42059,0.0013861397746950388,0.0012063084868714213,-0.08045341074466705,-35.3632621,149.1652374,-0.006,0.0,0.0,0.0,-9.942229371517897e-05,9.44498970056884e-05,0.0,1000,1000,1000,1000,12600,0,0.002854367718100548,0.002663701307028532,0.0027527979109436274,10,{}
attack_corridor_base_17,1,pos_spoof,42392,0.001459544408135116,0.0012802138226106763,-0.08076285570859909,-35.3632621,149.1652374,-0.006,0.0,0.0,0.0,-9.942229371517897e-05,9.44498970056884e-05,0.0,1000,1000,1000,1000,12600,0,0.0030115502886474133,0.003028718288987875,0.002662890125066042,10,{}
attack_corridor_base_17,1,pos_spoof,42724,0.0015199974877759814,0.0013457972090691328,-0.08106284588575363,-35.3632621,149.1652374,-0.006,0.0,0.0,0.0,-9.942228643922135e-05,9.444991883356124e-05,0.0,1000,1000,1000,1000,12600,0,0.0029051024466753006,0.0024606974329799414,0.002435698639601469,10,{}
attack_corridor_base_17,1,pos_spoof,43059,0.0015991134569048882,0.0014214500552043319,-0.08147334307432175,-35.3632621,149.1652374,-0.006,-0.01,0.01,0.0,-9.942230099113658e-05,9.444991883356124e-05,0.0,1000,1000,1000,1000,12600,0,0.002541710389778018,0.002884521847590804,0.002778566675260663,10,{}
attack_corridor_base_17,1,pos_spoof,43391,0.0016366493655368686,0.0014522633282467723,-0.08178400248289108,-35.3632621,149.1652374,-0.006,-0.01,0.01,0.0,-9.942230099113658e-05,9.444991883356124e-05,0.0,1000,1000,1000,1000,12600,0,0.002608723472803831,0.0031698564998805523,0.002795151202008128,10,{}
attack_corridor_base_17,1,pos_spoof,43724,0.0016595828346908092,0.0014745298540219665,-0.08209139108657837,-35.3632621,149.1652374,-0.006,-0.01,0.01,0.0,-9.94223591987975e-05,9.444986062590033e-05,0.0,1000,1000,1000,1000,12600,0,0.0024821192491799593,0.0028424523770809174,0.0027584058698266745,10,{}
attack_corridor_base_17,1,pos_spoof,44056,0.0016563470708206296,0.0014743193751201034,-0.08249799907207489,-35.3632621,149.1652374,-0.006,-0.01,0.01,0.0,-9.942239557858557e-05,9.44498970056884e-05,0.0,1000,1000,1000,1000,12600,0,0.0027523108292371035,0.0031789776403456926,0.002723502926528454,10,{}
attack_corridor_base_17,1,pos_spoof,44389,0.00163421465549618,0.001449709408916533,-0.08279351890087128,-35.3632621,149.1652375,-0.006,-0.01,0.02,0.0,-9.942239557858557e-05,9.44498970056884e-05,0.0,1000,1000,1000,1000,12600,0,0.0027904128655791283,0.00290403189137578,0.0028587202541530132,10,{}
attack_corridor_base_17,1,pos_spoof,44722,0.0016066200332716107,0.0014135187957435846,-0.083072729408741,-35.3632621,149.1652375,-0.006,-0.01,0.02,0.0,-9.942237375071272e-05,9.444987517781556e-05,0.0,1000,1000,1000,1000,12600,0,0.0027256899047642946,0.002668162574991584,0.0026435910258442163,10,{}
attack_corridor_base_17,1,pos_spoof,45056,0.0015362546546384692,0.001353359897620976,-0.0834469273686409,-35.3632621,149.1652375,-0.006,-0.01,0.02,0.0,-9.942234464688227e-05,9.444988245377317e-05,0.0,1000,1000,1000,1000,12600,0,0.0027576328720897436,0.0028200550004839897,0.0029108833987265825,10,{}
attack_corridor_base_17,1,pos_spoof,45359,0.001479779719375074,0.0012987024383619428,-0.08371084183454514,-35.3632622,149.1652375,-0.006,-0.01,0.02,0.0,-9.942234464688227e-05,9.444988245377317e-05,0.0,1000,1000,1000,1000,12600,0,0.002629481256008148,0.0028079792391508818,0.0026816953904926777,10,{}
attack_corridor_base_17,1,pos_spoof,45609,0.0014392905868589878,0.0012611208949238062,-0.08392900973558426,-35.3632622,149.1652375,-0.006,-0.01,0.02,0.0,-9.942233737092465e-05,9.444988972973078e-05,0.0,1000,1000,1000,1000,12600,0,0.002629481256008148,0.0028079792391508818,0.0026816953904926777,10,{}
attack_corridor_base_17,1,pos_spoof,45859,0.0013833766570314765,0.0012024238239973783,-0.0841258093714714,-35.3632622,149.1652375,-0.006,-0.01,0.02,0.0,-9.942232281900942e-05,9.444988245377317e-05,0.0,1000,1000,1000,1000,12600,0,0.0030986382625997066,0.0027661113999783993,0.0028485991060733795,10,{}
attack_corridor_base_17,1,pos_spoof,46109,0.0013420513132587075,0.001157171092927456,-0.0843360424041748,-35.3632622,149.1652375,-0.006,-0.01,0.01,0.0,-9.942230099113658e-05,9.444987517781556e-05,0.0,1000,1000,1000,1000,12600,0,0.002964441664516926,0.0029269512742757797,0.002818138338625431,10,{}
attack_corridor_base_17,1,pos_spoof,46359,0.001302353455685079,0.0011119218543171883,-0.08450280129909515,-35.3632622,149.1652375,-0.006,-0.01,0.01,0.0,-9.942227916326374e-05,9.444988245377317e-05,0.0,1000,1000,1000,1000,12600,0,0.0026376990135759115,0.0026923753321170807,0.002795394277200103,10,{}
attack_corridor_base_17,1,pos_spoof,46609,0.0012745825806632638,0.0010905761737376451,-0.0846693366765976,-35.3632622,149.1652375,-0.006,-0.01,0.01,0.0,-9.942231554305181e-05,9.444991883356124e-05,0.0,1000,1000,1000,1000,12600,0,0.002608353039249778,0.0027677789330482483,0.0025946777313947678,10,{}
attack_corridor_base_17,1,pos_spoof,46859,0.0012297575594857335,0.0010503710946068168,-0.08486422151327133,-35.3632622,149.1652375,-0.006,-0.01,0.01,0.0,-9.942224278347567e-05,9.444988972973078e-05,0.0,1000,1000,1000,1000,12600,0,0.002910564886406064,0.002735384739935398,0.002434569178149104,10,{}
attack_corridor_base_17,1,pos_spoof,47109,0.001197610516101122,0.001022752607241273,-0.08504755795001984,-35.3632621,149.1652375,-0.006,-0.01,0.01,0.0,-9.942224278347567e-05,9.444992610951886e-05,0.0,1000,1000,1000,1000,12600,0,0.002830331912264228,0.0026740948669612408,0.002407713560387492,10,{}
attack_corridor_base_17,1,pos_spoof,47359,0.0011716082226485014,0.0010006602387875319,-0.08523144572973251,-35.3632621,149.1652375,-0.006,-0.01,0.01,0.0,-9.942222095560282e-05,9.444990428164601e-05,0.0,1000,1000,1000,1000,12600,0,0.002942302729934454,0.00285010295920074,0.0027276657056063414,10,{}
attack_corridor_base_17,1,pos_spoof,47609,0.0011574157979339361,0.0009868261404335499,-0.08540232479572296,-35.3632621,149.1652375,-0.006,-0.01,0.01,0.0,-9.942217729985714e-05,9.444986790185794e-05,0.0,1000,1000,1000,1000,12600,0,0.0027303090319037437,0.0027330066077411175,0.002782264491543174,10,{}
attack_corridor_base_17,1,pos_spoof,47859,0.0011315657757222652,0.0009639391209930182,-0.08558480441570282,-35.3632621,149.1652375,-0.006,-0.01,0.01,0.0,-9.942214819602668e-05,9.444982424611226e-05,0.0,1000,1000,1000,1000,12600,0,0.002810887759551406,0.002708232030272484,0.002716965042054653,10,{}
attack_corridor_base_17,1,pos_spoof,48109,0.0011161502916365862,0.0009478863212279975,-0.08574502170085907,-35.3632621,149.1652375,-0.006,-0.01,0.01,0.0,-9.942212636815384e-05,9.444983152206987e-05,0.0,1000,1000,1000,1000,12600,0,0.0030491205397993326,0.002733191242441535,0.002740527968853712,10,{}
attack_corridor_base_17,1,pos_spoof,48359,0.0011058845557272434,0.00093656504759565,-0.0859261080622673,-35.3632621,149.1652375,-0.006,-0.01,0.01,0.0,-9.9422104540281e-05,9.444981697015464e-05,0.0,1000,1000,1000,1000,12600,0,0.0027207722887396812,0.0029172629583626986,0.0028043659403920174,10,{}
attack_corridor_base_17,1,pos_spoof,48609,0.001100630033761263,0.0009317060466855764,-0.08608795702457428,-35.3632621,149.1652375,-0.006,-0.01,0.01,0.0,-9.942208271240816e-05,9.444980969419703e-05,0.0,1000,1000,1000,1000,12600,0,0.0028970411513000727,0.002719205105677247,0.002963472856208682,10,{}
attack_corridor_base_17,1,pos_spoof,48859,0.0010899169137701392,0.0009227179689332843,-0.08624119311571121,-35.3632621,149.1652375,-0.006,-0.01,0.01,0.0,-9.942207543645054e-05,9.444978786632419e-05,0.0,1000,1000,1000,1000,12600,0,0.0027527327183634043,0.003072954947128892,0.002835240913555026,10,{}
attack_corridor_base_17,1,pos_spoof,49109,0.0010844735661521554,0.0009155903244391084,-0.08641602098941803,-35.3632621,149.1652375,-0.006,-0.01,0.01,0.0,-9.942202450474724e-05,9.444976603845134e-05,0.0,1000,1000,1000,1000,12600,0,0.0029563058633357286,0.002996875671669841,0.0026840369682759047,10,{}
attack_corridor_base_17,1,pos_spoof,49359,0.0010836297878995538,0.0009114728891290724,-0.0865660011768341,-35.3632621,149.1652375,-0.006,-0.01,0.01,0.0,-9.942198812495917e-05,9.444977331440896e-05,0.0,1000,1000,1000,1000,12600,0,0.0026542518753558397,0.002578223589807749,0.00275064492598176,10,{}
attack_corridor_base_17,1,pos_spoof,49609,0.001083314185962081,0.0009116774308495224,-0.08672421425580978,-35.3632621,149.1652375,-0.006,-0.01,0.01,0.0,-9.942197357304394e-05,9.444972965866327e-05,0.0,1000,1000,1000,1000,12600,0,0.0027467922773212194,0.0029318167362362146,0.0026389684062451124,10,{}
attack_corridor_base_17,1,pos_spoof,49859,0.0010767091298475862,0.0009133914718404412,-0.08688103407621384,-35.3632621,149.1652375,-0.006,-0.01,0.01,0.0,-9.942198812495917e-05,9.444971510674804e-05,0.0,1000,1000,1000,1000,12600,0,0.0026736531872302294,0.0027801760006695986,0.0026876882184296846,10,{}
attack_corridor_base_17,1,pos_spoof,50109,0.0010772880632430315,0.0009144202340394258,-0.08704080432653427,-35.3632621,149.1652375,-0.006,-0.01,0.01,0.0,-9.942198812495917e-05,9.444970055483282e-05,0.0,1000,1000,1000,1000,12600,0,0.002833524253219366,0.0027619735337793827,0.0027765596751123667,10,{}
attack_corridor_base_17,1,pos_spoof,50359,0.0010808486258611083,0.0009159551118500531,-0.08718887716531754,-35.3632621,149.1652375,-0.006,-0.01,0.01,0.0,-9.942198084900156e-05,9.444967145100236e-05,0.0,1000,1000,1000,1000,12600,0,0.0024278932251036167,0.0027282009832561016,0.002920859958976507,10,{}
attack_corridor_base_17,1,pos_spoof,50609,0.001082921284250915,0.00091378582874313,-0.08735262602567673,-35.3632621,149.1652375,-0.006,-0.01,0.01,0.0,-9.94219517451711e-05,9.44495914154686e-05,0.0,1000,1000,1000,1000,12600,0,0.0028795383404940367,0.002912558615207672,0.002705363789573312,10,{}
attack_corridor_base_17,1,pos_spoof,50859,0.0010856396984308958,0.0009125049691647291,-0.08749187737703323,-35.3632621,149.1652375,-0.006,-0.01,0.01,0.0,-9.94219517451711e-05,9.444958413951099e-05,0.0,1000,1000,1000,1000,12600,0,0.002730251755565405,0.00309019279666245,0.0029180580750107765,10,{}
attack_corridor_base_17,1,pos_spoof,51109,0.001086049946025014,0.0009131146362051368,-0.08764593303203583,-35.3632621,149.1652375,-0.006,-0.01,0.01,0.0,-9.942192991729826e-05,9.444955503568053e-05,0.0,1000,1000,1000,1000,12600,0,0.002759188413619995,0.0027631274424493313,0.002692399313673377,10,{}
attack_corridor_base_17,1,pos_spoof,51359,0.0010868506506085396,0.0009175626910291612,-0.08778399229049683,-35.3632621,149.1652375,-0.006,-0.01,0.01,0.0,-9.942188626155257e-05,9.444951865589246e-05,0.0,1000,1000,1000,1000,12600,0,0.0028520594350993633,0.0027719265781342983,0.002561443718150258,10,{}
attack_corridor_base_17,1,pos_spoof,51609,0.0010907595278695226,0.0009178295731544495,-0.08793086558580399,-35.3632621,149.1652375,-0.006,-0.01,0.01,0.0,-9.942188626155257e-05,9.444949682801962e-05,0.0,1000,1000,1000,1000,12600,0,0.0028616972267627716,0.0030034955125302076,0.002972721355035901,10,{}
attack_corridor_base_17,1,pos_spoof,51859,0.0010945609537884593,0.0009136635926552117,-0.08806651085615158,-35.3632621,149.1652375,-0.006,-0.01,0.01,0.0,-9.94219008134678e-05,9.444951137993485e-05,0.0,1000,1000,1000,1000,12600,0,0.002981453202664852,0.0026728399097919464,0.0029063106048852205,10,{}
attack_corridor_base_17,1,pos_spoof,52109,0.001098877633921802,0.0009065615013241768,-0.08821754157543182,-35.3632621,149.1652375,-0.006,-0.01,0.01,0.0,-9.94219008134678e-05,9.4449489552062e-05,0.0,1000,1000,1000,1000,12600,0,0.002923040883615613,0.0024742335081100464,0.0028510168194770813,10,{}
attack_corridor_base_17,1,pos_spoof,52359,0.0011044458951801062,0.0009058786672540009,-0.08834592998027802,-35.3632621,149.1652375,-0.006,-0.01,0.01,0.0,-9.942188626155257e-05,9.444948227610439e-05,0.0,1000,1000,1000,1000,12600,0,0.002700075274333358,0.0028381752781569958,0.0027657821774482727,10,{}
attack_corridor_base_17,1,pos_spoof,52609,0.0011101830750703812,0.0009166558738797903,-0.08846187591552734,-35.3632621,149.1652375,-0.006,-0.01,0.01,0.0,-9.942186443367973e-05,9.444945317227393e-05,0.0,1000,1000,1000,1000,12600,0,0.0030767873395234346,0.0026920665986835957,0.0027921046130359173,10,{}
attack_corridor_base_17,1,pos_spoof,52859,0.001110072247684002,0.0009179531480185688,-0.08859670162200928,-35.3632621,149.1652375,-0.006,-0.01,0.01,0.0,-9.942185715772212e-05,9.444943134440109e-05,0.0,1000,1000,1000,1000,12600,0,0.002855975879356265,0.00301144877448678,0.002883042674511671,10,{}
attack_corridor_base_17,1,pos_spoof,53109,0.0011106115998700261,0.0009145463118329644,-0.08872945606708527,-35.3632621,149.1652375,-0.006,-0.01,0.01,0.0,-9.942184260580689e-05,9.444942406844348e-05,0.0,1000,1000,1000,1000,12600,0,0.0026552360504865646,0.0027969314251095057,0.0027470001950860023,10,{}
attack_corridor_base_17,1,pos_spoof,53359,0.0011165087344124913,0.0009218102204613388,-0.08887452632188797,-35.3632621,149.1652375,-0.006,-0.01,0.01,0.0,-9.942185715772212e-05,9.444944589631632e-05,0.0,1000,1000,1000,1000,12600,0,0.002825675532221794,0.0025820410810410976,0.002596509177237749,10,{}
attack_corridor_base_17,1,pos_spoof,53609,0.001130168791860342,0.0009308191947638988,-0.0890049859881401,-35.3632621,149.1652375,-0.006,-0.01,0.01,0.0,-9.942181350197643e-05,9.444940951652825e-05,0.0,1000,1000,1000,1000,12600,0,0.002713617868721485,0.00301196682266891,0.0027076255064457655,10,{}
attack_corridor_base_17,1,pos_spoof,54094,0.001132513745687902,0.0009364773868583143,-0.08925490081310272,-35.3632621,149.1652375,-0.006,-0.01,0.01,0.0,-9.942180622601882e-05,9.444942406844348e-05,0.0,1000,1000,1000,1000,12600,0,0.002530421130359173,0.0027555502019822598,0.002873047022148967,10,{}
attack_corridor_base_17,1,pos_spoof,54109,0.0011332229478284717,0.000935083138756454,-0.08926977217197418,-35.3632621,149.1652375,-0.006,-0.01,0.01,0.0,-9.94217480183579e-05,9.444938041269779e-05,0.0,1000,1000,1000,1000,12600,0,0.002986104693263769,0.0030493545345962048,0.003028282430022955,10,{}
attack_corridor_base_17,1,pos_spoof,54359,0.0011347508989274502,0.0009401349816471338,-0.08939773589372635,-35.3632621,149.1652375,-0.006,-0.01,0.01,0.0,-9.942174074240029e-05,9.444936586078256e-05,0.0,1000,1000,1000,1000,12600,0,0.0029112566262483597,0.0028869768138974905,0.0029184368904680014,10,{}
attack_corridor_base_17,1,pos_spoof,54609,0.001145130256190896,0.0009490324300713837,-0.0895230695605278,-35.3632621,149.1652375,-0.006,-0.01,0.01,0.0,-9.942173346644267e-05,9.444938041269779e-05,0.0,1000,1000,1000,1000,12600,0,0.002589056733995676,0.0028299414552748203,0.0026409763377159834,10,{}
attack_corridor_base_17,1,pos_spoof,54859,0.001145048881880939,0.0009480275330133736,-0.0896439254283905,-35.3632621,149.1652375,-0.006,-0.01,0.01,0.0,-9.942174074240029e-05,9.444932948099449e-05,0.0,1000,1000,1000,1000,12600,0,0.003179901046678424,0.0028269935864955187,0.002934572286903858,10,{}
attack_corridor_base_17,1,pos_spoof,55109,0.0011465181596577168,0.0009495709673501551,-0.08977226912975311,-35.3632621,149.1652375,-0.006,-0.01,0.01,0.0,-9.942173346644267e-05,9.444930037716404e-05,0.0,1000,1000,1000,1000,12600,0,0.0027986096683889627,0.0028150491416454315,0.002693748101592064,10,{}
attack_corridor_base_17,1,pos_spoof,55359,0.001146455411799252,0.0009526344947516918,-0.08989261090755463,-35.3632621,149.1652375,-0.006,-0.01,0.01,0.0,-9.942174074240029e-05,9.444929310120642e-05,0.0,1000,1000,1000,1000,12600,0,0.0025653615593910217,0.002535554813221097,0.0026234781835228205,10,{}
attack_corridor_base_17,1,pos_spoof,55609,0.0011497512459754944,0.0009569270769134164,-0.09002306312322617,-35.3632621,149.1652375,-0.006,-0.01,0.01,0.0,-9.942168981069699e-05,9.444924944546074e-05,0.0,1000,1000,1000,1000,12600,0,0.002817535540089011,0.003212274983525276,0.002643297892063856,10,{}
attack_corridor_base_17,1,pos_spoof,56089,0.0011459445813670754,0.0009504896588623524,-0.09025055915117264,-35.3632621,149.1652375,-0.006,-0.01,0.01,0.0,-9.942170436261222e-05,9.444929310120642e-05,0.0,1000,1000,1000,1000,12600,0,0.0026250488590449095,0.0027982108294963837,0.0025702097918838263,10,{}
attack_corridor_base_17,1,pos_spoof,56109,0.0011456083739176393,0.0009517219150438905,-0.09026864171028137,-35.3632621,149.1652375,-0.006,-0.01,0.01,0.0,-9.94216970866546e-05,9.444926399737597e-05,0.0,1000,1000,1000,1000,12600,0,0.002638653153553605,0.0029528287705034018,0.003131344448775053,10,{}
attack_corridor_base_17,1,pos_spoof,56359,0.001150742289610207,0.0009558619349263608,-0.09038730710744858,-35.3632621,149.1652375,-0.006,-0.01,0.01,0.0,-9.942167525878176e-05,9.444924216950312e-05,0.0,1000,1000,1000,1000,12600,0,0.0027203415520489216,0.002890425967052579,0.003163292771205306,10,{}
attack_corridor_base_17,1,pos_spoof,56609,0.0011518693063408136,0.0009608949767425656,-0.09050985425710678,-35.3632621,149.1652375,-0.006,-0.01,0.01,0.0,-9.94216970866546e-05,9.444927127333358e-05,0.0,1000,1000,1000,1000,12600,0,0.0027449512854218483,0.0026981437113136053,0.0027362967375665903,10,{}
attack_corridor_base_17,1,pos_spoof,57199,0.0011431777384132147,0.0009609120315872133,-0.09075015783309937,-35.3632622,149.1652375,-0.006,-0.01,0.01,0.0,-9.94217480183579e-05,9.444930037716404e-05,0.0,1000,1000,1000,1000,12600,0,0.0028893600683659315,0.0026930251624435186,0.0027068881317973137,10,{}
attack_corridor_base_17,1,pos_spoof,57449,0.00114346609916538,0.0009607823449186981,-0.09087827056646347,-35.3632621,149.1652375,-0.006,-0.01,0.01,0.0,-9.942181350197643e-05,9.444935130886734e-05,0.0,1000,1000,1000,1000,12600,0,0.002716478193178773,0.0030220141634345055,0.002754810731858015,10,{}
attack_corridor_base_17,1,pos_spoof,58014,0.0011570219649001956,0.0009632940054871142,-0.09112342447042465,-35.3632622,149.1652375,-0.006,-0.01,0.01,0.0,-9.942180622601882e-05,9.444935130886734e-05,0.0,1000,1000,1000,1000,12600,0,0.0026257208082824945,0.0024555132258683443,0.0026866900734603405,10,{}
attack_corridor_base_17,1,pos_spoof,58264,0.0011529020266607404,0.000966337975114584,-0.09123588353395462,-35.3632621,149.1652375,-0.006,-0.01,0.01,0.0,-9.94218498817645e-05,9.444938041269779e-05,0.0,1000,1000,1000,1000,12600,0,0.002510563237592578,0.0025275638327002525,0.0027906175237149,10,{}
attack_corridor_base_17,1,pos_spoof,58661,0.001152053358964622,0.0009674879256635904,-0.09140777587890625,-35.3632621,149.1652375,-0.006,-0.01,0.01,0.0,-9.942189353751019e-05,9.444942406844348e-05,0.0,1000,1000,1000,1000,12600,0,0.0028735483065247536,0.003252733265981078,0.003002648474648595,10,{}
attack_corridor_base_17,1,pos_spoof,58764,0.0011535316007211804,0.0009695545304566622,-0.0914548709988594,-35.3632621,149.1652375,-0.006,-0.01,0.01,0.0,-9.942193719325587e-05,9.444945317227393e-05,0.0,1000,1000,1000,1000,12600,0,0.002892738441005349,0.0027194074355065823,0.002759589347988367,10,{}
attack_corridor_base_17,1,pos_spoof,59367,0.0011586963664740324,0.0009758157539181411,-0.091708704829216,-35.3632622,149.1652375,-0.006,-0.01,0.01,0.0,-9.942192991729826e-05,9.44494386203587e-05,0.0,1000,1000,1000,1000,12600,0,0.0029208024498075247,0.0028243055567145348,0.0027827052399516106,10,{}
attack_corridor_base_17,1,pos_spoof,59619,0.0011614571558311582,0.000978296622633934,-0.09182074666023254,-35.3632622,149.1652375,-0.006,-0.01,0.01,0.0,-9.942193719325587e-05,9.444936586078256e-05,0.0,1000,1000,1000,1000,12600,0,0.0030812490731477737,0.0026292528491467237,0.002836011117324233,10,{}
attack_corridor_base_17,1,pos_spoof,59869,0.0011510378681123257,0.0009752645855769515,-0.0919150859117508,-35.3632621,149.1652375,-0.006,-0.01,0.01,0.0,-9.942197357304394e-05,9.444939496461302e-05,0.0,1000,1000,1000,1000,12600,0,0.002681624609977007,0.002807607874274254,0.0027322559617459774,10,{}
attack_corridor_base_17,1,pos_spoof,60119,0.0011515275109559298,0.0009686312987469137,-0.09202133864164352,-35.3632621,149.1652375,-0.006,-0.01,0.01,0.0,-9.942197357304394e-05,9.444934403290972e-05,0.0,1000,1000,1000,1000,12600,0,0.00309574487619102,0.0026997560635209084,0.0029619026463478804,10,{}
attack_corridor_base_17,1,pos_spoof,60369,0.0011523425346240401,0.0009698884095996618,-0.09211700409650803,-35.3632622,149.1652375,-0.006,-0.01,0.01,0.0,-9.942204633262008e-05,9.444938041269779e-05,0.0,1000,1000,1000,1000,12600,0,0.002773806219920516,0.0027877544052898884,0.0026685399934649467,10,{}
attack_corridor_base_17,1,pos_spoof,60619,0.0011584769235923886,0.0009706853306852281,-0.09222377836704254,-35.3632622,149.1652375,-0.006,-0.01,0.01,0.0,-9.942204633262008e-05,9.444936586078256e-05,0.0,1000,1000,1000,1000,12600,0,0.002661205129697919,0.0028349345084279776,0.002919381484389305,10,{}
attack_corridor_base_17,1,pos_spoof,60867,0.0011492191115394235,0.0009576656739227474,-0.09232119470834732,-35.3632621,149.1652375,-0.006,-0.01,0.01,0.0,-9.942200995283201e-05,9.444933675695211e-05,0.0,1000,1000,1000,1000,12600,0,0.0029921240638941526,0.0026519617531448603,0.002655122196301818,10,{}
attack_corridor_base_17,1,pos_spoof,61117,0.0011534140212461352,0.0009524953784421086,-0.09242711216211319,-35.3632621,149.1652375,-0.006,-0.01,0.01,0.0,-9.94220536085777e-05,9.44493876886554e-05,0.0,1000,1000,1000,1000,12600,0,0.002458784030750394,0.0028125676326453686,0.0028329563792794943,10,{}
attack_corridor_base_17,1,pos_spoof,61367,0.0011585635365918279,0.0009579756879247725,-0.0925125703215599,-35.3632622,149.1652375,-0.006,-0.01,0.01,0.0,-9.942204633262008e-05,9.444937313674018e-05,0.0,1000,1000,1000,1000,12600,0,0.003259191056713462,0.0030000729020684958,0.0029639292042702436,10,{}
attack_corridor_base_17,1,pos_spoof,61617,0.0011622515739873052,0.0009590188856236637,-0.09261200577020645,-35.3632622,149.1652375,-0.006,-0.01,0.01,0.0,-9.942208271240816e-05,9.444936586078256e-05,0.0,1000,1000,1000,1000,12600,0,0.00275217043235898,0.002717103809118271,0.003023493103682995,10,{}
attack_corridor_base_17,1,pos_spoof,61869,0.0011541452258825302,0.0009522662730887532,-0.09268175065517426,-35.3632622,149.1652375,-0.006,-0.01,0.01,0.0,-9.942208998836577e-05,9.444940224057063e-05,0.0,1000,1000,1000,1000,12600,0,0.0029658132698386908,0.0027465098537504673,0.002945152809843421,10,{}
attack_corridor_base_17,1,pos_spoof,62119,0.001157472375780344,0.0009561983169987798,-0.09277840703725815,-35.3632622,149.1652375,-0.006,-0.01,0.01,0.0,-9.942209726432338e-05,9.444942406844348e-05,0.0,1000,1000,1000,1000,12600,0,0.0026124611031264067,0.002760314615443349,0.002726342063397169,10,{}
attack_corridor_base_17,1,pos_spoof,62369,0.001162741333246231,0.0009550900431349874,-0.09286566078662872,-35.3632622,149.1652375,-0.006,-0.01,0.01,0.0,-9.942214819602668e-05,9.444948227610439e-05,0.0,1000,1000,1000,1000,12600,0,0.002585700247436762,0.0027154795825481415,0.0028525583911687136,10,{}
attack_corridor_base_17,1,pos_spoof,62619,0.0011618644930422306,0.0009616010938771069,-0.09295748919248581,-35.3632622,149.1652375,-0.006,-0.01,0.01,0.0,-9.942214819602668e-05,9.444949682801962e-05,0.0,1000,1000,1000,1000,12600,0,0.00256937462836504,0.0029853815212845802,0.0027139883022755384,10,{}
attack_corridor_base_17,1,pos_spoof,62867,0.0011606041807681322,0.0009617374744266272,-0.09304638206958771,-35.3632621,149.1652375,-0.006,-0.01,0.01,0.0,-9.942211181623861e-05,9.444946772418916e-05,0.0,1000,1000,1000,1000,12600,0,0.0027996539138257504,0.003052853047847748,0.0025470193941146135,10,{}
attack_corridor_base_17,1,pos_spoof,63117,0.0011599879944697022,0.0009666376863606274,-0.0931476578116417,-35.3632622,149.1652375,-0.006,-0.01,0.01,0.0,-9.9422104540281e-05,9.444942406844348e-05,0.0,1000,1000,1000,1000,12600,0,0.0029850753489881754,0.002850885270163417,0.002734817797318101,10,{}
attack_corridor_base_17,1,pos_spoof,63367,0.0011594366515055299,0.0009666368714533746,-0.0932374820113182,-35.3632622,149.1652375,-0.006,-0.01,0.01,0.0,-9.942211909219623e-05,9.444942406844348e-05,0.0,1000,1000,1000,1000,12600,0,0.0027871967758983374,0.002827864605933428,0.0028547358233481646,10,{}
attack_corridor_base_17,1,pos_spoof,63617,0.001162350527010858,0.0009758018422871828,-0.09332543611526489,-35.3632622,149.1652375,-0.006,-0.01,0.01,0.0,-9.942211181623861e-05,9.444939496461302e-05,0.0,1000,1000,1000,1000,12600,0,0.0029747921507805586,0.0024918210692703724,0.002696569776162505,10,{}
attack_corridor_base_17,1,pos_spoof,63869,0.0011569662019610405,0.0009705392876639962,-0.09340295195579529,-35.3632622,149.1652375,-0.006,-0.01,0.01,0.0,-9.942208998836577e-05,9.444941679248586e-05,0.0,1000,1000,1000,1000,12600,0,0.0028516952879726887,0.00302600534632802,0.0027852377388626337,10,{}
attack_corridor_base_17,1,pos_spoof,64119,0.0011620736913755536,0.0009615197777748108,-0.09349551051855087,-35.3632622,149.1652375,-0.006,-0.01,0.01,0.0,-9.942211909219623e-05,9.444942406844348e-05,0.0,1000,1000,1000,1000,12600,0,0.002803487703204155,0.002971832873299718,0.003070706967264414,10,{}
attack_corridor_base_17,1,pos_spoof,64369,0.0011653386754915118,0.0009650200372561812,-0.0935744196176529,-35.3632622,149.1652375,-0.006,-0.01,0.01,0.0,-9.942216274794191e-05,9.44494386203587e-05,0.0,1000,1000,1000,1000,12600,0,0.002813672414049506,0.0028119359631091356,0.0028589589055627584,10,{}
attack_corridor_base_17,1,pos_spoof,64619,0.0011744401417672634,0.0009655808098614216,-0.09366696327924728,-35.3632622,149.1652375,-0.006,-0.01,0.01,0.0,-9.942217002389953e-05,9.444946044823155e-05,0.0,1000,1000,1000,1000,12600,0,0.0028158475179225206,0.0029822024516761303,0.0028417063876986504,10,{}
attack_corridor_base_17,1,pos_spoof,64869,0.0011719386093318462,0.000959022669121623,-0.0937458798289299,-35.3632622,149.1652375,-0.006,-0.01,0.01,0.0,-9.942217729985714e-05,9.444944589631632e-05,0.0,1000,1000,1000,1000,12600,0,0.0028772319201380014,0.0028426428325474262,0.0029588849283754826,10,{}
attack_corridor_base_17,1,pos_spoof,65117,0.0011653980473056436,0.0009534687851555645,-0.09383605420589447,-35.3632622,149.1652375,-0.006,-0.01,0.01,0.0,-9.942217729985714e-05,9.444945317227393e-05,0.0,1000,1000,1000,1000,12600,0,0.0029263950418680906,0.0031202477402985096,0.00268398504704237,10,{}
attack_corridor_base_17,1,pos_spoof,65367,0.0011637085117399693,0.0009594562579877675,-0.09391336143016815,-35.3632622,149.1652375,-0.006,-0.01,0.01,0.0,-9.942219912772998e-05,9.444947500014678e-05,0.0,1000,1000,1000,1000,12600,0,0.00281732901930809,0.002883434295654297,0.002821520436555147,10,{}
attack_corridor_base_17,1,pos_spoof,65617,0.0011651957174763083,0.0009651010623201728,-0.09400448948144913,-35.3632622,149.1652375,-0.006,-0.01,0.01,0.0,-9.942222823156044e-05,9.444951137993485e-05,0.0,1000,1000,1000,1000,12600,0,0.002698336262255907,0.00252014072611928,0.0027317143976688385,10,{}
attack_corridor_base_17,1,pos_spoof,65869,0.0011628136271610856,0.0009602695936337113,-0.09408082067966461,-35.3632621,149.1652375,-0.006,-0.01,0.01,0.0,-9.942219912772998e-05,9.4449489552062e-05,0.0,1000,1000,1000,1000,12600,0,0.002659497084096074,0.002942749299108982,0.0025923731736838818,10,{}
attack_corridor_base_17,1,pos_spoof,66119,0.0011647449573501945,0.0009612235589884222,-0.09416688233613968,-35.3632621,149.1652375,-0.006,-0.01,0.01,0.0,-9.942219185177237e-05,9.4449489552062e-05,0.0,1000,1000,1000,1000,12600,0,0.0026821542996913195,0.002859958680346608,0.002896903082728386,10,{}
attack_corridor_base_17,1,pos_spoof,66369,0.001172450603917241,0.000962498364970088,-0.09423594176769257,-35.3632621,149.1652375,-0.006,-0.01,0.01,0.0,-9.942219912772998e-05,9.444949682801962e-05,0.0,1000,1000,1000,1000,12600,0,0.0028415985871106386,0.002834731014445424,0.002635720418766141,10,{}
attack_corridor_base_17,1,pos_spoof,66619,0.001170999021269381,0.0009728047298267484,-0.09432540833950043,-35.3632621,149.1652375,-0.006,-0.01,0.01,0.0,-9.94222064036876e-05,9.444949682801962e-05,0.0,1000,1000,1000,1000,12600,0,0.0027783899568021297,0.0028209288138896227,0.0027647721581161022,10,{}
attack_corridor_base_17,1,pos_spoof,66869,0.0011721326736733317,0.0009729120065458119,-0.09439093619585037,-35.3632621,149.1652375,-0.006,-0.01,0.01,0.0,-9.942214092006907e-05,9.444947500014678e-05,0.0,1000,1000,1000,1000,12600,0,0.002464823890477419,0.002850094810128212,0.0029374028090387583,10,{}
attack_corridor_base_17,1,pos_spoof,67117,0.0011718736495822668,0.0009705704287625849,-0.09445837140083313,-35.3632621,149.1652375,-0.006,-0.01,0.01,0.0,-9.942214819602668e-05,9.444949682801962e-05,0.0,1000,1000,1000,1000,12600,0,0.0028487774543464184,0.0026458774227648973,0.0030915101524442434,10,{}
attack_corridor_base_17,1,pos_spoof,67367,0.0011740204645320773,0.0009747488074935973,-0.0945148840546608,-35.3632622,149.1652375,-0.006,-0.01,0.01,0.0,-9.942217002389953e-05,9.444950410397723e-05,0.0,1000,1000,1000,1000,12600,0,0.002949618501588702,0.0028515623416751623,0.0027847138699144125,10,{}
attack_corridor_base_17,1,pos_spoof,67617,0.001175429904833436,0.0009812142234295607,-0.09459610283374786,-35.3632622,149.1652375,-0.006,-0.01,0.01,0.0,-9.942217729985714e-05,9.444948227610439e-05,0.0,1000,1000,1000,1000,12600,0,0.0026525661814957857,0.0029596940148621798,0.002704292070120573,10,{}
attack_corridor_base_17,1,pos_spoof,67867,0.0011774639133363962,0.000982227036729455,-0.09466573596000671,-35.3632621,149.1652375,-0.006,-0.01,0.01,0.0,-9.942214092006907e-05,9.444946772418916e-05,0.0,1000,1000,1000,1000,12600,0,0.0027684783563017845,0.002858239458873868,0.002810811158269644,10,{}
attack_corridor_base_17,1,pos_spoof,68119,0.0011783670634031296,0.0009820403065532446,-0.09474024176597595,-35.3632621,149.1652375,-0.006,-0.01,0.01,0.0,-9.942217002389953e-05,9.444952593185008e-05,0.0,1000,1000,1000,1000,12600,0,0.0032286911737173796,0.002717818133533001,0.0024180859327316284,10,{}
attack_corridor_base_17,1,pos_spoof,68369,0.001183774322271347,0.00099223293364048,-0.09481058269739151,-35.3632622,149.1652375,-0.006,-0.01,0.01,0.0,-9.942214819602668e-05,9.444945317227393e-05,0.0,1000,1000,1000,1000,12600,0,0.0028808931820094585,0.0026968480087816715,0.0028530533891171217,10,{}
attack_corridor_base_17,1,pos_spoof,68619,0.001188966678455472,0.0009948734659701586,-0.09488718211650848,-35.3632622,149.1652375,-0.006,-0.01,0.01,0.0,-9.942213364411145e-05,9.44494386203587e-05,0.0,1000,1000,1000,1000,12600,0,0.002731423592194915,0.0029496040660887957,0.002875344827771187,10,{}
attack_corridor_base_17,1,pos_spoof,68869,0.0011938076931983232,0.0009888296481221914,-0.094952292740345,-35.3632622,149.1652375,-0.006,-0.01,0.01,0.0,-9.942213364411145e-05,9.44493876886554e-05,0.0,1000,1000,1000,1000,12600,0,0.0027061912696808577,0.0026759805623441935,0.002796946093440056,10,{}
attack_corridor_base_17,1,pos_spoof,69117,0.0011958804680034518,0.000990500207990408,-0.09502915292978287,-35.3632622,149.1652375,-0.006,-0.01,0.01,0.0,-9.942218457581475e-05,9.444942406844348e-05,0.0,1000,1000,1000,1000,12600,0,0.0028404563199728727,0.0028039037715643644,0.0026287096552550793,10,{}
