flight_id,label,attack_type,timestamp,att_roll,att_pitch,att_yaw,pos_lat,pos_lon,pos_alt_rel,pos_vx,pos_vy,pos_vz,nav_roll,nav_pitch,nav_alt_error,servo1_raw,servo2_raw,servo3_raw,servo4_raw,sys_voltage_battery,sys_load,vib_x,vib_y,vib_z,gps_sats_visible,attack_params_json
attack_corridor_base_9,1,pos_yawl_spoof,10321,0.0001949052530108,-3.730067328433506e-05,-0.3320980966091156,-35.3632621,149.1652374,0.0,0.0,0.0,-0.03,-9.942173346644267e-05,9.444946044823156e-05,0.0,1000,1000,1000,1000,12600,0,0.0027133438270539,0.0028508636169135,0.0027057600673288,3,{}
attack_corridor_base_9,1,pos_yawl_spoof,10654,0.0001977861975319,-2.413995935057756e-05,-0.3004005253314972,-35.3632621,149.1652374,0.0,0.0,0.0,-0.03,-9.942168253473938e-05,9.444936586078256e-05,0.0,1000,1000,1000,1000,12600,0,0.0024877020623534,0.0027790451422333,0.002939480356872,10,{}
attack_corridor_base_9,1,pos_yawl_spoof,10987,0.0002058998652501,-1.4841278243693525e-05,-0.2640333473682403,-35.3632621,149.1652374,0.0,0.0,0.0,-0.03,-9.942165343090892e-05,9.444937313674018e-05,0.0,1000,1000,1000,1000,12600,0,0.0026898907963186,0.0025069704279303,0.0025215230416506,10,{}
attack_corridor_base_9,1,pos_yawl_spoof,11322,0.0002089995250571,-6.886962182761636e-06,-0.2392941564321518,-35.3632621,149.1652374,0.0,0.0,0.0,-0.03,-9.942165343090892e-05,9.444937313674018e-05,0.0,1000,1000,1000,1000,12600,0,0.0029618476983159,0.0027627074159681,0.0030308326240628,10,{}
attack_corridor_base_9,1,pos_yawl_spoof,11654,0.0002129650092683,-1.016758574223786e-06,-0.2167175412178039,-35.3632621,149.1652374,0.0,0.0,0.0,-0.03,-9.9421595223248e-05,9.44493804126978e-05,0.0,1000,1000,1000,1000,12600,0,0.0027854866348206,0.0027268042322248,0.0027358324732631,10,{}
attack_corridor_base_9,1,pos_yawl_spoof,11986,0.000220771311433,1.1792864825110884e-05,-0.1900893151760101,-35.3632621,149.1652374,0.0,0.0,0.0,-0.02,-9.942157339537516e-05,9.444939496461302e-05,0.0,1000,1000,1000,1000,12600,0,0.0028761667199432,0.002612825948745,0.002735971705988,10,{}
attack_corridor_base_9,1,pos_yawl_spoof,12319,0.0002237751468783,2.054370634141378e-05,-0.1726299226284027,-35.3632621,149.1652374,0.0,0.0,0.0,-0.02,-9.942157339537516e-05,9.444939496461302e-05,0.0,1000,1000,1000,1000,12600,0,0.0030250067356973,0.0027653200086206,0.0029576458036899,10,{}
attack_corridor_base_9,1,pos_yawl_spoof,12654,0.0002352926967432,2.801506343530491e-05,-0.1570976823568344,-35.3632621,149.1652374,0.0,0.0,0.0,-0.02,-9.942166798282416e-05,9.444940951652824e-05,0.0,1000,1000,1000,1000,12600,0,0.0029192613437771,0.0029154303483664,0.0030994503758847,10,{}
attack_corridor_base_9,1,pos_yawl_spoof,12987,0.0002452303888276,3.713983096531592e-05,-0.1389942020177841,-35.3632621,149.1652374,0.0,0.0,0.0,-0.02,-9.94216461549513e-05,9.444936586078256e-05,0.0,1000,1000,1000,1000,12600,0,0.0025016327854245,0.0027710993308573,0.0028049745596945,10,{}
attack_corridor_base_9,1,pos_yawl_spoof,13319,0.000249128381256,4.383963459986262e-05,-0.1272796392440796,-35.3632621,149.1652374,0.0,0.0,0.0,-0.01,-9.94216461549513e-05,9.444936586078256e-05,0.0,1000,1000,1000,1000,12600,0,0.0029650160577148,0.0026717507280409,0.0029355208389461,10,{}
attack_corridor_base_9,1,pos_yawl_spoof,13652,0.0002626612549647,4.85544114781078e-05,-0.1169864386320114,-35.3632621,149.1652374,0.0,0.0,0.0,-0.01,-9.942163887899368e-05,9.444939496461302e-05,0.0,1000,1000,1000,1000,12600,0,0.0025833081454038,0.0026862015947699,0.00275334645994,10,{}
attack_corridor_base_9,1,pos_yawl_spoof,13984,0.0002754379820544,6.063685577828437e-05,-0.1051996350288391,-35.3632621,149.1652374,0.0,0.0,0.0,-0.01,-9.942155884345992e-05,9.44493804126978e-05,0.0,1000,1000,1000,1000,12600,0,0.002623314037919,0.0028397240675985,0.0029748491942882,10,{}
attack_corridor_base_9,1,pos_yawl_spoof,14319,0.0002795306209009,6.831294012954459e-05,-0.0976234599947929,-35.3632621,149.1652374,0.0,0.0,0.0,-0.01,-9.942155884345992e-05,9.44493804126978e-05,0.0,1000,1000,1000,1000,12600,0,0.0030610272660851,0.0029192706570029,0.0028803346212953,10,{}
attack_corridor_base_9,1,pos_yawl_spoof,14651,0.0002928088069893,8.20724744698964e-05,-0.0910226926207542,-35.3632621,149.1652374,0.0,0.0,0.0,-0.01,-9.942151518771424e-05,9.444933675695212e-05,0.0,1000,1000,1000,1000,12600,0,0.0028944534715265,0.0029168783221393,0.0029711148235946,10,{}
attack_corridor_base_9,1,pos_yawl_spoof,14984,0.0003071017854381,9.712673636386172e-05,-0.0834586396813392,-35.3632621,149.1652374,0.0,0.0,0.0,-0.01,-9.942147153196856e-05,9.444930037716404e-05,0.0,1000,1000,1000,1000,12600,0,0.002933140611276,0.0027397396042943,0.0027227280661463,10,{}
attack_corridor_base_9,1,pos_yawl_spoof,15359,0.0003211866714991,0.0001070322177838,-0.0771338939666748,-35.3632621,149.1652374,0.0,0.0,0.0,-0.01,-9.942147153196856e-05,9.444930037716404e-05,0.0,1000,1000,1000,1000,12600,0,0.0027445345185697,0.0024996895808726,0.0031369915232062,10,{}
attack_corridor_base_9,1,pos_yawl_spoof,15609,0.0003307907027192,0.0001115051854867,-0.073786124587059,-35.3632621,149.1652374,0.0,0.0,0.0,-0.01,-9.942150063579902e-05,9.444935858482496e-05,0.0,1000,1000,1000,1000,12600,0,0.0027445345185697,0.0024996895808726,0.0031369915232062,10,{}
attack_corridor_base_9,1,pos_yawl_spoof,15859,0.0003363890282344,0.0001200049882754,-0.0708750188350677,-35.3632621,149.1652374,0.0,0.0,0.0,0.0,-9.94214860838838e-05,9.444936586078256e-05,0.0,1000,1000,1000,1000,12600,0,0.0026640279684215,0.0027920980937778,0.0025840585585683,10,{}
attack_corridor_base_9,1,pos_yawl_spoof,16329,0.0003457584534771,0.000129838794237,-0.0682299509644508,-35.3632621,149.1652374,0.0,0.0,0.0,0.0,-9.942147880792618e-05,9.444936586078256e-05,0.0,1000,1000,1000,1000,12600,0,0.0029051525052636,0.0028612499590963,0.0026816504541784,10,{}
attack_corridor_base_9,1,pos_yawl_spoof,16661,0.0003678045759443,0.0001481149229221,-0.0635152384638786,-35.3632621,149.1652374,0.0,0.0,0.0,0.0,-9.942150063579902e-05,9.44493876886554e-05,0.0,1000,1000,1000,1000,12600,0,0.0031360450666397,0.0025734172668308,0.0025887133087962,10,{}
attack_corridor_base_9,1,pos_yawl_spoof,16994,0.0003811212664004,0.0001536704221507,-0.0614482723176479,-35.3632621,149.1652374,0.0,0.0,0.0,0.0,-9.942147153196856e-05,9.444940224057063e-05,0.0,1000,1000,1000,1000,12600,0,0.0028475781437009,0.0028414553962647,0.0027528118807822,10,{}
attack_corridor_base_9,1,pos_yawl_spoof,17327,0.0003907505015376,0.0001640631671762,-0.0597027130424976,-35.3632621,149.1652374,0.0,0.0,0.0,0.0,-9.94214860838838e-05,9.444935130886734e-05,0.0,1000,1000,1000,1000,12600,0,0.0028869544621556,0.0028810093645006,0.0027899455744773,10,{}
attack_corridor_base_9,1,pos_yawl_spoof,17659,0.0004088479618076,0.0001777875149855,-0.0577919073402881,-35.3632621,149.1652374,0.0,0.0,0.0,0.0,-9.942160249920562e-05,9.444937313674018e-05,0.0,1000,1000,1000,1000,12600,0,0.0030162942130118,0.0026016102638095,0.0030297683551907,10,{}
attack_corridor_base_9,1,pos_yawl_spoof,17994,0.0004217434616293,0.0001901696377899,-0.0566036291420459,-35.3632621,149.1652374,0.0,0.0,0.0,0.0,-9.94216461549513e-05,9.444936586078256e-05,0.0,1000,1000,1000,1000,12600,0,0.0028777928091585,0.0030116406269371,0.0024214275181293,10,{}
attack_corridor_base_9,1,pos_yawl_spoof,18326,0.0004307958879508,0.000207418546779,-0.0556316822767257,-35.3632621,149.1652374,0.0,0.0,0.0,0.0,-9.942168253473938e-05,9.444936586078256e-05,0.0,1000,1000,1000,1000,12600,0,0.0027025882154703,0.0026829049456864,0.0026905678678303,10,{}
attack_corridor_base_9,1,pos_yawl_spoof,18659,0.0004468184488359,0.0002261404879391,-0.0546083599328994,-35.3632621,149.1652374,0.0,0.0,0.0,0.0,-9.942163160303608e-05,9.444931492907926e-05,0.0,1000,1000,1000,1000,12600,0,0.0026838874910026,0.0029392570722848,0.0027952273376286,10,{}
attack_corridor_base_9,1,pos_yawl_spoof,18991,0.0004664188891183,0.0002376278716837,-0.0540224239230155,-35.3632621,149.1652374,0.0,0.0,0.0,0.0,-9.94216461549513e-05,9.444930037716404e-05,0.0,1000,1000,1000,1000,12600,0,0.0031420232262462,0.0028372968081384,0.0027707379776984,10,{}
attack_corridor_base_9,1,pos_yawl_spoof,19324,0.0004803480114787,0.0002499559777788,-0.0536088198423385,-35.3632621,149.1652374,0.0,0.0,0.0,0.0,-9.94216461549513e-05,9.444930037716404e-05,0.0,1000,1000,1000,1000,12600,0,0.0026325432118028,0.0029296930879354,0.0026921667158603,10,{}
attack_corridor_base_9,1,pos_yawl_spoof,19657,0.0004997852374799,0.0002663150371517,-0.0531616806983947,-35.3632621,149.1652374,0.0,0.0,0.0,0.0,-9.942161705112083e-05,9.444932948099448e-05,0.0,1000,1000,1000,1000,12600,0,0.0026245883200317,0.0028407480567693,0.0028301167767494,10,{}
attack_corridor_base_9,1,pos_yawl_spoof,19992,0.0005181944579817,0.000278508698102,-0.052850853651762,-35.3632621,149.1652374,0.0,0.0,0.0,0.0,-9.942170436261222e-05,9.444936586078256e-05,0.0,1000,1000,1000,1000,12600,0,0.002809919649735,0.0026955544017255,0.0028349456842988,10,{}
attack_corridor_base_9,1,pos_yawl_spoof,20324,0.0005322369979694,0.0003034886613022,-0.0526466555893421,-35.3632621,149.1652374,-0.007,0.0,0.0,0.0,-9.942170436261222e-05,9.444936586078256e-05,0.0,1000,1000,1000,1000,12600,0,0.0030054827220737,0.0027898857370018,0.0027625074144452,10,{}
attack_corridor_base_9,1,pos_yawl_spoof,20656,0.0005504890577867,0.0003171419084537,-0.0526434257626533,-35.3632621,149.1652374,-0.008,0.0,0.0,0.0,-9.942171891452745e-05,9.44493804126978e-05,0.0,1000,1000,1000,1000,12600,0,0.0027972941752523,0.0028795672114938,0.0026829144917428,10,{}
attack_corridor_base_9,1,pos_yawl_spoof,20989,0.0005696669686585,0.0003370332124177,-0.0527382865548133,-35.3632621,149.1652374,-0.007,0.0,0.0,0.0,-9.942174074240028e-05,9.44493876886554e-05,0.0,1000,1000,1000,1000,12600,0,0.0027517960406839,0.0028508037794381,0.0030564512126147,10,{}
attack_corridor_base_9,1,pos_yawl_spoof,21322,0.0005824461113661,0.0003514349227771,-0.0528939515352249,-35.3632621,149.1652374,-0.005,0.0,0.0,0.0,-9.942174074240028e-05,9.44493876886554e-05,0.0,1000,1000,1000,1000,12600,0,0.0027394581120461,0.0029414072632789,0.0028465543873608,10,{}
attack_corridor_base_9,1,pos_yawl_spoof,21657,0.0005999045097269,0.0003688471042551,-0.0530944317579269,-35.3632621,149.1652374,-0.003,0.0,0.0,0.0,-9.942177712218836e-05,9.444937313674018e-05,0.0,1000,1000,1000,1000,12600,0,0.0027033302467316,0.0029788997489959,0.0028911451809108,10,{}
attack_corridor_base_9,1,pos_yawl_spoof,21989,0.0006288444274105,0.0003863715974148,-0.0533856824040412,-35.3632621,149.1652374,-0.002,0.0,0.01,0.0,-9.942180622601882e-05,9.444937313674018e-05,0.0,1000,1000,1000,1000,12600,0,0.0029202285222709,0.002936434932053,0.0029741250909864,10,{}
attack_corridor_base_9,1,pos_yawl_spoof,22321,0.0006460791337303,0.0004082090745214,-0.0536764040589332,-35.3632621,149.1652374,-0.001,0.0,0.01,0.0,-9.942180622601882e-05,9.444937313674018e-05,0.0,1000,1000,1000,1000,12600,0,0.0028033785056322,0.0027885818853974,0.0028474517166614,10,{}
attack_corridor_base_9,1,pos_yawl_spoof,22654,0.0006610767450183,0.00042641593609,-0.0539821945130825,-35.3632621,149.1652374,0.0,0.0,0.01,0.0,-9.942193719325589e-05,9.44494822761044e-05,0.0,1000,1000,1000,1000,12600,0,0.0026012745220214,0.0027819899842143,0.0029437448829412,10,{}
attack_corridor_base_9,1,pos_yawl_spoof,22989,0.0006887601921334,0.0004533540341071,-0.0544469729065895,-35.3632621,149.1652374,0.0,0.0,0.01,0.0,-9.942197357304394e-05,9.444947500014678e-05,0.0,1000,1000,1000,1000,12600,0,0.0026613057125359,0.0026212504599243,0.0027383200358599,10,{}
attack_corridor_base_9,1,pos_yawl_spoof,23322,0.0007011059788055,0.0004692816291935,-0.0548505187034606,-35.3632621,149.1652374,0.001,-0.01,0.01,0.0,-9.942197357304394e-05,9.444947500014678e-05,0.0,1000,1000,1000,1000,12600,0,0.0030045558232814,0.0027234177105128,0.0027119189035147,10,{}
attack_corridor_base_9,1,pos_yawl_spoof,23654,0.00071734940866,0.0004863808571826,-0.0552466958761215,-35.3632621,149.1652374,0.001,-0.01,0.01,0.0,-9.942186443367972e-05,9.444941679248586e-05,0.0,1000,1000,1000,1000,12600,0,0.002756900852546,0.0026994021609425,0.0027048282790929,10,{}
attack_corridor_base_9,1,pos_yawl_spoof,23987,0.0007386027136817,0.0005097575485706,-0.0557883866131305,-35.3632621,149.1652374,0.002,-0.01,0.01,0.0,-9.942184260580687e-05,9.44493876886554e-05,0.0,1000,1000,1000,1000,12600,0,0.0026000572834163,0.0025748789776116,0.0030148969963192,10,{}
attack_corridor_base_9,1,pos_yawl_spoof,24319,0.0007505866233259,0.000523128779605,-0.0562320910394191,-35.3632621,149.1652374,0.002,-0.01,0.01,0.0,-9.942184260580687e-05,9.44493876886554e-05,0.0,1000,1000,1000,1000,12600,0,0.0027511771768331,0.0028398241847753,0.0023675477132201,10,{}
attack_corridor_base_9,1,pos_yawl_spoof,24654,0.0007632784545421,0.0005391818122006,-0.056657250970602,-35.3632621,149.1652374,0.002,-0.01,0.01,0.0,-9.942187170963734e-05,9.444940951652824e-05,0.0,1000,1000,1000,1000,12600,0,0.0029215908143669,0.0026935688219964,0.0030246146488934,10,{}
attack_corridor_base_9,1,pos_yawl_spoof,24986,0.0007901389617472,0.0005595525144599,-0.0572426132857799,-35.3632621,149.1652374,0.003,-0.01,0.01,0.0,-9.942191536538304e-05,9.444949682801962e-05,0.0,1000,1000,1000,1000,12600,0,0.0027225369121879,0.0030013853684067,0.002683249535039,10,{}
attack_corridor_base_9,1,pos_yawl_spoof,25319,0.000797264103312,0.0005756227765232,-0.0577040947973728,-35.3632621,149.1652374,0.003,-0.01,0.01,0.0,-9.942191536538304e-05,9.444949682801962e-05,0.0,1000,1000,1000,1000,12600,0,0.0027182453777641,0.003116889623925,0.0026508490554988,10,{}
attack_corridor_base_9,1,pos_yawl_spoof,25652,0.0008138833218254,0.0005924091674387,-0.058113407343626,-35.3632621,149.1652374,0.003,-0.01,0.01,0.0,-9.942192264134064e-05,9.44495404837653e-05,0.0,1000,1000,1000,1000,12600,0,0.0028032148256897,0.0030362650286406,0.0028374078683555,10,{}
attack_corridor_base_9,1,pos_yawl_spoof,25984,0.0008306902018375,0.000615983561147,-0.058691382408142,-35.3632621,149.1652374,0.002,-0.01,0.01,0.0,-9.942187898559496e-05,9.444946772418916e-05,0.0,1000,1000,1000,1000,12600,0,0.002657872159034,0.0027040925342589,0.0028735569212585,10,{}
attack_corridor_base_9,1,pos_yawl_spoof,26319,0.0008510337793268,0.0006201749201864,-0.0591766126453876,-35.3632621,149.1652374,0.002,-0.01,0.01,0.0,-9.942187898559496e-05,9.444946772418916e-05,0.0,1000,1000,1000,1000,12600,0,0.002704753074795,0.0027980431914329,0.0029732959810644,10,{}
attack_corridor_base_9,1,pos_yawl_spoof,26651,0.0008621165179647,0.0006289977463893,-0.0596682280302047,-35.3632621,149.1652374,0.002,-0.01,0.01,0.0,-9.942191536538304e-05,9.444944589631632e-05,0.0,1000,1000,1000,1000,12600,0,0.0025565861724317,0.0027847506571561,0.0026575485244393,10,{}
attack_corridor_base_9,1,pos_yawl_spoof,26984,0.0008771733846515,0.0006448255735449,-0.0603256039321422,-35.3632621,149.1652374,0.002,-0.01,0.01,0.0,-9.942196629708631e-05,9.444947500014678e-05,0.0,1000,1000,1000,1000,12600,0,0.0025218036025762,0.0028206056449562,0.00279370136559,10,{}
attack_corridor_base_9,1,pos_yawl_spoof,27316,0.0008898273808881,0.00065620301757,-0.060818675905466,-35.3632621,149.1652374,0.002,-0.01,0.01,0.0,-9.942196629708631e-05,9.444947500014678e-05,0.0,1000,1000,1000,1000,12600,0,0.0026066498830914,0.0026978123933076,0.0026878414209932,10,{}
attack_corridor_base_9,1,pos_yawl_spoof,27649,0.000899487407878,0.0006593731231987,-0.0613500997424125,-35.3632621,149.1652374,0.001,-0.01,0.01,0.0,-9.942194446921349e-05,9.444946772418916e-05,0.0,1000,1000,1000,1000,12600,0,0.0027648853138089,0.0029478501528501,0.0024437580723315,10,{}
attack_corridor_base_9,1,pos_yawl_spoof,27982,0.0009139768080785,0.0006747671868652,-0.0619917660951614,-35.3632621,149.1652374,0.001,-0.01,0.01,0.0,-9.9422009952832e-05,9.44495404837653e-05,0.0,1000,1000,1000,1000,12600,0,0.0027792004402726,0.0031073871068656,0.0026966892182826,10,{}
attack_corridor_base_9,1,pos_yawl_spoof,28317,0.0009272150928154,0.0006879580323584,-0.0624976567924022,-35.3632621,149.1652374,0.001,-0.01,0.01,0.0,-9.9422009952832e-05,9.44495404837653e-05,0.0,1000,1000,1000,1000,12600,0,0.0027925451286137,0.0029755525756627,0.0025375990662723,10,{}
attack_corridor_base_9,1,pos_yawl_spoof,28649,0.0009370890329591,0.0007020253688097,-0.0629765316843986,-35.3632621,149.1652374,0.0,-0.01,0.01,0.0,-9.94220536085777e-05,9.444957686355338e-05,0.0,1000,1000,1000,1000,12600,0,0.0027524279430508,0.002666367450729,0.0027402567211538,10,{}
attack_corridor_base_9,1,pos_yawl_spoof,28981,0.0009506010683253,0.0007204160210676,-0.0636143013834953,-35.3632621,149.1652374,0.0,-0.01,0.01,0.0,-9.942218457581475e-05,9.444967145100236e-05,0.0,1000,1000,1000,1000,12600,0,0.0028948853723704,0.0026683167088776,0.002663676161319,10,{}
attack_corridor_base_9,1,pos_yawl_spoof,29314,0.0009651742875576,0.0007366685313172,-0.064086876809597,-35.3632621,149.1652374,0.0,-0.01,0.01,0.0,-9.942218457581475e-05,9.444967145100236e-05,0.0,1000,1000,1000,1000,12600,0,0.0028601030353456,0.0027425363659858,0.0025629005394876,10,{}
attack_corridor_base_9,1,pos_yawl_spoof,29647,0.0009755156934261,0.0007430834230035,-0.064553402364254,-35.3632621,149.1652374,0.0,-0.01,0.01,0.0,-9.942228643922137e-05,9.44496860029176e-05,0.0,1000,1000,1000,1000,12600,0,0.0027655521407723,0.002638985402882,0.0027474146336317,10,{}
attack_corridor_base_9,1,pos_yawl_spoof,29982,0.0009890210349112,0.0007592646288685,-0.0652090981602668,-35.3632621,149.1652374,0.0,-0.01,0.02,0.0,-9.942236647475512e-05,9.444977331440896e-05,0.0,1000,1000,1000,1000,12600,0,0.0027601053006947,0.002725944854319,0.0029943629633635,10,{}
attack_corridor_base_9,1,pos_yawl_spoof,30359,0.0009993229759857,0.0007764409529045,-0.0658242926001548,-35.3632621,149.1652374,-0.001,-0.01,0.02,0.0,-9.942236647475512e-05,9.444977331440896e-05,0.0,1000,1000,1000,1000,12600,0,0.0025216781068593,0.0028830696828663,0.0032812666613608,10,{}
attack_corridor_base_9,1,pos_yawl_spoof,30609,0.0009993229759857,0.0007764409529045,-0.0658242926001548,-35.3632621,149.1652374,-0.001,-0.01,0.02,0.0,-9.942236647475512e-05,9.444978059036656e-05,0.0,1000,1000,1000,1000,12600,0,0.0028111839201301,0.0026091155596077,0.0028552508447319,10,{}
attack_corridor_base_9,1,pos_yawl_spoof,30859,0.0010150817688554,0.0007895017624832,-0.0665873289108276,-35.3632621,149.1652374,-0.001,-0.01,0.02,0.0,-9.942243195837364e-05,9.444985334994271e-05,0.0,1000,1000,1000,1000,12600,0,0.0027452956419438,0.0027041237335652,0.0029417253099381,10,{}
attack_corridor_base_9,1,pos_yawl_spoof,31109,0.0010175429051741,0.0007959983195178,-0.0668893605470657,-35.3632621,149.1652374,-0.002,-0.01,0.02,0.0,-9.942248289007694e-05,9.444986062590031e-05,0.0,1000,1000,1000,1000,12600,0,0.0025769108906388,0.0027669810224324,0.003005594946444,10,{}
attack_corridor_base_9,1,pos_yawl_spoof,31359,0.0010302014416083,0.0008001132518984,-0.06734599173069,-35.3632621,149.1652374,-0.002,-0.01,0.02,0.0,-9.942250471794978e-05,9.444992610951886e-05,0.0,1000,1000,1000,1000,12600,0,0.0027028424665331,0.0029215172398835,0.0027641686610877,10,{}
attack_corridor_base_9,1,pos_yawl_spoof,31609,0.0010371947428211,0.0008058271487243,-0.0676377937197685,-35.3632621,149.1652374,-0.002,-0.01,0.02,0.0,-9.942253382178023e-05,9.444995521334933e-05,0.0,1000,1000,1000,1000,12600,0,0.0028622495010495,0.0028202680405229,0.0029739025048911,10,{}
attack_corridor_base_9,1,pos_yawl_spoof,31859,0.0010420772014185,0.0008085913723334,-0.0680062249302864,-35.3632621,149.1652374,-0.003,-0.01,0.02,0.0,-9.942250471794978e-05,9.444991883356124e-05,0.0,1000,1000,1000,1000,12600,0,0.0028320695273578,0.0029316064901649,0.002754321321845,10,{}
attack_corridor_base_9,1,pos_yawl_spoof,32109,0.0010442822240293,0.000811660720501,-0.0683050751686096,-35.3632621,149.1652374,-0.003,-0.01,0.02,0.0,-9.942249016603456e-05,9.444988972973078e-05,0.0,1000,1000,1000,1000,12600,0,0.0028320695273578,0.0029316064901649,0.002754321321845,10,{}
attack_corridor_base_9,1,pos_yawl_spoof,32359,0.0010558003559708,0.000819859909825,-0.0687442868947982,-35.3632621,149.1652374,-0.003,-0.01,0.02,0.0,-9.942246833816172e-05,9.444994066143408e-05,0.0,1000,1000,1000,1000,12600,0,0.0030135849956423,0.0027797264046967,0.0027835995424538,10,{}
attack_corridor_base_9,1,pos_yawl_spoof,32609,0.0010632532648742,0.0008255102438852,-0.0690530836582183,-35.3632621,149.1652374,-0.003,-0.01,0.02,0.0,-9.942243923433124e-05,9.444994066143408e-05,0.0,1000,1000,1000,1000,12600,0,0.002936613978818,0.0027838144451379,0.0028992556035518,10,{}
attack_corridor_base_9,1,pos_yawl_spoof,32859,0.0010681725107133,0.0008420061785727,-0.0694759711623191,-35.3632621,149.1652374,-0.004,-0.01,0.02,0.0,-9.942243923433124e-05,9.444994066143408e-05,0.0,1000,1000,1000,1000,12600,0,0.0028891442343592,0.002663567662239,0.0030474788509309,10,{}
attack_corridor_base_9,1,pos_yawl_spoof,33109,0.0010735368123278,0.0008471721666865,-0.0697645843029022,-35.3632621,149.1652374,-0.004,-0.01,0.02,0.0,-9.942252654582262e-05,9.444993338547648e-05,0.0,1000,1000,1000,1000,12600,0,0.0028891442343592,0.002663567662239,0.0030474788509309,10,{}
attack_corridor_base_9,1,pos_yawl_spoof,33359,0.001089789555408,0.0008593365782871,-0.0701930597424507,-35.3632621,149.1652374,-0.004,-0.01,0.02,0.0,-9.942252654582262e-05,9.444993338547648e-05,0.0,1000,1000,1000,1000,12600,0,0.0026365960948169,0.0026591238565742,0.0027382494881749,10,{}
attack_corridor_base_9,1,pos_yawl_spoof,33787,0.0011067450977861,0.0008724689832888,-0.070763386785984,-35.3632621,149.1652374,-0.004,-0.01,0.02,0.0,-9.942254837369546e-05,9.44499479373917e-05,0.0,1000,1000,1000,1000,12600,0,0.0029084060806781,0.0026827955152839,0.0028154656756669,10,{}
attack_corridor_base_9,1,pos_yawl_spoof,34122,0.0011170592624694,0.0008775644819252,-0.0711798146367073,-35.3632621,149.1652374,-0.005,-0.02,0.02,0.0,-9.9422519269865e-05,9.444996976526454e-05,0.0,1000,1000,1000,1000,12600,0,0.0027896056417375,0.0027830142062157,0.0027689300477504,10,{}
attack_corridor_base_9,1,pos_yawl_spoof,34454,0.001120971282944,0.0008900031098164,-0.0715834498405456,-35.3632621,149.1652374,-0.005,-0.02,0.02,0.0,-9.9422519269865e-05,9.444996976526454e-05,0.0,1000,1000,1000,1000,12600,0,0.0025472068227827,0.002683819970116,0.0028031044639647,10,{}
attack_corridor_base_9,1,pos_yawl_spoof,34786,0.0011362991062924,0.0009078146540559,-0.072122186422348,-35.3632621,149.1652374,-0.005,-0.02,0.02,0.0,-9.942242468241602e-05,9.444996976526454e-05,0.0,1000,1000,1000,1000,12600,0,0.0026718636509031,0.0029756936710327,0.003137620165944,10,{}
attack_corridor_base_9,1,pos_yawl_spoof,35119,0.0011465131537988,0.000918302044738,-0.0725161954760551,-35.3632621,149.1652374,-0.005,-0.02,0.02,0.0,-9.94223591987975e-05,9.444994066143408e-05,0.0,1000,1000,1000,1000,12600,0,0.0027917115949094,0.002906467532739,0.0026908763684332,10,{}
attack_corridor_base_9,1,pos_yawl_spoof,35454,0.001153255929239,0.0009288499131798,-0.0729132816195488,-35.3632621,149.1652374,-0.005,-0.02,0.02,0.0,-9.94223591987975e-05,9.444994066143408e-05,0.0,1000,1000,1000,1000,12600,0,0.0025881070178002,0.0030216132290661,0.0024397324305027,10,{}
attack_corridor_base_9,1,pos_yawl_spoof,35787,0.0011632643872871,0.0009309026063419,-0.0734398886561393,-35.3632621,149.1652374,-0.005,-0.02,0.02,0.0,-9.942233009496704e-05,9.444991155760364e-05,0.0,1000,1000,1000,1000,12600,0,0.0025746298488229,0.0030616878066211,0.0027558638248592,10,{}
attack_corridor_base_9,1,pos_yawl_spoof,36119,0.0011683471966534,0.0009384485310874,-0.0737548097968101,-35.3632621,149.1652374,-0.005,-0.02,0.02,0.0,-9.942233737092464e-05,9.444993338547648e-05,0.0,1000,1000,1000,1000,12600,0,0.0029008036945015,0.0026998710818588,0.0029473798349499,10,{}
attack_corridor_base_9,1,pos_yawl_spoof,36452,0.0011776955798268,0.0009512206888757,-0.0741181373596191,-35.3632621,149.1652374,-0.005,-0.02,0.02,0.0,-9.942233737092464e-05,9.444993338547648e-05,0.0,1000,1000,1000,1000,12600,0,0.0029727283399552,0.0027394415810704,0.0027862295974045,10,{}
attack_corridor_base_9,1,pos_yawl_spoof,36784,0.0011863963445648,0.0009715881897136,-0.0746324658393859,-35.3632621,149.1652374,-0.005,-0.02,0.02,0.0,-9.942232281900942e-05,9.444991883356124e-05,0.0,1000,1000,1000,1000,12600,0,0.0026926372665911,0.0028622134122997,0.002924827625975,10,{}
attack_corridor_base_9,1,pos_yawl_spoof,37119,0.0011974185472354,0.0009863433660939,-0.0749860703945159,-35.3632621,149.1652374,-0.005,-0.02,0.02,0.0,-9.942235192283988e-05,9.44498970056884e-05,0.0,1000,1000,1000,1000,12600,0,0.0028236124198883,0.0027250938583165,0.0027814032509922,10,{}
attack_corridor_base_9,1,pos_yawl_spoof,37451,0.0012066497001796,0.0009984822245314,-0.0753555819392204,-35.3632621,149.1652374,-0.005,-0.02,0.02,0.0,-9.942235192283988e-05,9.44498970056884e-05,0.0,1000,1000,1000,1000,12600,0,0.0030513945966959,0.0029889226425439,0.0025277400854974,10,{}
attack_corridor_base_9,1,pos_yawl_spoof,37784,0.0012125744251534,0.001012107823044,-0.0758277773857116,-35.3632621,149.1652374,-0.005,-0.02,0.02,0.0,-9.942233737092464e-05,9.44498970056884e-05,0.0,1000,1000,1000,1000,12600,0,0.0028132484294474,0.0028618634678423,0.0026262830942869,10,{}
attack_corridor_base_9,1,pos_yawl_spoof,38117,0.0012177403550595,0.0010287744225934,-0.0761934295296669,-35.3632621,149.1652374,-0.006,-0.02,0.02,0.0,-9.942234464688228e-05,9.444986062590031e-05,0.0,1000,1000,1000,1000,12600,0,0.0029351573903113,0.0028113662265241,0.0024958241265267,10,{}
attack_corridor_base_9,1,pos_yawl_spoof,38449,0.0012295147171244,0.0010378337465226,-0.0765399187803268,-35.3632621,149.1652374,-0.006,-0.02,0.02,0.0,-9.942234464688228e-05,9.444986062590031e-05,0.0,1000,1000,1000,1000,12600,0,0.0030976149719208,0.0030205610673874,0.0031044490169733,10,{}
attack_corridor_base_9,1,pos_yawl_spoof,38784,0.0012421382125467,0.0010450446279719,-0.0770060047507286,-35.3632621,149.1652374,-0.006,-0.02,0.02,0.0,-9.942233009496704e-05,9.444986062590031e-05,0.0,1000,1000,1000,1000,12600,0,0.0026029828004539,0.0029632761143147,0.0027181887999176,10,{}
attack_corridor_base_9,1,pos_yawl_spoof,39116,0.0012480900622904,0.0010652488563209,-0.0773474797606468,-35.3632621,149.1652374,-0.006,-0.02,0.02,0.0,-9.942226461134852e-05,9.444985334994271e-05,0.0,1000,1000,1000,1000,12600,0,0.0029289978556334,0.0028830671217292,0.0025416370481252,10,{}
attack_corridor_base_9,1,pos_yawl_spoof,39449,0.0012498421128839,0.0010671053314581,-0.0776911452412605,-35.3632621,149.1652374,-0.006,-0.02,0.02,0.0,-9.942226461134852e-05,9.444985334994271e-05,0.0,1000,1000,1000,1000,12600,0,0.0025818094145506,0.0027380937244743,0.0027555543929338,10,{}
attack_corridor_base_9,1,pos_yawl_spoof,39781,0.0012549015227705,0.0010771601228043,-0.0781308934092521,-35.3632621,149.1652374,-0.006,-0.02,0.02,0.0,-9.94222573353909e-05,9.444987517781556e-05,0.0,1000,1000,1000,1000,12600,0,0.0028728556353598,0.0027732988819479,0.0025749274063855,10,{}
attack_corridor_base_9,1,pos_yawl_spoof,40114,0.0012633374426513,0.0010793128749355,-0.0784633979201316,-35.3632621,149.1652374,-0.006,-0.02,0.02,0.0,-9.942229371517897e-05,9.444991883356124e-05,0.0,1000,1000,1000,1000,12600,0,0.0027349845040589,0.002713315654546,0.0027445333544164,10,{}
attack_corridor_base_9,1,pos_yawl_spoof,40447,0.0012725427513942,0.0010913492878898,-0.0787676647305488,-35.3632621,149.1652374,-0.006,-0.02,0.02,0.0,-9.942229371517897e-05,9.444991883356124e-05,0.0,1000,1000,1000,1000,12600,0,0.0027925916947424,0.0026472881436347,0.0030466597527265,10,{}
attack_corridor_base_9,1,pos_yawl_spoof,40782,0.001280516735278,0.0010959975188598,-0.0791913941502571,-35.3632621,149.1652374,-0.006,-0.02,0.02,0.0,-9.942224278347568e-05,9.444993338547648e-05,0.0,1000,1000,1000,1000,12600,0,0.0026660985313355,0.0027059721760451,0.0026201051659882,10,{}
attack_corridor_base_9,1,pos_yawl_spoof,41114,0.0012890405487269,0.0011042193509638,-0.0794462412595748,-35.3632621,149.1652374,-0.006,-0.02,0.02,0.0,-9.942227188730612e-05,9.444992610951886e-05,0.0,1000,1000,1000,1000,12600,0,0.0029320917092263,0.0031070061959326,0.0029125150758773,10,{}
attack_corridor_base_9,1,pos_yawl_spoof,41446,0.0012944703921675,0.0011131319915875,-0.0797537639737129,-35.3632621,149.1652374,-0.006,-0.02,0.02,0.0,-9.942227188730612e-05,9.444992610951886e-05,0.0,1000,1000,1000,1000,12600,0,0.0027202297933399,0.0029486478306353,0.0026890167500823,10,{}
attack_corridor_base_9,1,pos_yawl_spoof,41779,0.0013147025601938,0.0011368280975148,-0.0801621153950691,-35.3632621,149.1652374,-0.006,0.0,0.0,0.0,-9.942228643922137e-05,9.44498970056884e-05,0.0,1000,1000,1000,1000,12600,0,0.002914210781455,0.0029103772249072,0.0028938616160303,10,{}
attack_corridor_base_9,1,pos_yawl_spoof,42112,0.0013898295583203,0.0012104250490665,-0.0804590955376625,-35.3632621,149.1652374,-0.006,0.0,0.0,0.0,-9.942229371517897e-05,9.4449904281646e-05,0.0,1000,1000,1000,1000,12600,0,0.0027175454888492,0.0027223534416407,0.0027290254365652,10,{}
attack_corridor_base_9,1,pos_yawl_spoof,42447,0.0014623140450567,0.0012819822877645,-0.0807680636644363,-35.3632621,149.1652374,-0.006,0.0,0.0,0.0,-9.942229371517897e-05,9.4449904281646e-05,0.0,1000,1000,1000,1000,12600,0,0.0029473635368049,0.0027694690506905,0.0026110676117241,10,{}
attack_corridor_base_9,1,pos_yawl_spoof,42779,0.0015424517914652,0.0013672068016603,-0.0811700820922851,-35.3632621,149.1652374,-0.006,0.0,0.0,0.0,-9.942230099113658e-05,9.444992610951886e-05,0.0,1000,1000,1000,1000,12600,0,0.0026813552249222,0.00282300892286,0.0025634206831455,10,{}
attack_corridor_base_9,1,pos_yawl_spoof,43111,0.0016004394274204,0.0014231459936127,-0.081478975713253,-35.3632621,149.1652374,-0.006,-0.01,0.01,0.0,-9.94223082670942e-05,9.444991155760364e-05,0.0,1000,1000,1000,1000,12600,0,0.0027709254063665,0.002985936589539,0.0028214484918862,10,{}
attack_corridor_base_9,1,pos_yawl_spoof,43444,0.0016382233006879,0.0014528977917507,-0.081788457930088,-35.3632621,149.1652374,-0.006,-0.01,0.01,0.0,-9.94223082670942e-05,9.444991155760364e-05,0.0,1000,1000,1000,1000,12600,0,0.0026616523973643,0.003017597598955,0.0029578707180917,10,{}
attack_corridor_base_9,1,pos_yawl_spoof,43779,0.0016595815541222,0.0014740406768396,-0.0821977481245994,-35.3632621,149.1652374,-0.006,-0.01,0.01,0.0,-9.94223155430518e-05,9.444983879802749e-05,0.0,1000,1000,1000,1000,12600,0,0.0030424925498664,0.0030978522263467,0.0027097268030047,10,{}
attack_corridor_base_9,1,pos_yawl_spoof,44112,0.0016540986252948,0.0014724936336278,-0.0825046375393867,-35.3632621,149.1652374,-0.006,-0.01,0.01,0.0,-9.942238102667034e-05,9.44498970056884e-05,0.0,1000,1000,1000,1000,12600,0,0.0028399443253874,0.0030343066900968,0.0028454079292714,10,{}
attack_corridor_base_9,1,pos_yawl_spoof,44444,0.0016336705302819,0.0014489290770143,-0.0827973783016204,-35.3632621,149.1652375,-0.006,-0.01,0.01,0.0,-9.942238102667034e-05,9.44498970056884e-05,0.0,1000,1000,1000,1000,12600,0,0.0026481170207262,0.0030148304067552,0.0026420182548463,10,{}
attack_corridor_base_9,1,pos_yawl_spoof,44777,0.0015847227768972,0.0014000884257256,-0.0831653997302055,-35.3632621,149.1652375,-0.006,-0.01,0.02,0.0,-9.942238830262796e-05,9.444986062590031e-05,0.0,1000,1000,1000,1000,12600,0,0.0029389085248112,0.0027030897326767,0.0027107549831271,10,{}
attack_corridor_base_9,1,pos_yawl_spoof,45109,0.0015334117924794,0.0013508023694157,-0.0834498405456543,-35.3632621,149.1652375,-0.006,-0.01,0.02,0.0,-9.942233009496704e-05,9.444986062590031e-05,0.0,1000,1000,1000,1000,12600,0,0.0028302313294261,0.0027951046358793,0.0028744675219058,10,{}
attack_corridor_base_9,1,pos_yawl_spoof,45359,0.001479779719375,0.0012987024383619,-0.0837108418345451,-35.3632622,149.1652375,-0.006,-0.01,0.02,0.0,-9.942233009496704e-05,9.444986062590031e-05,0.0,1000,1000,1000,1000,12600,0,0.0026466471608728,0.0028532217256724,0.0028326564934104,10,{}
attack_corridor_base_9,1,pos_yawl_spoof,45609,0.0014392905868589,0.0012611208949238,-0.0839290097355842,-35.3632622,149.1652375,-0.006,-0.01,0.02,0.0,-9.942233737092464e-05,9.444988972973078e-05,0.0,1000,1000,1000,1000,12600,0,0.0026466471608728,0.0028532217256724,0.0028326564934104,10,{}
attack_corridor_base_9,1,pos_yawl_spoof,45859,0.0013833766570314,0.0012024238239973,-0.0841258093714714,-35.3632622,149.1652375,-0.006,-0.01,0.02,0.0,-9.942232281900942e-05,9.444988245377316e-05,0.0,1000,1000,1000,1000,12600,0,0.0030986382625997,0.0027661113999783,0.0028485991060733,10,{}
attack_corridor_base_9,1,pos_yawl_spoof,46109,0.0013420513132587,0.0011571710929274,-0.0843360424041748,-35.3632622,149.1652375,-0.006,-0.01,0.01,0.0,-9.942230099113658e-05,9.444987517781556e-05,0.0,1000,1000,1000,1000,12600,0,0.0029644416645169,0.0029269512742757,0.0028181383386254,10,{}
attack_corridor_base_9,1,pos_yawl_spoof,46359,0.001302353455685,0.0011119218543171,-0.0845028012990951,-35.3632622,149.1652375,-0.006,-0.01,0.01,0.0,-9.942227916326374e-05,9.444988245377316e-05,0.0,1000,1000,1000,1000,12600,0,0.0026376990135759,0.002692375332117,0.0027953942772001,10,{}
attack_corridor_base_9,1,pos_yawl_spoof,46609,0.0012745825806632,0.0010905761737376,-0.0846693366765976,-35.3632622,149.1652375,-0.006,-0.01,0.01,0.0,-9.94223155430518e-05,9.444991883356124e-05,0.0,1000,1000,1000,1000,12600,0,0.0026083530392497,0.0027677789330482,0.0025946777313947,10,{}
attack_corridor_base_9,1,pos_yawl_spoof,46859,0.0012297575594857,0.0010503710946068,-0.0848642215132713,-35.3632622,149.1652375,-0.006,-0.01,0.01,0.0,-9.942224278347568e-05,9.444988972973078e-05,0.0,1000,1000,1000,1000,12600,0,0.002910564886406,0.0027353847399353,0.0024345691781491,10,{}
attack_corridor_base_9,1,pos_yawl_spoof,47109,0.0011976105161011,0.0010227526072412,-0.0850475579500198,-35.3632621,149.1652375,-0.006,-0.01,0.01,0.0,-9.942224278347568e-05,9.444992610951886e-05,0.0,1000,1000,1000,1000,12600,0,0.0028303319122642,0.0026740948669612,0.0024077135603874,10,{}
attack_corridor_base_9,1,pos_yawl_spoof,47359,0.0011716082226485,0.0010006602387875,-0.0852314457297325,-35.3632621,149.1652375,-0.006,-0.01,0.01,0.0,-9.942222095560282e-05,9.4449904281646e-05,0.0,1000,1000,1000,1000,12600,0,0.0029423027299344,0.0028501029592007,0.0027276657056063,10,{}
attack_corridor_base_9,1,pos_yawl_spoof,47609,0.0011574157979339,0.0009868261404335,-0.0854023247957229,-35.3632621,149.1652375,-0.006,-0.01,0.01,0.0,-9.942217729985714e-05,9.444986790185794e-05,0.0,1000,1000,1000,1000,12600,0,0.0027303090319037,0.0027330066077411,0.0027822644915431,10,{}
attack_corridor_base_9,1,pos_yawl_spoof,47859,0.0011315657757222,0.000963939120993,-0.0855848044157028,-35.3632621,149.1652375,-0.006,-0.01,0.01,0.0,-9.942214819602668e-05,9.444982424611226e-05,0.0,1000,1000,1000,1000,12600,0,0.0028108877595514,0.0027082320302724,0.0027169650420546,10,{}
attack_corridor_base_9,1,pos_yawl_spoof,48109,0.0011161502916365,0.0009478863212279,-0.085745021700859,-35.3632621,149.1652375,-0.006,-0.01,0.01,0.0,-9.942212636815384e-05,9.444983152206988e-05,0.0,1000,1000,1000,1000,12600,0,0.0030491205397993,0.0027331912424415,0.0027405279688537,10,{}
attack_corridor_base_9,1,pos_yawl_spoof,48359,0.0011058845557272,0.0009365650475956,-0.0859261080622673,-35.3632621,149.1652375,-0.006,-0.01,0.01,0.0,-9.9422104540281e-05,9.444981697015464e-05,0.0,1000,1000,1000,1000,12600,0,0.0027207722887396,0.0029172629583626,0.002804365940392,10,{}
attack_corridor_base_9,1,pos_yawl_spoof,48609,0.0011006300337612,0.0009317060466855,-0.0860879570245742,-35.3632621,149.1652375,-0.006,-0.01,0.01,0.0,-9.942208271240816e-05,9.444980969419704e-05,0.0,1000,1000,1000,1000,12600,0,0.0028970411513,0.0027192051056772,0.0029634728562086,10,{}
attack_corridor_base_9,1,pos_yawl_spoof,48859,0.0010899169137701,0.0009227179689332,-0.0862411931157112,-35.3632621,149.1652375,-0.006,-0.01,0.01,0.0,-9.942207543645054e-05,9.44497878663242e-05,0.0,1000,1000,1000,1000,12600,0,0.0027527327183634,0.0030729549471288,0.002835240913555,10,{}
attack_corridor_base_9,1,pos_yawl_spoof,49109,0.0010844735661521,0.0009155903244391,-0.086416020989418,-35.3632621,149.1652375,-0.006,-0.01,0.01,0.0,-9.942202450474724e-05,9.444976603845134e-05,0.0,1000,1000,1000,1000,12600,0,0.0029563058633357,0.0029968756716698,0.0026840369682759,10,{}
attack_corridor_base_9,1,pos_yawl_spoof,49359,0.0010836297878995,0.000911472889129,-0.0865660011768341,-35.3632621,149.1652375,-0.006,-0.01,0.01,0.0,-9.942198812495916e-05,9.444977331440896e-05,0.0,1000,1000,1000,1000,12600,0,0.0026542518753558,0.0025782235898077,0.0027506449259817,10,{}
attack_corridor_base_9,1,pos_yawl_spoof,49609,0.001083314185962,0.0009116774308495,-0.0867242142558097,-35.3632621,149.1652375,-0.006,-0.01,0.01,0.0,-9.942197357304394e-05,9.444972965866329e-05,0.0,1000,1000,1000,1000,12600,0,0.0027467922773212,0.0029318167362362,0.0026389684062451,10,{}
attack_corridor_base_9,1,pos_yawl_spoof,49859,0.0010767091298475,0.0009133914718404,-0.0868810340762138,-35.3632621,149.1652375,-0.006,-0.01,0.01,0.0,-9.942198812495916e-05,9.444971510674804e-05,0.0,1000,1000,1000,1000,12600,0,0.0026736531872302,0.0027801760006695,0.0026876882184296,10,{}
attack_corridor_base_9,1,pos_yawl_spoof,50109,0.001077288063243,0.0009144202340394,-0.0870408043265342,-35.3632621,149.1652375,-0.006,-0.01,0.01,0.0,-9.942198812495916e-05,9.444970055483282e-05,0.0,1000,1000,1000,1000,12600,0,0.0028335242532193,0.0027619735337793,0.0027765596751123,10,{}
attack_corridor_base_9,1,pos_yawl_spoof,50359,0.0010808486258611,0.00091595511185,-0.0871888771653175,-35.3632621,149.1652375,-0.006,-0.01,0.01,0.0,-9.942198084900156e-05,9.444967145100236e-05,0.0,1000,1000,1000,1000,12600,0,0.0024278932251036,0.0027282009832561,0.0029208599589765,10,{}
attack_corridor_base_9,1,pos_yawl_spoof,50609,0.0010829212842509,0.0009137858287431,-0.0873526260256767,-35.3632621,149.1652375,-0.006,-0.01,0.01,0.0,-9.94219517451711e-05,9.44495914154686e-05,0.0,1000,1000,1000,1000,12600,0,0.002879538340494,0.0029125586152076,0.0027053637895733,10,{}
attack_corridor_base_9,1,pos_yawl_spoof,50859,0.0010856396984308,0.0009125049691647,-0.0874918773770332,-35.3632621,149.1652375,-0.006,-0.01,0.01,0.0,-9.94219517451711e-05,9.4449584139511e-05,0.0,1000,1000,1000,1000,12600,0,0.0027302517555654,0.0030901927966624,0.0029180580750107,10,{}
attack_corridor_base_9,1,pos_yawl_spoof,51109,0.001086049946025,0.0009131146362051,-0.0876459330320358,-35.3632621,149.1652375,-0.006,-0.01,0.01,0.0,-9.942192991729826e-05,9.444955503568052e-05,0.0,1000,1000,1000,1000,12600,0,0.0027591884136199,0.0027631274424493,0.0026923993136733,10,{}
attack_corridor_base_9,1,pos_yawl_spoof,51359,0.0010868506506085,0.0009175626910291,-0.0877839922904968,-35.3632621,149.1652375,-0.006,-0.01,0.01,0.0,-9.942188626155256e-05,9.444951865589246e-05,0.0,1000,1000,1000,1000,12600,0,0.0028520594350993,0.0027719265781342,0.0025614437181502,10,{}
attack_corridor_base_9,1,pos_yawl_spoof,51609,0.0010907595278695,0.0009178295731544,-0.0879308655858039,-35.3632621,149.1652375,-0.006,-0.01,0.01,0.0,-9.942188626155256e-05,9.444949682801962e-05,0.0,1000,1000,1000,1000,12600,0,0.0028616972267627,0.0030034955125302,0.0029727213550359,10,{}
attack_corridor_base_9,1,pos_yawl_spoof,51859,0.0010945609537884,0.0009136635926552,-0.0880665108561515,-35.3632621,149.1652375,-0.006,-0.01,0.01,0.0,-9.94219008134678e-05,9.444951137993483e-05,0.0,1000,1000,1000,1000,12600,0,0.0029814532026648,0.0026728399097919,0.0029063106048852,10,{}
attack_corridor_base_9,1,pos_yawl_spoof,52109,0.0010988776339218,0.0009065615013241,-0.0882175415754318,-35.3632621,149.1652375,-0.006,-0.01,0.01,0.0,-9.94219008134678e-05,9.4449489552062e-05,0.0,1000,1000,1000,1000,12600,0,0.0029230408836156,0.00247423350811,0.002851016819477,10,{}
attack_corridor_base_9,1,pos_yawl_spoof,52359,0.0011044458951801,0.000905878667254,-0.088345929980278,-35.3632621,149.1652375,-0.006,-0.01,0.01,0.0,-9.942188626155256e-05,9.44494822761044e-05,0.0,1000,1000,1000,1000,12600,0,0.0027000752743333,0.0028381752781569,0.0027657821774482,10,{}
attack_corridor_base_9,1,pos_yawl_spoof,52609,0.0011101830750703,0.0009166558738797,-0.0884618759155273,-35.3632621,149.1652375,-0.006,-0.01,0.01,0.0,-9.942186443367972e-05,9.444945317227392e-05,0.0,1000,1000,1000,1000,12600,0,0.0030767873395234,0.0026920665986835,0.0027921046130359,10,{}
attack_corridor_base_9,1,pos_yawl_spoof,52859,0.001110072247684,0.0009179531480185,-0.0885967016220092,-35.3632621,149.1652375,-0.006,-0.01,0.01,0.0,-9.942185715772212e-05,9.444943134440108e-05,0.0,1000,1000,1000,1000,12600,0,0.0028559758793562,0.0030114487744867,0.0028830426745116,10,{}
attack_corridor_base_9,1,pos_yawl_spoof,53109,0.00111061159987,0.0009145463118329,-0.0887294560670852,-35.3632621,149.1652375,-0.006,-0.01,0.01,0.0,-9.942184260580687e-05,9.444942406844348e-05,0.0,1000,1000,1000,1000,12600,0,0.0026552360504865,0.0027969314251095,0.002747000195086,10,{}
attack_corridor_base_9,1,pos_yawl_spoof,53359,0.0011165087344124,0.0009218102204613,-0.0888745263218879,-35.3632621,149.1652375,-0.006,-0.01,0.01,0.0,-9.942185715772212e-05,9.444944589631632e-05,0.0,1000,1000,1000,1000,12600,0,0.0028256755322217,0.002582041081041,0.0025965091772377,10,{}
attack_corridor_base_9,1,pos_yawl_spoof,53609,0.0011301687918603,0.0009308191947638,-0.0890049859881401,-35.3632621,149.1652375,-0.006,-0.01,0.01,0.0,-9.942181350197644e-05,9.444940951652824e-05,0.0,1000,1000,1000,1000,12600,0,0.0027136178687214,0.0030119668226689,0.0027076255064457,10,{}
attack_corridor_base_9,1,pos_yawl_spoof,53859,0.0011319947661831,0.0009267268469557,-0.0891346707940101,-35.3632621,149.1652375,-0.006,-0.01,0.01,0.0,-9.942180622601882e-05,9.444942406844348e-05,0.0,1000,1000,1000,1000,12600,0,0.0025304211303591,0.0027555502019822,0.0028730470221489,10,{}
attack_corridor_base_9,1,pos_yawl_spoof,54109,0.0011332229478284,0.0009350831387564,-0.0892697721719741,-35.3632621,149.1652375,-0.006,-0.01,0.01,0.0,-9.942177712218836e-05,9.444941679248586e-05,0.0,1000,1000,1000,1000,12600,0,0.0029445025138556,0.0027861802373081,0.0029055504128336,10,{}
attack_corridor_base_9,1,pos_yawl_spoof,54359,0.0011347508989274,0.0009401349816471,-0.0893977358937263,-35.3632621,149.1652375,-0.006,-0.01,0.01,0.0,-9.942174074240028e-05,9.444936586078256e-05,0.0,1000,1000,1000,1000,12600,0,0.0029112566262483,0.0028869768138974,0.002918436890468,10,{}
attack_corridor_base_9,1,pos_yawl_spoof,54609,0.0011451302561908,0.0009490324300713,-0.0895230695605278,-35.3632621,149.1652375,-0.006,-0.01,0.01,0.0,-9.942173346644267e-05,9.44493804126978e-05,0.0,1000,1000,1000,1000,12600,0,0.0025890567339956,0.0028299414552748,0.0026409763377159,10,{}
attack_corridor_base_9,1,pos_yawl_spoof,54859,0.0011450488818809,0.0009480275330133,-0.0896439254283905,-35.3632621,149.1652375,-0.006,-0.01,0.01,0.0,-9.942174074240028e-05,9.444932948099448e-05,0.0,1000,1000,1000,1000,12600,0,0.0031799010466784,0.0028269935864955,0.0029345722869038,10,{}
attack_corridor_base_9,1,pos_yawl_spoof,55109,0.0011465181596577,0.0009495709673501,-0.0897722691297531,-35.3632621,149.1652375,-0.006,-0.01,0.01,0.0,-9.942173346644267e-05,9.444930037716404e-05,0.0,1000,1000,1000,1000,12600,0,0.0027986096683889,0.0028150491416454,0.002693748101592,10,{}
attack_corridor_base_9,1,pos_yawl_spoof,55359,0.0011464554117992,0.0009526344947516,-0.0898926109075546,-35.3632621,149.1652375,-0.006,-0.01,0.01,0.0,-9.942174074240028e-05,9.444929310120642e-05,0.0,1000,1000,1000,1000,12600,0,0.002565361559391,0.002535554813221,0.0026234781835228,10,{}
attack_corridor_base_9,1,pos_yawl_spoof,55609,0.0011497512459754,0.0009569270769134,-0.0900230631232261,-35.3632621,149.1652375,-0.006,-0.01,0.01,0.0,-9.9421689810697e-05,9.444924944546074e-05,0.0,1000,1000,1000,1000,12600,0,0.002817535540089,0.0032122749835252,0.0026432978920638,10,{}
attack_corridor_base_9,1,pos_yawl_spoof,55859,0.0011466370197013,0.0009505224879831,-0.0901414081454277,-35.3632621,149.1652375,-0.006,-0.01,0.01,0.0,-9.942170436261222e-05,9.444929310120642e-05,0.0,1000,1000,1000,1000,12600,0,0.0026250488590449,0.0027982108294963,0.0025702097918838,10,{}
attack_corridor_base_9,1,pos_yawl_spoof,56109,0.0011456083739176,0.0009517219150438,-0.0902686417102813,-35.3632621,149.1652375,-0.006,-0.01,0.01,0.0,-9.942168253473938e-05,9.444927127333358e-05,0.0,1000,1000,1000,1000,12600,0,0.0027849364560097,0.0028565141838043,0.0030404615681618,10,{}
attack_corridor_base_9,1,pos_yawl_spoof,56359,0.0011507422896102,0.0009558619349263,-0.0903873071074485,-35.3632621,149.1652375,-0.006,-0.01,0.01,0.0,-9.942167525878176e-05,9.444924216950312e-05,0.0,1000,1000,1000,1000,12600,0,0.0027203415520489,0.0028904259670525,0.0031632927712053,10,{}
attack_corridor_base_9,1,pos_yawl_spoof,56609,0.0011518693063408,0.0009608949767425,-0.0905098542571067,-35.3632621,149.1652375,-0.006,-0.01,0.01,0.0,-9.94216970866546e-05,9.444927127333358e-05,0.0,1000,1000,1000,1000,12600,0,0.0027449512854218,0.0026981437113136,0.0027362967375665,10,{}
attack_corridor_base_9,1,pos_yawl_spoof,56859,0.0011375400936231,0.0009584983345121,-0.0905952900648117,-35.3632621,149.1652375,-0.006,-0.01,0.01,0.0,-9.94217480183579e-05,9.444930037716404e-05,0.0,1000,1000,1000,1000,12600,0,0.0028893600683659,0.0026930251624435,0.0027068881317973,10,{}
attack_corridor_base_9,1,pos_yawl_spoof,57109,0.0011328201508149,0.0009548915550112,-0.0907113626599311,-35.3632621,149.1652375,-0.006,-0.01,0.01,0.0,-9.942180622601882e-05,9.444932220503688e-05,0.0,1000,1000,1000,1000,12600,0,0.0027536787092685,0.0030802197288721,0.0027672003488987,10,{}
attack_corridor_base_9,1,pos_yawl_spoof,57359,0.0011408270802348,0.0009573363931849,-0.0908305943012237,-35.3632621,149.1652375,-0.006,-0.01,0.01,0.0,-9.942182077793404e-05,9.444934403290972e-05,0.0,1000,1000,1000,1000,12600,0,0.0027568275108933,0.0028920324984937,0.002678319113329,10,{}
attack_corridor_base_9,1,pos_yawl_spoof,57609,0.0011471644975245,0.0009653907036408,-0.0909455642104148,-35.3632622,149.1652375,-0.006,-0.01,0.01,0.0,-9.942181350197644e-05,9.444935130886734e-05,0.0,1000,1000,1000,1000,12600,0,0.0026882162783294,0.0026123553980141,0.0025218275841325,10,{}
attack_corridor_base_9,1,pos_yawl_spoof,57859,0.001146194175817,0.0009619080810807,-0.0910542085766792,-35.3632622,149.1652375,-0.006,-0.01,0.01,0.0,-9.942182805389166e-05,9.444936586078256e-05,0.0,1000,1000,1000,1000,12600,0,0.002668687608093,0.0025595328770577,0.0026131751947104,10,{}
attack_corridor_base_9,1,pos_yawl_spoof,58109,0.0011505525326356,0.0009610041161067,-0.0911633297801017,-35.3632621,149.1652375,-0.006,-0.01,0.01,0.0,-9.942185715772212e-05,9.444940224057063e-05,0.0,1000,1000,1000,1000,12600,0,0.002592162694782,0.002722289878875,0.0025753893423825,10,{}
attack_corridor_base_9,1,pos_yawl_spoof,58359,0.0011542320717126,0.0009669857099652,-0.0912787616252899,-35.3632622,149.1652375,-0.006,-0.01,0.01,0.0,-9.94218498817645e-05,9.44493804126978e-05,0.0,1000,1000,1000,1000,12600,0,0.0031369768548756,0.0028553549200296,0.0027410581242293,10,{}
attack_corridor_base_9,1,pos_yawl_spoof,58609,0.0011553011136129,0.0009718756773509,-0.0913853123784065,-35.3632622,149.1652375,-0.006,-0.01,0.01,0.0,-9.942191536538304e-05,9.444943134440108e-05,0.0,1000,1000,1000,1000,12600,0,0.0033145740162581,0.0030581026803702,0.0028399054426699,10,{}
attack_corridor_base_9,1,pos_yawl_spoof,58859,0.0011538896942511,0.0009682156960479,-0.0914982110261917,-35.3632621,149.1652375,-0.006,-0.01,0.01,0.0,-9.94219517451711e-05,9.444946772418916e-05,0.0,1000,1000,1000,1000,12600,0,0.0028739322442561,0.0027509827632457,0.0026435637846589,10,{}
attack_corridor_base_9,1,pos_yawl_spoof,59109,0.0011556694516912,0.0009694803738966,-0.0916053280234336,-35.3632621,149.1652375,-0.006,-0.01,0.01,0.0,-9.942192264134064e-05,9.444939496461302e-05,0.0,1000,1000,1000,1000,12600,0,0.0027096571866422,0.0027901530265808,0.0026358063332736,10,{}
attack_corridor_base_9,1,pos_yawl_spoof,59359,0.0011579641140997,0.0009754665661603,-0.0917064175009727,-35.3632621,149.1652375,-0.006,-0.01,0.01,0.0,-9.942193719325589e-05,9.44493876886554e-05,0.0,1000,1000,1000,1000,12600,0,0.0029861505609005,0.0025646232534199,0.0026288125663995,10,{}
attack_corridor_base_9,1,pos_yawl_spoof,59609,0.0011633834801614,0.0009801442502066,-0.0918145030736923,-35.3632622,149.1652375,-0.006,-0.01,0.01,0.0,-9.942194446921349e-05,9.444936586078256e-05,0.0,1000,1000,1000,1000,12600,0,0.0029572832863777,0.0027076476253569,0.00274412590079,10,{}
attack_corridor_base_9,1,pos_yawl_spoof,59859,0.0011509482283145,0.000975351431407,-0.0919141396880149,-35.3632621,149.1652375,-0.006,-0.01,0.01,0.0,-9.942197357304394e-05,9.44493876886554e-05,0.0,1000,1000,1000,1000,12600,0,0.0026913029141724,0.0028327982872724,0.002781176706776,10,{}
attack_corridor_base_9,1,pos_yawl_spoof,60109,0.0011509925825521,0.000969759596046,-0.0920155718922615,-35.3632621,149.1652375,-0.006,-0.01,0.01,0.0,-9.942198812495916e-05,9.444936586078256e-05,0.0,1000,1000,1000,1000,12600,0,0.0030766644049435,0.0027686390094459,0.0027320855297148,10,{}
attack_corridor_base_9,1,pos_yawl_spoof,60359,0.0011524152942001,0.0009686223929747,-0.0921175554394722,-35.3632621,149.1652375,-0.006,-0.01,0.01,0.0,-9.942203178070486e-05,9.444936586078256e-05,0.0,1000,1000,1000,1000,12600,0,0.0026436760090291,0.0028392449021339,0.0027064899913966,10,{}
attack_corridor_base_9,1,pos_yawl_spoof,60609,0.0011598190758377,0.0009716156055219,-0.0922170132398605,-35.3632622,149.1652375,-0.006,-0.01,0.01,0.0,-9.942204633262008e-05,9.444936586078256e-05,0.0,1000,1000,1000,1000,12600,0,0.0027707696426659,0.0029338735621422,0.0028347743209451,10,{}
attack_corridor_base_9,1,pos_yawl_spoof,60859,0.0011506222654134,0.0009574568248353,-0.092320829629898,-35.3632621,149.1652375,-0.006,-0.01,0.01,0.0,-9.942202450474724e-05,9.444936586078256e-05,0.0,1000,1000,1000,1000,12600,0,0.0028452328406274,0.0027584449853748,0.0026043693069368,10,{}
attack_corridor_base_9,1,pos_yawl_spoof,61109,0.0011541894637048,0.0009530831011943,-0.0924205854535102,-35.3632621,149.1652375,-0.006,-0.01,0.01,0.0,-9.94220536085777e-05,9.44493804126978e-05,0.0,1000,1000,1000,1000,12600,0,0.0024660823401063,0.0028912045527249,0.0028075324371457,10,{}
attack_corridor_base_9,1,pos_yawl_spoof,61359,0.0011573708616197,0.0009573562419973,-0.0925099551677703,-35.3632622,149.1652375,-0.006,-0.01,0.01,0.0,-9.942203905666248e-05,9.444936586078256e-05,0.0,1000,1000,1000,1000,12600,0,0.0032029920257627,0.0030849571339786,0.0030326165724545,10,{}
attack_corridor_base_9,1,pos_yawl_spoof,61609,0.0011635122355073,0.0009605655213817,-0.0926069393754005,-35.3632622,149.1652375,-0.006,-0.01,0.01,0.0,-9.942208271240816e-05,9.444936586078256e-05,0.0,1000,1000,1000,1000,12600,0,0.002741303993389,0.0028050777036696,0.0029552169144153,10,{}
attack_corridor_base_9,1,pos_yawl_spoof,61859,0.0011544275330379,0.0009527966612949,-0.0926810577511787,-35.3632622,149.1652375,-0.006,-0.01,0.01,0.0,-9.942208998836576e-05,9.444940224057063e-05,0.0,1000,1000,1000,1000,12600,0,0.0028701815754175,0.0027552323881536,0.0030200348701328,10,{}
attack_corridor_base_9,1,pos_yawl_spoof,62109,0.0011569677153602,0.000955494469963,-0.0927723050117492,-35.3632622,149.1652375,-0.006,-0.01,0.01,0.0,-9.9422104540281e-05,9.444942406844348e-05,0.0,1000,1000,1000,1000,12600,0,0.0025762638542801,0.0028237842489033,0.0028158761560916,10,{}
attack_corridor_base_9,1,pos_yawl_spoof,62359,0.0011623781174421,0.0009543164051137,-0.092864952981472,-35.3632622,149.1652375,-0.006,-0.01,0.01,0.0,-9.942212636815384e-05,9.444945317227392e-05,0.0,1000,1000,1000,1000,12600,0,0.0026123153511434,0.0026703509502112,0.002782214898616,10,{}
attack_corridor_base_9,1,pos_yawl_spoof,62609,0.0011630640365183,0.0009633832378312,-0.0929517447948455,-35.3632622,149.1652375,-0.006,-0.01,0.01,0.0,-9.942212636815384e-05,9.444947500014678e-05,0.0,1000,1000,1000,1000,12600,0,0.0026079635135829,0.0030001872219145,0.0027914310339838,10,{}
attack_corridor_base_9,1,pos_yawl_spoof,62859,0.0011604845058172,0.0009619378834031,-0.0930454730987548,-35.3632621,149.1652375,-0.006,-0.01,0.01,0.0,-9.942214092006908e-05,9.4449489552062e-05,0.0,1000,1000,1000,1000,12600,0,0.0026514795608818,0.0031213136389851,0.0026552302297204,10,{}
attack_corridor_base_9,1,pos_yawl_spoof,63109,0.0011601106962189,0.0009673222666606,-0.0931419879198074,-35.3632622,149.1652375,-0.006,-0.01,0.01,0.0,-9.942209726432338e-05,9.444941679248586e-05,0.0,1000,1000,1000,1000,12600,0,0.002965441904962,0.002840616274625,0.0027106117922812,10,{}
attack_corridor_base_9,1,pos_yawl_spoof,63359,0.0011590296635404,0.0009661630610935,-0.0932361409068107,-35.3632622,149.1652375,-0.006,-0.01,0.01,0.0,-9.942212636815384e-05,9.444942406844348e-05,0.0,1000,1000,1000,1000,12600,0,0.0027578943409025,0.002770138438791,0.0028627743013203,10,{}
attack_corridor_base_9,1,pos_yawl_spoof,63609,0.0011627719504758,0.0009760424145497,-0.0933211520314216,-35.3632622,149.1652375,-0.006,-0.01,0.01,0.0,-9.94221118162386e-05,9.44493876886554e-05,0.0,1000,1000,1000,1000,12600,0,0.0028746810276061,0.0024982353206723,0.0027471780776977,10,{}
attack_corridor_base_9,1,pos_yawl_spoof,63859,0.0011575233656913,0.000970876251813,-0.0934023186564445,-35.3632622,149.1652375,-0.006,-0.01,0.01,0.0,-9.942208998836576e-05,9.444940951652824e-05,0.0,1000,1000,1000,1000,12600,0,0.0028890091925859,0.0030402233824133,0.002816057531163,10,{}
attack_corridor_base_9,1,pos_yawl_spoof,64109,0.0011629948858171,0.0009625497623346,-0.0934900492429733,-35.3632622,149.1652375,-0.006,-0.01,0.01,0.0,-9.942211909219624e-05,9.444942406844348e-05,0.0,1000,1000,1000,1000,12600,0,0.0027221243362873,0.003016339847818,0.0031026387587189,10,{}
attack_corridor_base_9,1,pos_yawl_spoof,64359,0.0011643841862678,0.0009647234110161,-0.0935746431350708,-35.3632622,149.1652375,-0.006,-0.01,0.01,0.0,-9.942214819602668e-05,9.444943134440108e-05,0.0,1000,1000,1000,1000,12600,0,0.0028825874906033,0.0028768603224307,0.0028068444225937,10,{}
attack_corridor_base_9,1,pos_yawl_spoof,64609,0.0011742374626919,0.0009671474690549,-0.0936604961752891,-35.3632622,149.1652375,-0.006,-0.01,0.01,0.0,-9.942217002389953e-05,9.444946044823156e-05,0.0,1000,1000,1000,1000,12600,0,0.002824182389304,0.0028840594459325,0.0029115660581737,10,{}
attack_corridor_base_9,1,pos_yawl_spoof,64859,0.0011716042645275,0.0009586861706338,-0.093745581805706,-35.3632621,149.1652375,-0.006,-0.01,0.01,0.0,-9.942219912772998e-05,9.444946772418916e-05,0.0,1000,1000,1000,1000,12600,0,0.0028020250611007,0.0029560797847807,0.0029144000727683,10,{}
attack_corridor_base_9,1,pos_yawl_spoof,65109,0.0011645675403997,0.000952118076384,-0.0938320383429527,-35.3632621,149.1652375,-0.006,-0.01,0.01,0.0,-9.942217729985714e-05,9.444945317227392e-05,0.0,1000,1000,1000,1000,12600,0,0.0028468605596572,0.0030448264442384,0.0027191070839762,10,{}
attack_corridor_base_9,1,pos_yawl_spoof,65359,0.0011631917441263,0.0009598119067959,-0.0939121320843696,-35.3632622,149.1652375,-0.006,-0.01,0.01,0.0,-9.942219185177235e-05,9.444947500014678e-05,0.0,1000,1000,1000,1000,12600,0,0.0028156533371657,0.0028655622154474,0.0028732996433973,10,{}
attack_corridor_base_9,1,pos_yawl_spoof,65609,0.0011656945571303,0.0009660765063017,-0.0939991250634193,-35.3632622,149.1652375,-0.006,-0.01,0.01,0.0,-9.942219912772998e-05,9.4449489552062e-05,0.0,1000,1000,1000,1000,12600,0,0.0026665946934372,0.0025459341704845,0.0026670100633054,10,{}
attack_corridor_base_9,1,pos_yawl_spoof,65859,0.0011626722989603,0.000960785197094,-0.0940809920430183,-35.3632621,149.1652375,-0.006,-0.01,0.01,0.0,-9.942219912772998e-05,9.4449489552062e-05,0.0,1000,1000,1000,1000,12600,0,0.0026679912116378,0.0029578441753983,0.002627108246088,10,{}
attack_corridor_base_9,1,pos_yawl_spoof,66109,0.0011652786051854,0.0009615044109523,-0.0941618680953979,-35.3632621,149.1652375,-0.006,-0.01,0.01,0.0,-9.942219185177235e-05,9.4449489552062e-05,0.0,1000,1000,1000,1000,12600,0,0.0026518334634602,0.0029396039899438,0.0029445991385728,10,{}
attack_corridor_base_9,1,pos_yawl_spoof,66359,0.0011716493172571,0.0009616982424631,-0.0942365825176239,-35.3632621,149.1652375,-0.006,-0.01,0.01,0.0,-9.942219912772998e-05,9.444951137993483e-05,0.0,1000,1000,1000,1000,12600,0,0.0028581684455275,0.0028512012213468,0.0026736941654235,10,{}
attack_corridor_base_9,1,pos_yawl_spoof,66609,0.0011715091532096,0.0009742812835611,-0.0943217352032661,-35.3632622,149.1652375,-0.006,-0.01,0.01,0.0,-9.942217729985714e-05,9.444947500014678e-05,0.0,1000,1000,1000,1000,12600,0,0.0029005699325352,0.0027807378210127,0.0027089044451713,10,{}
attack_corridor_base_9,1,pos_yawl_spoof,66859,0.0011721331393346,0.0009718957007862,-0.0943914279341697,-35.3632621,149.1652375,-0.006,-0.01,0.01,0.0,-9.942214819602668e-05,9.444947500014678e-05,0.0,1000,1000,1000,1000,12600,0,0.0024763979017734,0.0028172589372843,0.0029902120586484,10,{}
attack_corridor_base_9,1,pos_yawl_spoof,67109,0.0011715560685843,0.0009704136755317,-0.0944543033838272,-35.3632621,149.1652375,-0.006,-0.01,0.01,0.0,-9.94221554719843e-05,9.444950410397725e-05,0.0,1000,1000,1000,1000,12600,0,0.002931596012786,0.0026087700389325,0.0031276470981538,10,{}
attack_corridor_base_9,1,pos_yawl_spoof,67359,0.001174074364826,0.000974477850832,-0.0945136770606041,-35.3632622,149.1652375,-0.006,-0.01,0.01,0.0,-9.942217002389953e-05,9.444951137993483e-05,0.0,1000,1000,1000,1000,12600,0,0.0030050098430365,0.0028587067499756,0.0028557695914059,10,{}
attack_corridor_base_9,1,pos_yawl_spoof,67609,0.0011759717017412,0.0009822900174185,-0.09459088742733,-35.3632622,149.1652375,-0.006,-0.01,0.01,0.0,-9.94222064036876e-05,9.4449489552062e-05,0.0,1000,1000,1000,1000,12600,0,0.0025982896331697,0.0029407837428152,0.0027503436431288,10,{}
attack_corridor_base_9,1,pos_yawl_spoof,67859,0.0011770497076213,0.0009824006119742,-0.0946664661169052,-35.3632622,149.1652375,-0.006,-0.01,0.01,0.0,-9.942216274794192e-05,9.4449489552062e-05,0.0,1000,1000,1000,1000,12600,0,0.0026856120675802,0.0029180345591157,0.0028259065002202,10,{}
attack_corridor_base_9,1,pos_yawl_spoof,68109,0.0011777249164879,0.0009811946656554,-0.0947352573275566,-35.3632622,149.1652375,-0.006,-0.01,0.01,0.0,-9.942214092006908e-05,9.444949682801962e-05,0.0,1000,1000,1000,1000,12600,0,0.003075391985476,0.0026856856420636,0.0024714276660233,10,{}
attack_corridor_base_9,1,pos_yawl_spoof,68359,0.0011827886337414,0.0009911633096635,-0.0948098003864288,-35.3632622,149.1652375,-0.006,-0.01,0.01,0.0,-9.942214092006908e-05,9.444946044823156e-05,0.0,1000,1000,1000,1000,12600,0,0.0029871284496039,0.0027494523674249,0.0028687256854027,10,{}
attack_corridor_base_9,1,pos_yawl_spoof,68609,0.0011901033576577,0.000995505717583,-0.0948817580938339,-35.3632622,149.1652375,-0.006,-0.01,0.01,0.0,-9.942213364411144e-05,9.44494386203587e-05,0.0,1000,1000,1000,1000,12600,0,0.0027335314080119,0.0030491549987345,0.0029743504710495,10,{}
attack_corridor_base_9,1,pos_yawl_spoof,68859,0.0011928011663258,0.0009890219662338,-0.0949522033333778,-35.3632622,149.1652375,-0.006,-0.01,0.01,0.0,-9.942213364411144e-05,9.44493876886554e-05,0.0,1000,1000,1000,1000,12600,0,0.0028122712392359,0.0026635485701262,0.0027733610477298,10,{}
attack_corridor_base_9,1,pos_yawl_spoof,69109,0.0011965066660195,0.0009904981125146,-0.0950251892209053,-35.3632622,149.1652375,-0.006,-0.01,0.01,0.0,-9.942219185177235e-05,9.444943134440108e-05,0.0,1000,1000,1000,1000,12600,0,0.0028260264080017,0.0027292142622172,0.0025134270545095,10,{}
attack_corridor_base_9,1,pos_yawl_spoof,69359,0.001199405407533,0.0009881966980174,-0.095095083117485,-35.3632622,149.1652375,-0.006,-0.01,0.01,0.0,-9.942219185177235e-05,9.444944589631632e-05,0.0,1000,1000,1000,1000,12600,0,0.0029290611855685,0.0027728548739105,0.0028173173777759,10,{}
attack_corridor_base_9,1,pos_yawl_spoof,69609,0.0012011491926386,0.0009936913847923,-0.0951665788888931,-35.3632622,149.1652375,-0.006,-0.01,0.01,0.0,-9.942217729985714e-05,9.444943134440108e-05,0.0,1000,1000,1000,1000,12600,0,0.0030198532622307,0.00307870330289,0.0028457841835916,10,{}
attack_corridor_base_9,1,pos_yawl_spoof,69859,0.0011966314632445,0.0009916990529745,-0.0952322259545326,-35.3632622,149.1652375,-0.006,-0.01,0.01,0.0,-9.942217729985714e-05,9.444940951652824e-05,0.0,1000,1000,1000,1000,12600,0,0.0026049895677715,0.0030101269949227,0.002913380973041,10,{}
