flight_id,label,attack_type,timestamp,att_roll,att_pitch,att_yaw,pos_lat,pos_lon,pos_alt_rel,pos_vx,pos_vy,pos_vz,nav_roll,nav_pitch,nav_alt_error,servo1_raw,servo2_raw,servo3_raw,servo4_raw,sys_voltage_battery,sys_load,vib_x,vib_y,vib_z,gps_sats_visible,attack_params_json
attack_corridor_base_10,1,pos_yawl_spoof,10074,0.00019056114251725376,-4.064646054757759e-05,-0.3456111252307892,-35.3632621,149.1652374,0.0,0.0,0.0,-0.03,-9.942173346644267e-05,9.444946044823155e-05,0.0,1000,1000,1000,1000,12600,0,0.002933101961389184,0.0028486980590969324,0.0028938015457242727,3,{}
attack_corridor_base_10,1,pos_yawl_spoof,10406,0.00019860148313455284,-3.093873237958178e-05,-0.32089054584503174,-35.3632621,149.1652374,0.0,0.0,0.0,-0.03,-9.942168253473938e-05,9.444936586078256e-05,0.0,1000,1000,1000,1000,12600,0,0.0029641620349138975,0.0031396918930113316,0.0026267836801707745,10,{}
attack_corridor_base_10,1,pos_yawl_spoof,10739,0.00020068444428034127,-2.1172156266402453e-05,-0.2903439402580261,-35.3632621,149.1652374,0.0,0.0,0.0,-0.03,-9.942168253473938e-05,9.444936586078256e-05,0.0,1000,1000,1000,1000,12600,0,0.0027710748836398125,0.0027840216644108295,0.002762919059023261,10,{}
attack_corridor_base_10,1,pos_yawl_spoof,11072,0.00020452092576306313,-1.3458757166517898e-05,-0.2552383840084076,-35.3632621,149.1652374,0.0,0.0,0.0,-0.03,-9.942165343090892e-05,9.444937313674018e-05,0.0,1000,1000,1000,1000,12600,0,0.0027732800226658583,0.0026815817691385746,0.002675197320058942,10,{}
attack_corridor_base_10,1,pos_yawl_spoof,11407,0.00020851743465755135,-5.188962404645281e-06,-0.2311745136976242,-35.3632621,149.1652374,0.0,0.0,0.0,-0.03,-9.9421595223248e-05,9.444938041269779e-05,0.0,1000,1000,1000,1000,12600,0,0.002766752615571022,0.0026691413950175047,0.0027894568629562855,10,{}
attack_corridor_base_10,1,pos_yawl_spoof,11739,0.00021267728880047798,-5.287080284688273e-07,-0.20932640135288239,-35.3632621,149.1652374,0.0,0.0,0.0,-0.03,-9.9421595223248e-05,9.444938041269779e-05,0.0,1000,1000,1000,1000,12600,0,0.003234930569306016,0.002639553975313902,0.0024952476378530264,10,{}
attack_corridor_base_10,1,pos_yawl_spoof,12071,0.0002213509287685156,1.57468984980369e-05,-0.18378125131130219,-35.3632621,149.1652374,0.0,0.0,0.0,-0.02,-9.942157339537516e-05,9.444939496461302e-05,0.0,1000,1000,1000,1000,12600,0,0.0028883563354611397,0.0028719324618577957,0.0028768808115273714,10,{}
attack_corridor_base_10,1,pos_yawl_spoof,12404,0.00022755484678782523,2.3564272851217538e-05,-0.16701637208461761,-35.3632621,149.1652374,0.0,0.0,0.0,-0.02,-9.942166798282415e-05,9.444940951652825e-05,0.0,1000,1000,1000,1000,12600,0,0.0027736565098166466,0.002925793407484889,0.002949276939034462,10,{}
attack_corridor_base_10,1,pos_yawl_spoof,12739,0.0002353598247282207,3.2300526072504e-05,-0.15208426117897034,-35.3632621,149.1652374,0.0,0.0,0.0,-0.02,-9.942166798282415e-05,9.444940951652825e-05,0.0,1000,1000,1000,1000,12600,0,0.003025142941623926,0.002818075707182288,0.003064077580347657,10,{}
attack_corridor_base_10,1,pos_yawl_spoof,13072,0.000244756112806499,3.715121420100331e-05,-0.1347217559814453,-35.3632621,149.1652374,0.0,0.0,0.0,-0.02,-9.94216461549513e-05,9.444936586078256e-05,0.0,1000,1000,1000,1000,12600,0,0.0027941453736275434,0.002590806921944022,0.002900530118495226,10,{}
attack_corridor_base_10,1,pos_yawl_spoof,13404,0.0002563500602263957,4.43488679593429e-05,-0.12352758646011353,-35.3632621,149.1652374,0.0,0.0,0.0,-0.01,-9.942163887899369e-05,9.444939496461302e-05,0.0,1000,1000,1000,1000,12600,0,0.0027077922131866217,0.002540060319006443,0.0030356089118868113,10,{}
attack_corridor_base_10,1,pos_yawl_spoof,13737,0.000263251771684736,5.5578319006599486e-05,-0.11368698626756668,-35.3632621,149.1652374,0.0,0.0,0.0,-0.01,-9.942163887899369e-05,9.444939496461302e-05,0.0,1000,1000,1000,1000,12600,0,0.002814894076436758,0.002685277257114649,0.002666615415364504,10,{}
attack_corridor_base_10,1,pos_yawl_spoof,14069,0.0002750020066741854,6.465279875556007e-05,-0.10242626816034317,-35.3632621,149.1652374,0.0,0.0,0.0,-0.01,-9.942155884345993e-05,9.444938041269779e-05,0.0,1000,1000,1000,1000,12600,0,0.0027596361469477415,0.002593832090497017,0.0028938583564013243,10,{}
attack_corridor_base_10,1,pos_yawl_spoof,14404,0.00028180971276015043,7.648506289115176e-05,-0.0951947569847107,-35.3632621,149.1652374,0.0,0.0,0.0,-0.01,-9.942151518771425e-05,9.444933675695211e-05,0.0,1000,1000,1000,1000,12600,0,0.0028747881297022104,0.0028286450542509556,0.0026596589013934135,10,{}
attack_corridor_base_10,1,pos_yawl_spoof,14736,0.00029655813705176115,8.504482684656978e-05,-0.08890176564455032,-35.3632621,149.1652374,0.0,0.0,0.0,-0.01,-9.942151518771425e-05,9.444933675695211e-05,0.0,1000,1000,1000,1000,12600,0,0.002868233947083354,0.0027306885458528996,0.0027349921874701977,10,{}
attack_corridor_base_10,1,pos_yawl_spoof,15069,0.0003076053108088672,9.745219722390175e-05,-0.08335943520069122,-35.3632621,149.1652374,0.0,0.0,0.0,-0.01,-9.942147153196856e-05,9.444930037716404e-05,0.0,1000,1000,1000,1000,12600,0,0.002944807754829526,0.0026085807476192713,0.0027954259421676397,10,{}
attack_corridor_base_10,1,pos_yawl_spoof,15357,0.0003206520341336727,0.00010651929187588394,-0.07719778269529343,-35.3632621,149.1652374,0.0,0.0,0.0,-0.01,-9.942147153196856e-05,9.444930037716404e-05,0.0,1000,1000,1000,1000,12600,0,0.002714277245104313,0.0027900810819119215,0.0028912979178130627,10,{}
attack_corridor_base_10,1,pos_yawl_spoof,15607,0.00033108144998550415,0.00011128994083264843,-0.0738343894481659,-35.3632621,149.1652374,0.0,0.0,0.0,-0.01,-9.942150063579902e-05,9.444935130886734e-05,0.0,1000,1000,1000,1000,12600,0,0.002714277245104313,0.0027900810819119215,0.0028912979178130627,10,{}
attack_corridor_base_10,1,pos_yawl_spoof,16061,0.0003363890282344073,0.00012000498827546835,-0.07087501883506775,-35.3632621,149.1652374,0.0,0.0,0.0,0.0,-9.942147153196856e-05,9.444935858482495e-05,0.0,1000,1000,1000,1000,12600,0,0.0026499242521822453,0.002886570291593671,0.0024996548891067505,10,{}
attack_corridor_base_10,1,pos_yawl_spoof,16394,0.00035631086211651564,0.00013667116581927985,-0.0657084658741951,-35.3632621,149.1652374,0.0,0.0,0.0,0.0,-9.942150063579902e-05,9.444938041269779e-05,0.0,1000,1000,1000,1000,12600,0,0.0030702329240739346,0.0028023950289934874,0.0027498232666403055,10,{}
attack_corridor_base_10,1,pos_yawl_spoof,16726,0.0003685466363094747,0.00014780447236262262,-0.06330892443656921,-35.3632621,149.1652374,0.0,0.0,0.0,0.0,-9.942150063579902e-05,9.44493876886554e-05,0.0,1000,1000,1000,1000,12600,0,0.003136045066639781,0.002573417266830802,0.0025887133087962866,10,{}
attack_corridor_base_10,1,pos_yawl_spoof,17059,0.0003825605090241879,0.00015516977873630822,-0.06126371771097183,-35.3632621,149.1652374,0.0,0.0,0.0,0.0,-9.942147153196856e-05,9.444940224057063e-05,0.0,1000,1000,1000,1000,12600,0,0.0028475781437009573,0.0028414553962647915,0.0027528118807822466,10,{}
attack_corridor_base_10,1,pos_yawl_spoof,17392,0.00039700628258287907,0.00016891531413421035,-0.059033386409282684,-35.3632621,149.1652374,0.0,0.0,0.0,0.0,-9.942158794729039e-05,9.444939496461302e-05,0.0,1000,1000,1000,1000,12600,0,0.00286009069532156,0.002913897158578038,0.0028157499618828297,10,{}
attack_corridor_base_10,1,pos_yawl_spoof,17727,0.0004091152222827077,0.00017889452283270657,-0.05764307454228401,-35.3632621,149.1652374,0.0,0.0,0.0,0.0,-9.942162432707846e-05,9.444939496461302e-05,0.0,1000,1000,1000,1000,12600,0,0.002977623138576746,0.0028374616522341967,0.0027859227266162634,10,{}
attack_corridor_base_10,1,pos_yawl_spoof,18059,0.00042289920384064317,0.0001914188324008137,-0.056468021124601364,-35.3632621,149.1652374,0.0,0.0,0.0,0.0,-9.94216461549513e-05,9.444936586078256e-05,0.0,1000,1000,1000,1000,12600,0,0.0029640416614711285,0.002786852652207017,0.0026051385793834925,10,{}
attack_corridor_base_10,1,pos_yawl_spoof,18391,0.00043748438474722207,0.0002109951456077397,-0.055225834250450134,-35.3632621,149.1652374,0.0,0.0,0.0,0.0,-9.942168981069699e-05,9.444934403290972e-05,0.0,1000,1000,1000,1000,12600,0,0.002624277723953128,0.002764893462881446,0.002583229448646307,10,{}
attack_corridor_base_10,1,pos_yawl_spoof,18724,0.0004483009106479585,0.00022735592210665345,-0.05450116842985153,-35.3632621,149.1652374,0.0,0.0,0.0,0.0,-9.942168981069699e-05,9.444934403290972e-05,0.0,1000,1000,1000,1000,12600,0,0.002675427123904228,0.002897498430684209,0.002994247479364276,10,{}
attack_corridor_base_10,1,pos_yawl_spoof,19059,0.00046764215221628547,0.00023965344007592648,-0.05392301082611084,-35.3632621,149.1652374,0.0,0.0,0.0,0.0,-9.942161705112085e-05,9.444930037716404e-05,0.0,1000,1000,1000,1000,12600,0,0.0029677737038582563,0.003209078684449196,0.0027334869373589754,10,{}
attack_corridor_base_10,1,pos_yawl_spoof,19392,0.0004860889457631856,0.0002560254652053118,-0.05338006094098091,-35.3632621,149.1652374,0.0,0.0,0.0,0.0,-9.942161705112085e-05,9.444935130886734e-05,0.0,1000,1000,1000,1000,12600,0,0.003083989256992936,0.0029824175871908665,0.002769232727587223,10,{}
attack_corridor_base_10,1,pos_yawl_spoof,19724,0.0005015424685552716,0.0002675717987585813,-0.05307544022798538,-35.3632621,149.1652374,0.0,0.0,0.0,0.0,-9.942161705112085e-05,9.444935130886734e-05,0.0,1000,1000,1000,1000,12600,0,0.0028464249335229397,0.0027926156762987375,0.002535916632041335,10,{}
attack_corridor_base_10,1,pos_yawl_spoof,20056,0.0005203965120017529,0.0002799654321279377,-0.052773334085941315,-35.3632621,149.1652374,0.008,0.0,0.0,0.0,-9.942167525878176e-05,9.444935858482495e-05,0.0,1000,1000,1000,1000,12600,0,0.0027909374330192804,0.0027549301739782095,0.002845495007932186,10,{}
attack_corridor_base_10,1,pos_yawl_spoof,20389,0.0005404877010732889,0.00030593975679948926,-0.052584029734134674,-35.3632621,149.1652374,-0.008,0.0,0.0,0.0,-9.942172619048506e-05,9.444936586078256e-05,0.0,1000,1000,1000,1000,12600,0,0.003013111185282469,0.0027462595608085394,0.00294870906509459,10,{}
attack_corridor_base_10,1,pos_yawl_spoof,20724,0.0005542522412724793,0.0003230420988984406,-0.05261357128620148,-35.3632621,149.1652374,-0.008,0.0,0.0,0.0,-9.942172619048506e-05,9.444936586078256e-05,0.0,1000,1000,1000,1000,12600,0,0.0028355694375932217,0.0030111963860690594,0.0029108948074281216,10,{}
attack_corridor_base_10,1,pos_yawl_spoof,21056,0.0005714776925742626,0.0003385067102499306,-0.052698057144880295,-35.3632621,149.1652374,-0.006,0.0,0.0,0.0,-9.942173346644267e-05,9.444937313674018e-05,0.0,1000,1000,1000,1000,12600,0,0.0028146039694547653,0.002871702192351222,0.0030830365139991045,10,{}
attack_corridor_base_10,1,pos_yawl_spoof,21389,0.0005921385600231588,0.00035702501190826297,-0.05292394757270813,-35.3632621,149.1652374,-0.005,0.0,0.0,0.0,-9.942176984623075e-05,9.444936586078256e-05,0.0,1000,1000,1000,1000,12600,0,0.0026029024738818407,0.002808170858770609,0.0029671196825802326,10,{}
attack_corridor_base_10,1,pos_yawl_spoof,21722,0.0006080028833821416,0.00037185379187576473,-0.053121596574783325,-35.3632621,149.1652374,-0.003,0.0,0.0,0.0,-9.942176984623075e-05,9.444936586078256e-05,0.0,1000,1000,1000,1000,12600,0,0.002795047592371702,0.0029060272499918938,0.002857368439435959,10,{}
attack_corridor_base_10,1,pos_yawl_spoof,22054,0.0006299811648204923,0.0003903174656443298,-0.05335479974746704,-35.3632621,149.1652374,-0.002,0.0,0.01,0.0,-9.94217989500612e-05,9.444935130886734e-05,0.0,1000,1000,1000,1000,12600,0,0.0029065306298434734,0.0028792028315365314,0.002841811627149582,10,{}
attack_corridor_base_10,1,pos_yawl_spoof,22389,0.0006522057228721678,0.0004131897003389895,-0.053746674209833145,-35.3632621,149.1652374,0.0,0.0,0.01,0.0,-9.942187898559496e-05,9.444946772418916e-05,0.0,1000,1000,1000,1000,12600,0,0.0025619440712034702,0.0030446844175457954,0.0027035658713430166,10,{}
attack_corridor_base_10,1,pos_yawl_spoof,22721,0.0006700592348352075,0.00043856201227754354,-0.05407235398888588,-35.3632621,149.1652374,0.0,0.0,0.01,0.0,-9.942187898559496e-05,9.444946772418916e-05,0.0,1000,1000,1000,1000,12600,0,0.002733287401497364,0.002764429897069931,0.0026948177255690098,10,{}
attack_corridor_base_10,1,pos_yawl_spoof,23054,0.0006899508880451322,0.00045616814168170094,-0.05442453548312187,-35.3632621,149.1652374,0.0,0.0,0.01,0.0,-9.942193719325587e-05,9.44494386203587e-05,0.0,1000,1000,1000,1000,12600,0,0.002887062495574355,0.0025814399123191833,0.002839404158294201,10,{}
attack_corridor_base_10,1,pos_yawl_spoof,23387,0.0007077836198732257,0.0004777564317919314,-0.05497314780950546,-35.3632621,149.1652374,0.001,-0.01,0.01,0.0,-9.942188626155257e-05,9.444942406844348e-05,0.0,1000,1000,1000,1000,12600,0,0.002796175191178918,0.002574456622824073,0.002868314739316702,10,{}
attack_corridor_base_10,1,pos_yawl_spoof,23719,0.0007221120176836848,0.0004918206832371652,-0.0553559884428978,-35.3632621,149.1652374,0.002,-0.01,0.01,0.0,-9.942188626155257e-05,9.444942406844348e-05,0.0,1000,1000,1000,1000,12600,0,0.002776358975097537,0.0028314990922808647,0.0028665789868682623,10,{}
attack_corridor_base_10,1,pos_yawl_spoof,24052,0.0007398013258352876,0.0005108592449687421,-0.055766187608242035,-35.3632621,149.1652374,0.002,-0.01,0.01,0.0,-9.942182077793404e-05,9.444938041269779e-05,0.0,1000,1000,1000,1000,12600,0,0.002801816677674651,0.002621659077703953,0.0027884021401405334,10,{}
attack_corridor_base_10,1,pos_yawl_spoof,24386,0.0007550200680270791,0.0005316631286405027,-0.056348077952861786,-35.3632621,149.1652374,0.002,-0.01,0.01,0.0,-9.942185715772212e-05,9.444940951652825e-05,0.0,1000,1000,1000,1000,12600,0,0.0029698065482079983,0.002663904335349798,0.00274683628231287,10,{}
attack_corridor_base_10,1,pos_yawl_spoof,24719,0.0007724623428657651,0.0005474738427437842,-0.05677923187613487,-35.3632621,149.1652374,0.002,-0.01,0.01,0.0,-9.942185715772212e-05,9.444940951652825e-05,0.0,1000,1000,1000,1000,12600,0,0.0031108015682548285,0.0027791818138211966,0.0028549674898386,10,{}
attack_corridor_base_10,1,pos_yawl_spoof,25051,0.0007918195333331823,0.0005628899671137333,-0.057223785668611526,-35.3632621,149.1652374,0.003,-0.01,0.01,0.0,-9.942192991729826e-05,9.444949682801962e-05,0.0,1000,1000,1000,1000,12600,0,0.0028429965022951365,0.00290558859705925,0.0026164317969232798,10,{}
attack_corridor_base_10,1,pos_yawl_spoof,25384,0.0008041555411182344,0.0005804919055663049,-0.057838305830955505,-35.3632621,149.1652374,0.003,-0.01,0.01,0.0,-9.94219008134678e-05,9.444952593185008e-05,0.0,1000,1000,1000,1000,12600,0,0.0027331348974257708,0.0027735731564462185,0.0028250408358871937,10,{}
attack_corridor_base_10,1,pos_yawl_spoof,25717,0.0008224797784350812,0.0006007956108078361,-0.05821899697184563,-35.3632621,149.1652374,0.003,-0.01,0.01,0.0,-9.94219008134678e-05,9.444952593185008e-05,0.0,1000,1000,1000,1000,12600,0,0.0025479125324636698,0.0028952439315617085,0.002733771223574877,10,{}
attack_corridor_base_10,1,pos_yawl_spoof,26052,0.000833773345220834,0.0006178411422297359,-0.05868947133421898,-35.3632621,149.1652374,0.002,-0.01,0.01,0.0,-9.94219008134678e-05,9.444950410397723e-05,0.0,1000,1000,1000,1000,12600,0,0.0026995949447155,0.0027508409693837166,0.0027731081936508417,10,{}
attack_corridor_base_10,1,pos_yawl_spoof,26384,0.0008540319395251572,0.0006236389162950218,-0.059345148503780365,-35.3632621,149.1652374,0.002,-0.01,0.01,0.0,-9.942190808942541e-05,9.444946772418916e-05,0.0,1000,1000,1000,1000,12600,0,0.002652327995747328,0.0028458735905587673,0.0029476750642061234,10,{}
attack_corridor_base_10,1,pos_yawl_spoof,26716,0.0008687977679073811,0.0006318062078207731,-0.05983095243573189,-35.3632621,149.1652374,0.002,-0.01,0.01,0.0,-9.942190808942541e-05,9.444946772418916e-05,0.0,1000,1000,1000,1000,12600,0,0.002659487770870328,0.0029737167060375214,0.0024925386533141136,10,{}
attack_corridor_base_10,1,pos_yawl_spoof,27049,0.0008781151263974607,0.0006470932858064771,-0.06032717600464821,-35.3632621,149.1652374,0.002,-0.01,0.01,0.0,-9.942193719325587e-05,9.444945317227393e-05,0.0,1000,1000,1000,1000,12600,0,0.0028529688715934753,0.0030866609886288643,0.0029197526164352894,10,{}
attack_corridor_base_10,1,pos_yawl_spoof,27384,0.000894962577149272,0.0006550443940795958,-0.06098940968513489,-35.3632621,149.1652374,0.002,-0.01,0.01,0.0,-9.942196629708633e-05,9.444951137993485e-05,0.0,1000,1000,1000,1000,12600,0,0.002612376818433404,0.0026555336080491543,0.0028119536582380533,10,{}
attack_corridor_base_10,1,pos_yawl_spoof,27717,0.0009052379755303264,0.0006646852707490325,-0.06150687113404274,-35.3632621,149.1652374,0.001,-0.01,0.01,0.0,-9.942196629708633e-05,9.444951137993485e-05,0.0,1000,1000,1000,1000,12600,0,0.002820622408762574,0.0026372356805950403,0.002519934205338359,10,{}
attack_corridor_base_10,1,pos_yawl_spoof,28049,0.0009151070844382048,0.000676908646710217,-0.06198916956782341,-35.3632621,149.1652374,0.001,-0.01,0.01,0.0,-9.942198812495917e-05,9.444951865589246e-05,0.0,1000,1000,1000,1000,12600,0,0.002926582470536232,0.002939222613349557,0.0027758460491895676,10,{}
attack_corridor_base_10,1,pos_yawl_spoof,28381,0.0009309714077971876,0.0006931284442543983,-0.0626569613814354,-35.3632621,149.1652374,0.001,-0.01,0.01,0.0,-9.942203905666247e-05,9.444957686355338e-05,0.0,1000,1000,1000,1000,12600,0,0.0029357043094933033,0.002825216157361865,0.0028633237816393375,10,{}
attack_corridor_base_10,1,pos_yawl_spoof,28714,0.0009460163419134915,0.0007073796004988253,-0.06313086301088333,-35.3632621,149.1652374,0.0,-0.01,0.01,0.0,-9.942203905666247e-05,9.444957686355338e-05,0.0,1000,1000,1000,1000,12600,0,0.0027618452440947294,0.0025512606371194124,0.0030591432005167007,10,{}
attack_corridor_base_10,1,pos_yawl_spoof,29049,0.0009515181300230324,0.0007218997343443334,-0.06360898911952972,-35.3632621,149.1652374,0.0,-0.01,0.01,0.0,-9.942213364411145e-05,9.444963507121429e-05,0.0,1000,1000,1000,1000,12600,0,0.002866110298782587,0.0026298847515136003,0.0025858369190245867,10,{}
attack_corridor_base_10,1,pos_yawl_spoof,29381,0.0009727687574923038,0.0007393177947960794,-0.0642416924238205,-35.3632621,149.1652374,0.0,-0.01,0.01,0.0,-9.94222573353909e-05,9.444968600291759e-05,0.0,1000,1000,1000,1000,12600,0,0.0027889576740562916,0.002728594932705164,0.0026035397313535213,10,{}
attack_corridor_base_10,1,pos_yawl_spoof,29714,0.0009787214221432805,0.0007464377558790147,-0.06472630798816681,-35.3632621,149.1652374,0.0,-0.01,0.02,0.0,-9.94222573353909e-05,9.444968600291759e-05,0.0,1000,1000,1000,1000,12600,0,0.00251749693416059,0.002947520697489381,0.0027441936545073986,10,{}
attack_corridor_base_10,1,pos_yawl_spoof,30047,0.0009900223230943084,0.0007601492688991129,-0.06520506739616394,-35.3632621,149.1652374,0.0,-0.01,0.02,0.0,-9.94223082670942e-05,9.444968600291759e-05,0.0,1000,1000,1000,1000,12600,0,0.003041931428015232,0.00272671552374959,0.002938518300652504,10,{}
attack_corridor_base_10,1,pos_yawl_spoof,30357,0.000988878426142037,0.0007628179737366736,-0.06536094844341278,-35.3632621,149.1652374,-0.001,-0.01,0.02,0.0,-9.94223082670942e-05,9.444968600291759e-05,0.0,1000,1000,1000,1000,12600,0,0.002435236470773816,0.0028589137364178896,0.003094454063102603,10,{}
attack_corridor_base_10,1,pos_yawl_spoof,30609,0.0010015486041083932,0.0007810122915543616,-0.06612855941057205,-35.3632621,149.1652374,-0.001,-0.01,0.02,0.0,-9.942236647475511e-05,9.444978059036657e-05,0.0,1000,1000,1000,1000,12600,0,0.002847646363079548,0.002629925962537527,0.002897900063544512,10,{}
attack_corridor_base_10,1,pos_yawl_spoof,30859,0.001013939967378974,0.0007898249314166605,-0.06658388674259186,-35.3632621,149.1652374,-0.001,-0.01,0.02,0.0,-9.942243195837364e-05,9.444985334994271e-05,0.0,1000,1000,1000,1000,12600,0,0.0027452956419438124,0.0027041237335652113,0.0029417253099381924,10,{}
attack_corridor_base_10,1,pos_yawl_spoof,31109,0.001016226946376264,0.0007940959767438471,-0.06688649952411652,-35.3632621,149.1652374,-0.002,-0.01,0.02,0.0,-9.942248289007694e-05,9.444986062590033e-05,0.0,1000,1000,1000,1000,12600,0,0.0025769108906388283,0.0027669810224324465,0.0030055949464440346,10,{}
attack_corridor_base_10,1,pos_yawl_spoof,31359,0.0010302973678335547,0.0007990898448042572,-0.06734245270490646,-35.3632621,149.1652374,-0.002,-0.01,0.02,0.0,-9.942250471794978e-05,9.444992610951886e-05,0.0,1000,1000,1000,1000,12600,0,0.002702842466533184,0.002921517239883542,0.0027641686610877514,10,{}
attack_corridor_base_10,1,pos_yawl_spoof,31607,0.0010371622629463673,0.0008054741192609072,-0.06763290613889694,-35.3632621,149.1652374,-0.002,-0.01,0.02,0.0,-9.942253382178023e-05,9.444995521334931e-05,0.0,1000,1000,1000,1000,12600,0,0.00278960051946342,0.002876324113458395,0.0028957424219697714,10,{}
attack_corridor_base_10,1,pos_yawl_spoof,31857,0.0010430871043354273,0.0008086699526757002,-0.06799647212028503,-35.3632621,149.1652374,-0.003,-0.01,0.02,0.0,-9.942249744199216e-05,9.444991883356124e-05,0.0,1000,1000,1000,1000,12600,0,0.00278960051946342,0.002876324113458395,0.0028957424219697714,10,{}
attack_corridor_base_10,1,pos_yawl_spoof,32107,0.0010434004943817854,0.0008108610054478049,-0.06830248981714249,-35.3632621,149.1652374,-0.003,-0.01,0.02,0.0,-9.942249016603455e-05,9.444988972973078e-05,0.0,1000,1000,1000,1000,12600,0,0.0027317400090396404,0.002925402717664838,0.0025171260349452496,10,{}
attack_corridor_base_10,1,pos_yawl_spoof,32357,0.0010568011784926057,0.000819704495370388,-0.06873525679111481,-35.3632621,149.1652374,-0.003,-0.01,0.02,0.0,-9.942246833816171e-05,9.444993338547647e-05,0.0,1000,1000,1000,1000,12600,0,0.002723732963204384,0.00279174349270761,0.0028025044593960047,10,{}
attack_corridor_base_10,1,pos_yawl_spoof,32609,0.0010625723516568542,0.000824754242785275,-0.06904667615890503,-35.3632621,149.1652374,-0.003,-0.01,0.02,0.0,-9.942246833816171e-05,9.444993338547647e-05,0.0,1000,1000,1000,1000,12600,0,0.002697448944672942,0.0026499845553189516,0.0030980543233454227,10,{}
attack_corridor_base_10,1,pos_yawl_spoof,32859,0.0010686375899240375,0.0008416766067966819,-0.06947023421525955,-35.3632621,149.1652374,-0.004,-0.01,0.02,0.0,-9.942253382178023e-05,9.444997704122216e-05,0.0,1000,1000,1000,1000,12600,0,0.002697448944672942,0.0026499845553189516,0.0030980543233454227,10,{}
attack_corridor_base_10,1,pos_yawl_spoof,33109,0.0010742906015366316,0.0008469499298371375,-0.06975739449262619,-35.3632621,149.1652374,-0.004,-0.01,0.02,0.0,-9.942253382178023e-05,9.444997704122216e-05,0.0,1000,1000,1000,1000,12600,0,0.002813327591866255,0.002932952484115958,0.0026978396344929934,10,{}
attack_corridor_base_10,1,pos_yawl_spoof,33581,0.0010970717994496226,0.0008649194496683776,-0.07047335058450699,-35.3632621,149.1652374,-0.004,-0.01,0.02,0.0,-9.942257747752592e-05,9.44499479373917e-05,0.0,1000,1000,1000,1000,12600,0,0.002850575838238001,0.0027898452244699,0.0028628918807953596,10,{}
attack_corridor_base_10,1,pos_yawl_spoof,33914,0.0011115901870653033,0.0008753788424655795,-0.07090137153863907,-35.3632621,149.1652374,-0.004,-0.02,0.02,0.0,-9.942252654582262e-05,9.444995521334931e-05,0.0,1000,1000,1000,1000,12600,0,0.002580568427219987,0.0028933784924447536,0.002763663185760379,10,{}
attack_corridor_base_10,1,pos_yawl_spoof,34247,0.0011178819695487618,0.0008828527643345296,-0.07131095975637436,-35.3632621,149.1652374,-0.005,-0.02,0.02,0.0,-9.942249016603455e-05,9.445000614505261e-05,0.0,1000,1000,1000,1000,12600,0,0.0032469562720507383,0.0024750931188464165,0.0029335804283618927,10,{}
attack_corridor_base_10,1,pos_yawl_spoof,34579,0.0011312756687402725,0.0008982153376564384,-0.07184689491987228,-35.3632621,149.1652374,-0.005,-0.02,0.02,0.0,-9.942249016603455e-05,9.445000614505261e-05,0.0,1000,1000,1000,1000,12600,0,0.002754520857706666,0.0029616153333336115,0.0028140090871602297,10,{}
attack_corridor_base_10,1,pos_yawl_spoof,34914,0.0011386674595996737,0.0009129279060289264,-0.07225008308887482,-35.3632621,149.1652374,-0.005,-0.02,0.02,0.0,-9.942240285454318e-05,9.444998431717977e-05,0.0,1000,1000,1000,1000,12600,0,0.002384501276537776,0.0028898976743221283,0.0027730814181268215,10,{}
attack_corridor_base_10,1,pos_yawl_spoof,35246,0.00114751688670367,0.0009205652168020606,-0.07264082133769989,-35.3632621,149.1652374,-0.005,-0.02,0.02,0.0,-9.942233009496704e-05,9.444996248930693e-05,0.0,1000,1000,1000,1000,12600,0,0.0029953818302601576,0.0028950516134500504,0.0027433454524725676,10,{}
attack_corridor_base_10,1,pos_yawl_spoof,35579,0.0011579397832974792,0.0009308027802035213,-0.07316642999649048,-35.3632621,149.1652374,-0.005,-0.02,0.02,0.0,-9.942233009496704e-05,9.444996248930693e-05,0.0,1000,1000,1000,1000,12600,0,0.002741879317909479,0.002752328757196665,0.002632185583934188,10,{}
attack_corridor_base_10,1,pos_yawl_spoof,35912,0.0011620547156780958,0.0009309918386861682,-0.07356806844472885,-35.3632621,149.1652374,-0.005,-0.02,0.02,0.0,-9.942236647475511e-05,9.444991883356124e-05,0.0,1000,1000,1000,1000,12600,0,0.0027279076166450977,0.0028192477766424417,0.0029118440579622984,10,{}
attack_corridor_base_10,1,pos_yawl_spoof,36244,0.0011671427637338638,0.0009444550960324705,-0.07386185228824615,-35.3632621,149.1652374,-0.005,-0.02,0.02,0.0,-9.942232281900942e-05,9.44499479373917e-05,0.0,1000,1000,1000,1000,12600,0,0.003030361607670784,0.002751739928498864,0.0029273824766278267,10,{}
attack_corridor_base_10,1,pos_yawl_spoof,36577,0.0011801705695688725,0.0009619271731935441,-0.07437478750944138,-35.3632621,149.1652374,-0.005,-0.02,0.02,0.0,-9.942232281900942e-05,9.44499479373917e-05,0.0,1000,1000,1000,1000,12600,0,0.0030511505901813507,0.0026767742820084095,0.0026879231445491314,10,{}
attack_corridor_base_10,1,pos_yawl_spoof,36911,0.0011892790207639337,0.0009769870666787028,-0.07474302500486374,-35.3632621,149.1652374,-0.005,-0.02,0.02,0.0,-9.942230099113658e-05,9.44498970056884e-05,0.0,1000,1000,1000,1000,12600,0,0.0026050934102386236,0.0027981996536254883,0.002622776897624135,10,{}
attack_corridor_base_10,1,pos_yawl_spoof,37244,0.001197244506329298,0.0009905184851959348,-0.07510095834732056,-35.3632621,149.1652374,-0.005,-0.02,0.02,0.0,-9.942231554305181e-05,9.444987517781556e-05,0.0,1000,1000,1000,1000,12600,0,0.0029117914382368326,0.002843879396095872,0.0027964748442173004,10,{}
attack_corridor_base_10,1,pos_yawl_spoof,37576,0.0012093877885490656,0.0010044294176623225,-0.07558940351009369,-35.3632621,149.1652374,-0.005,-0.02,0.02,0.0,-9.942231554305181e-05,9.444987517781556e-05,0.0,1000,1000,1000,1000,12600,0,0.0026484245900064707,0.0026160040870308876,0.0026543543208390474,10,{}
attack_corridor_base_10,1,pos_yawl_spoof,37909,0.001212222152389586,0.0010180154349654913,-0.07593413442373276,-35.3632621,149.1652374,-0.006,-0.02,0.02,0.0,-9.94223082670942e-05,9.444986790185794e-05,0.0,1000,1000,1000,1000,12600,0,0.002768608508631587,0.0027346420101821423,0.002794155152514577,10,{}
attack_corridor_base_10,1,pos_yawl_spoof,38242,0.001223316416144371,0.0010321707231923938,-0.07630231976509094,-35.3632621,149.1652374,-0.006,-0.02,0.02,0.0,-9.942233009496704e-05,9.444986062590033e-05,0.0,1000,1000,1000,1000,12600,0,0.002727157436311245,0.0027716413605958223,0.002844210946932435,10,{}
attack_corridor_base_10,1,pos_yawl_spoof,38577,0.0012350751785561442,0.0010419667232781649,-0.07676642388105392,-35.3632621,149.1652374,-0.006,-0.02,0.02,0.0,-9.942233009496704e-05,9.444986062590033e-05,0.0,1000,1000,1000,1000,12600,0,0.002872333163395524,0.0029351646080613136,0.002842735266312957,10,{}
attack_corridor_base_10,1,pos_yawl_spoof,38909,0.0012441613944247365,0.0010529764695093036,-0.07711824029684067,-35.3632621,149.1652374,-0.006,-0.02,0.02,0.0,-9.942227916326374e-05,9.444983879802749e-05,0.0,1000,1000,1000,1000,12600,0,0.0026932458858937025,0.002884313464164734,0.002702906262129545,10,{}
attack_corridor_base_10,1,pos_yawl_spoof,39241,0.0012486864579841495,0.001065271906554699,-0.07745665311813354,-35.3632621,149.1652374,-0.006,-0.02,0.02,0.0,-9.94222573353909e-05,9.444986790185794e-05,0.0,1000,1000,1000,1000,12600,0,0.0028462510090321302,0.0028480072505772114,0.0028430295642465353,10,{}
attack_corridor_base_10,1,pos_yawl_spoof,39574,0.0012482523452490568,0.0010730794165283442,-0.07791103422641754,-35.3632621,149.1652374,-0.006,-0.02,0.02,0.0,-9.94222573353909e-05,9.444986790185794e-05,0.0,1000,1000,1000,1000,12600,0,0.0026019420474767685,0.0027428334578871727,0.002942077349871397,10,{}
attack_corridor_base_10,1,pos_yawl_spoof,39909,0.0012584618525579572,0.0010785142658278346,-0.07822733372449875,-35.3632621,149.1652374,-0.006,-0.02,0.02,0.0,-9.942223550751805e-05,9.444988972973078e-05,0.0,1000,1000,1000,1000,12600,0,0.0027780882082879543,0.002879319479689002,0.0025637622456997633,10,{}
attack_corridor_base_10,1,pos_yawl_spoof,40242,0.0012629164848476648,0.0010837418958544731,-0.07856393605470657,-35.3632621,149.1652374,-0.006,-0.02,0.02,0.0,-9.942229371517897e-05,9.444992610951886e-05,0.0,1000,1000,1000,1000,12600,0,0.0027570859529078007,0.0030930018983781338,0.0032484049443155527,10,{}
attack_corridor_base_10,1,pos_yawl_spoof,40574,0.001277164206840098,0.0010917147155851126,-0.07897292077541351,-35.3632621,149.1652374,-0.006,-0.02,0.02,0.0,-9.942229371517897e-05,9.444992610951886e-05,0.0,1000,1000,1000,1000,12600,0,0.0026737311854958534,0.0030336561612784863,0.0027941942680627108,10,{}
attack_corridor_base_10,1,pos_yawl_spoof,40906,0.0012826527236029506,0.0010952996090054512,-0.0792655199766159,-35.3632621,149.1652374,-0.006,-0.02,0.02,0.0,-9.942224278347567e-05,9.444991155760363e-05,0.0,1000,1000,1000,1000,12600,0,0.002583172405138612,0.002748386701568961,0.0026533876080065966,10,{}
attack_corridor_base_10,1,pos_yawl_spoof,41239,0.001289419480599463,0.0011093771317973733,-0.07954081892967224,-35.3632621,149.1652374,-0.006,-0.02,0.02,0.0,-9.942227916326374e-05,9.444992610951886e-05,0.0,1000,1000,1000,1000,12600,0,0.0029149206820875406,0.003051839070394635,0.00280247675254941,10,{}
attack_corridor_base_10,1,pos_yawl_spoof,41574,0.0013003461062908173,0.0011205179616808891,-0.07995292544364929,-35.3632621,149.1652374,-0.006,-0.02,0.02,0.0,-9.942227916326374e-05,9.444992610951886e-05,0.0,1000,1000,1000,1000,12600,0,0.0028567523695528507,0.0029096812941133976,0.002716682618483901,10,{}
attack_corridor_base_10,1,pos_yawl_spoof,41906,0.0013305195607244968,0.001153848716057837,-0.080254465341568,-35.3632621,149.1652374,-0.006,0.0,0.0,0.0,-9.942231554305181e-05,9.444991155760363e-05,0.0,1000,1000,1000,1000,12600,0,0.002981819212436676,0.0027523976750671864,0.0028791818767786026,10,{}
attack_corridor_base_10,1,pos_yawl_spoof,42239,0.0014141672290861607,0.0012334982166066766,-0.0805603563785553,-35.3632621,149.1652374,-0.006,0.0,0.0,0.0,-9.942229371517897e-05,9.444991883356124e-05,0.0,1000,1000,1000,1000,12600,0,0.0027181922923773527,0.0026558858808130026,0.002871579257771373,10,{}
attack_corridor_base_10,1,pos_yawl_spoof,42572,0.0015000727726146579,0.0013254795921966434,-0.0809648260474205,-35.3632621,149.1652374,-0.006,0.0,0.0,0.0,-9.942229371517897e-05,9.444991883356124e-05,0.0,1000,1000,1000,1000,12600,0,0.003022067015990615,0.002757008420303464,0.0026733947452157736,10,{}
attack_corridor_base_10,1,pos_yawl_spoof,42904,0.0015591070987284184,0.0013834730489179492,-0.08126340806484222,-35.3632621,149.1652374,-0.006,0.0,0.01,0.0,-9.94223082670942e-05,9.444992610951886e-05,0.0,1000,1000,1000,1000,12600,0,0.002714014844968915,0.002683035796508193,0.0025724053848534822,10,{}
attack_corridor_base_10,1,pos_yawl_spoof,43239,0.0016136568738147616,0.0014345222152769566,-0.08157631754875183,-35.3632621,149.1652374,-0.006,-0.01,0.01,0.0,-9.94223082670942e-05,9.444988245377317e-05,0.0,1000,1000,1000,1000,12600,0,0.002977044554427266,0.0027640927582979202,0.0028959247283637524,10,{}
attack_corridor_base_10,1,pos_yawl_spoof,43571,0.0016508823027834296,0.0014679080341011286,-0.08198758959770203,-35.3632621,149.1652374,-0.006,-0.01,0.01,0.0,-9.94223082670942e-05,9.444988245377317e-05,0.0,1000,1000,1000,1000,12600,0,0.0028169837314635515,0.0030141808092594147,0.002877327613532543,10,{}
attack_corridor_base_10,1,pos_yawl_spoof,43904,0.0016589270671829581,0.0014775231247767806,-0.08229097723960876,-35.3632621,149.1652374,-0.006,-0.01,0.01,0.0,-9.942233009496704e-05,9.444985334994271e-05,0.0,1000,1000,1000,1000,12600,0,0.002921347739174962,0.0031024161726236343,0.002484390279278159,10,{}
attack_corridor_base_10,1,pos_yawl_spoof,44237,0.0016459139296784997,0.0014651946257799864,-0.08259473741054535,-35.3632621,149.1652374,-0.006,-0.01,0.01,0.0,-9.942238830262795e-05,9.44498970056884e-05,0.0,1000,1000,1000,1000,12600,0,0.002759091090410948,0.0028540045022964478,0.003092918312177062,10,{}
attack_corridor_base_10,1,pos_yawl_spoof,44569,0.0016147563001140952,0.0014262888580560684,-0.08297929167747498,-35.3632621,149.1652375,-0.006,-0.01,0.02,0.0,-9.942238830262795e-05,9.44498970056884e-05,0.0,1000,1000,1000,1000,12600,0,0.002806521952152252,0.0029188969638198614,0.002561878180131316,10,{}
attack_corridor_base_10,1,pos_yawl_spoof,44902,0.0015725636621937156,0.0013897912576794624,-0.08325105160474777,-35.3632621,149.1652375,-0.006,-0.01,0.02,0.0,-9.942234464688227e-05,9.444986790185794e-05,0.0,1000,1000,1000,1000,12600,0,0.0027686685789376497,0.002914946526288986,0.0027530312072485685,10,{}
attack_corridor_base_10,1,pos_yawl_spoof,45359,0.001479779719375074,0.0012987024383619428,-0.08371084183454514,-35.3632622,149.1652375,-0.006,-0.01,0.02,0.0,-9.942234464688227e-05,9.444986790185794e-05,0.0,1000,1000,1000,1000,12600,0,0.002782233525067568,0.002893297467380762,0.0026140876580029726,10,{}
attack_corridor_base_10,1,pos_yawl_spoof,45609,0.0014392905868589878,0.0012611208949238062,-0.08392900973558426,-35.3632622,149.1652375,-0.006,-0.01,0.02,0.0,-9.942233737092465e-05,9.444988972973078e-05,0.0,1000,1000,1000,1000,12600,0,0.0026382827199995518,0.0028984176460653543,0.0026141763664782047,10,{}
attack_corridor_base_10,1,pos_yawl_spoof,45859,0.0013833766570314765,0.0012024238239973783,-0.0841258093714714,-35.3632622,149.1652375,-0.006,-0.01,0.02,0.0,-9.942232281900942e-05,9.444988245377317e-05,0.0,1000,1000,1000,1000,12600,0,0.0030986382625997066,0.0027661113999783993,0.0028485991060733795,10,{}
attack_corridor_base_10,1,pos_yawl_spoof,46109,0.0013420513132587075,0.001157171092927456,-0.0843360424041748,-35.3632622,149.1652375,-0.006,-0.01,0.01,0.0,-9.942230099113658e-05,9.444987517781556e-05,0.0,1000,1000,1000,1000,12600,0,0.002964441664516926,0.0029269512742757797,0.002818138338625431,10,{}
attack_corridor_base_10,1,pos_yawl_spoof,46357,0.001302325981669128,0.0011121886782348156,-0.0845024436712265,-35.3632622,149.1652375,-0.006,-0.01,0.01,0.0,-9.942227916326374e-05,9.444988245377317e-05,0.0,1000,1000,1000,1000,12600,0,0.0026376990135759115,0.0026923753321170807,0.002795394277200103,10,{}
attack_corridor_base_10,1,pos_yawl_spoof,46607,0.0012755653588101268,0.0010910893324762583,-0.08466821908950806,-35.3632622,149.1652375,-0.006,-0.01,0.01,0.0,-9.942231554305181e-05,9.444991883356124e-05,0.0,1000,1000,1000,1000,12600,0,0.0025980600621551275,0.002760016592219472,0.002596876583993435,10,{}
attack_corridor_base_10,1,pos_yawl_spoof,46857,0.0012299279915168881,0.0010512996232137084,-0.08486584573984146,-35.3632622,149.1652375,-0.006,-0.01,0.01,0.0,-9.942226461134851e-05,9.444991155760363e-05,0.0,1000,1000,1000,1000,12600,0,0.0029620593413710594,0.0027733377646654844,0.002418660558760166,10,{}
attack_corridor_base_10,1,pos_yawl_spoof,47109,0.001197610516101122,0.001022752607241273,-0.08504755795001984,-35.3632621,149.1652375,-0.006,-0.01,0.01,0.0,-9.942224278347567e-05,9.444992610951886e-05,0.0,1000,1000,1000,1000,12600,0,0.0028424265328794718,0.0027120981831103563,0.0024378583766520023,10,{}
attack_corridor_base_10,1,pos_yawl_spoof,47359,0.0011716082226485014,0.0010006602387875319,-0.08523144572973251,-35.3632621,149.1652375,-0.006,-0.01,0.01,0.0,-9.942222095560282e-05,9.444990428164601e-05,0.0,1000,1000,1000,1000,12600,0,0.002942302729934454,0.00285010295920074,0.0027276657056063414,10,{}
attack_corridor_base_10,1,pos_yawl_spoof,47609,0.0011574157979339361,0.0009868261404335499,-0.08540232479572296,-35.3632621,149.1652375,-0.006,-0.01,0.01,0.0,-9.942217729985714e-05,9.444986790185794e-05,0.0,1000,1000,1000,1000,12600,0,0.0027303090319037437,0.0027330066077411175,0.002782264491543174,10,{}
attack_corridor_base_10,1,pos_yawl_spoof,47859,0.0011315657757222652,0.0009639391209930182,-0.08558480441570282,-35.3632621,149.1652375,-0.006,-0.01,0.01,0.0,-9.942214819602668e-05,9.444982424611226e-05,0.0,1000,1000,1000,1000,12600,0,0.002810887759551406,0.002708232030272484,0.002716965042054653,10,{}
attack_corridor_base_10,1,pos_yawl_spoof,48109,0.0011161502916365862,0.0009478863212279975,-0.08574502170085907,-35.3632621,149.1652375,-0.006,-0.01,0.01,0.0,-9.942212636815384e-05,9.444983152206987e-05,0.0,1000,1000,1000,1000,12600,0,0.0030491205397993326,0.002733191242441535,0.002740527968853712,10,{}
attack_corridor_base_10,1,pos_yawl_spoof,48357,0.001106012612581253,0.00093677086988464,-0.08592470735311508,-35.3632621,149.1652375,-0.006,-0.01,0.01,0.0,-9.9422104540281e-05,9.444981697015464e-05,0.0,1000,1000,1000,1000,12600,0,0.0027207722887396812,0.0029172629583626986,0.0028043659403920174,10,{}
attack_corridor_base_10,1,pos_yawl_spoof,48607,0.0010997147765010595,0.0009313396876677871,-0.08608714491128922,-35.3632621,149.1652375,-0.006,-0.01,0.01,0.0,-9.942207543645054e-05,9.444981697015464e-05,0.0,1000,1000,1000,1000,12600,0,0.002890377538278699,0.0026794741861522198,0.0029869847930967808,10,{}
attack_corridor_base_10,1,pos_yawl_spoof,48857,0.0010899577755481005,0.00092239526566118,-0.08624351769685745,-35.3632621,149.1652375,-0.006,-0.01,0.01,0.0,-9.942206816049293e-05,9.444978786632419e-05,0.0,1000,1000,1000,1000,12600,0,0.002804914489388466,0.003062453819438815,0.002783847041428089,10,{}
attack_corridor_base_10,1,pos_yawl_spoof,49107,0.0010843358468264341,0.0009157821768894792,-0.08641350269317627,-35.3632621,149.1652375,-0.006,-0.01,0.01,0.0,-9.942201722878963e-05,9.444976603845134e-05,0.0,1000,1000,1000,1000,12600,0,0.0029323778580874205,0.0030525163747370243,0.0026932063046842813,10,{}
attack_corridor_base_10,1,pos_yawl_spoof,49359,0.0010836297878995538,0.0009114728891290724,-0.0865660011768341,-35.3632621,149.1652375,-0.006,-0.01,0.01,0.0,-9.942196629708633e-05,9.444973693462089e-05,0.0,1000,1000,1000,1000,12600,0,0.002685017418116331,0.002609838033095002,0.002766446676105261,10,{}
attack_corridor_base_10,1,pos_yawl_spoof,49609,0.001083314185962081,0.0009116774308495224,-0.08672421425580978,-35.3632621,149.1652375,-0.006,-0.01,0.01,0.0,-9.942197357304394e-05,9.444972965866327e-05,0.0,1000,1000,1000,1000,12600,0,0.0027467922773212194,0.0029318167362362146,0.0026389684062451124,10,{}
attack_corridor_base_10,1,pos_yawl_spoof,49859,0.0010767091298475862,0.0009133914718404412,-0.08688103407621384,-35.3632621,149.1652375,-0.006,-0.01,0.01,0.0,-9.942198812495917e-05,9.444971510674804e-05,0.0,1000,1000,1000,1000,12600,0,0.0026736531872302294,0.0027801760006695986,0.0026876882184296846,10,{}
attack_corridor_base_10,1,pos_yawl_spoof,50109,0.0010772880632430315,0.0009144202340394258,-0.08704080432653427,-35.3632621,149.1652375,-0.006,-0.01,0.01,0.0,-9.942198812495917e-05,9.444970055483282e-05,0.0,1000,1000,1000,1000,12600,0,0.002833524253219366,0.0027619735337793827,0.0027765596751123667,10,{}
attack_corridor_base_10,1,pos_yawl_spoof,50357,0.0010809910017997026,0.0009157849126495421,-0.08718764036893845,-35.3632621,149.1652375,-0.006,-0.01,0.01,0.0,-9.942198084900156e-05,9.444967145100236e-05,0.0,1000,1000,1000,1000,12600,0,0.0024278932251036167,0.0027282009832561016,0.002920859958976507,10,{}
attack_corridor_base_10,1,pos_yawl_spoof,50607,0.0010836353758350015,0.0009140715119428933,-0.08734989911317825,-35.3632621,149.1652375,-0.006,-0.01,0.01,0.0,-9.942197357304394e-05,9.444961324334145e-05,0.0,1000,1000,1000,1000,12600,0,0.002853745361790061,0.0029560495167970657,0.0026965592987835407,10,{}
attack_corridor_base_10,1,pos_yawl_spoof,50857,0.0010847687954083085,0.0009121404145844281,-0.08749409765005112,-35.3632621,149.1652375,-0.006,-0.01,0.01,0.0,-9.942192991729826e-05,9.444955503568053e-05,0.0,1000,1000,1000,1000,12600,0,0.0027642769273370504,0.0030450865160673857,0.002888584043830633,10,{}
attack_corridor_base_10,1,pos_yawl_spoof,51107,0.0010859727626666427,0.0009131425758823752,-0.08764319121837616,-35.3632621,149.1652375,-0.006,-0.01,0.01,0.0,-9.942192264134064e-05,9.444954775972292e-05,0.0,1000,1000,1000,1000,12600,0,0.002756689442321658,0.002719373442232609,0.0027006652671843767,10,{}
attack_corridor_base_10,1,pos_yawl_spoof,51359,0.0010868506506085396,0.0009175626910291612,-0.08778399229049683,-35.3632621,149.1652375,-0.006,-0.01,0.01,0.0,-9.942188626155257e-05,9.444952593185008e-05,0.0,1000,1000,1000,1000,12600,0,0.002846841234713793,0.0027739584911614656,0.002557207830250263,10,{}
attack_corridor_base_10,1,pos_yawl_spoof,51609,0.0010907595278695226,0.0009178295731544495,-0.08793086558580399,-35.3632621,149.1652375,-0.006,-0.01,0.01,0.0,-9.942188626155257e-05,9.444949682801962e-05,0.0,1000,1000,1000,1000,12600,0,0.0028616972267627716,0.0030034955125302076,0.002972721355035901,10,{}
attack_corridor_base_10,1,pos_yawl_spoof,51859,0.0010945609537884593,0.0009136635926552117,-0.08806651085615158,-35.3632621,149.1652375,-0.006,-0.01,0.01,0.0,-9.94219008134678e-05,9.444951137993485e-05,0.0,1000,1000,1000,1000,12600,0,0.002981453202664852,0.0026728399097919464,0.0029063106048852205,10,{}
attack_corridor_base_10,1,pos_yawl_spoof,52109,0.001098877633921802,0.0009065615013241768,-0.08821754157543182,-35.3632621,149.1652375,-0.006,-0.01,0.01,0.0,-9.94219008134678e-05,9.4449489552062e-05,0.0,1000,1000,1000,1000,12600,0,0.002923040883615613,0.0024742335081100464,0.0028510168194770813,10,{}
attack_corridor_base_10,1,pos_yawl_spoof,52359,0.0011044458951801062,0.0009058786672540009,-0.08834592998027802,-35.3632621,149.1652375,-0.006,-0.01,0.01,0.0,-9.942188626155257e-05,9.444948227610439e-05,0.0,1000,1000,1000,1000,12600,0,0.002700075274333358,0.0028381752781569958,0.0027657821774482727,10,{}
attack_corridor_base_10,1,pos_yawl_spoof,52607,0.001109062577597797,0.0009166827076114714,-0.08845909684896469,-35.3632621,149.1652375,-0.006,-0.01,0.01,0.0,-9.942186443367973e-05,9.444945317227393e-05,0.0,1000,1000,1000,1000,12600,0,0.0030767873395234346,0.0026920665986835957,0.0027921046130359173,10,{}
attack_corridor_base_10,1,pos_yawl_spoof,52857,0.0011100494302809238,0.0009182153735309839,-0.08859853446483612,-35.3632621,149.1652375,-0.006,-0.01,0.01,0.0,-9.942182077793404e-05,9.444941679248586e-05,0.0,1000,1000,1000,1000,12600,0,0.002857872284948826,0.0030428499449044466,0.002914107870310545,10,{}
attack_corridor_base_10,1,pos_yawl_spoof,53107,0.0011102529242634773,0.000914226402528584,-0.08872886747121811,-35.3632621,149.1652375,-0.006,-0.01,0.01,0.0,-9.942186443367973e-05,9.44494386203587e-05,0.0,1000,1000,1000,1000,12600,0,0.0026771798729896545,0.0028078118339180946,0.002763086697086692,10,{}
attack_corridor_base_10,1,pos_yawl_spoof,53359,0.0011165087344124913,0.0009218102204613388,-0.08887452632188797,-35.3632621,149.1652375,-0.006,-0.01,0.01,0.0,-9.942187170963734e-05,9.444946044823155e-05,0.0,1000,1000,1000,1000,12600,0,0.0027506540063768625,0.0026006281841546297,0.002626319183036685,10,{}
attack_corridor_base_10,1,pos_yawl_spoof,53609,0.001130168791860342,0.0009308191947638988,-0.0890049859881401,-35.3632621,149.1652375,-0.006,-0.01,0.01,0.0,-9.942181350197643e-05,9.444940951652825e-05,0.0,1000,1000,1000,1000,12600,0,0.002713617868721485,0.00301196682266891,0.0027076255064457655,10,{}
attack_corridor_base_10,1,pos_yawl_spoof,53859,0.0011319947661831975,0.0009267268469557166,-0.08913467079401016,-35.3632621,149.1652375,-0.006,-0.01,0.01,0.0,-9.942180622601882e-05,9.444942406844348e-05,0.0,1000,1000,1000,1000,12600,0,0.002530421130359173,0.0027555502019822598,0.002873047022148967,10,{}
attack_corridor_base_10,1,pos_yawl_spoof,54109,0.0011332229478284717,0.000935083138756454,-0.08926977217197418,-35.3632621,149.1652375,-0.006,-0.01,0.01,0.0,-9.942177712218836e-05,9.444941679248586e-05,0.0,1000,1000,1000,1000,12600,0,0.0029445025138556957,0.0027861802373081446,0.0029055504128336906,10,{}
attack_corridor_base_10,1,pos_yawl_spoof,54359,0.0011347508989274502,0.0009401349816471338,-0.08939773589372635,-35.3632621,149.1652375,-0.006,-0.01,0.01,0.0,-9.942174074240029e-05,9.444936586078256e-05,0.0,1000,1000,1000,1000,12600,0,0.0029112566262483597,0.0028869768138974905,0.0029184368904680014,10,{}
attack_corridor_base_10,1,pos_yawl_spoof,54607,0.001145786838606,0.0009493388934060931,-0.08952122181653976,-35.3632621,149.1652375,-0.006,-0.01,0.01,0.0,-9.942173346644267e-05,9.444938041269779e-05,0.0,1000,1000,1000,1000,12600,0,0.002589056733995676,0.0028299414552748203,0.0026409763377159834,10,{}
attack_corridor_base_10,1,pos_yawl_spoof,54857,0.001144826295785606,0.000947308202739805,-0.08964657038450241,-35.3632621,149.1652375,-0.006,-0.01,0.01,0.0,-9.942174074240029e-05,9.444933675695211e-05,0.0,1000,1000,1000,1000,12600,0,0.0031821478623896837,0.0028687571175396442,0.0029707627836614847,10,{}
attack_corridor_base_10,1,pos_yawl_spoof,55107,0.001146528753452003,0.0009491603705100715,-0.08977216482162476,-35.3632621,149.1652375,-0.006,-0.01,0.01,0.0,-9.942173346644267e-05,9.444929310120642e-05,0.0,1000,1000,1000,1000,12600,0,0.0027446968015283346,0.0028260392136871815,0.002674097428098321,10,{}
attack_corridor_base_10,1,pos_yawl_spoof,55357,0.0011458054650574923,0.0009519106242805719,-0.08989275246858597,-35.3632621,149.1652375,-0.006,-0.01,0.01,0.0,-9.942174074240029e-05,9.444929310120642e-05,0.0,1000,1000,1000,1000,12600,0,0.002567561808973551,0.002525416435673833,0.0025980344507843256,10,{}
attack_corridor_base_10,1,pos_yawl_spoof,55609,0.0011497512459754944,0.0009569270769134164,-0.09002306312322617,-35.3632621,149.1652375,-0.006,-0.01,0.01,0.0,-9.942171891452745e-05,9.44492785492912e-05,0.0,1000,1000,1000,1000,12600,0,0.002695290371775627,0.0031588468700647354,0.0026334859430789948,10,{}
attack_corridor_base_10,1,pos_yawl_spoof,55859,0.001146637019701302,0.0009505224879831076,-0.0901414081454277,-35.3632621,149.1652375,-0.006,-0.01,0.01,0.0,-9.942170436261222e-05,9.444929310120642e-05,0.0,1000,1000,1000,1000,12600,0,0.0026250488590449095,0.0027982108294963837,0.0025702097918838263,10,{}
attack_corridor_base_10,1,pos_yawl_spoof,56109,0.0011456083739176393,0.0009517219150438905,-0.09026864171028137,-35.3632621,149.1652375,-0.006,-0.01,0.01,0.0,-9.942168253473938e-05,9.444927127333358e-05,0.0,1000,1000,1000,1000,12600,0,0.0027849364560097456,0.002856514183804393,0.003040461568161845,10,{}
attack_corridor_base_10,1,pos_yawl_spoof,56359,0.001150742289610207,0.0009558619349263608,-0.09038730710744858,-35.3632621,149.1652375,-0.006,-0.01,0.01,0.0,-9.942167525878176e-05,9.444924216950312e-05,0.0,1000,1000,1000,1000,12600,0,0.0027203415520489216,0.002890425967052579,0.003163292771205306,10,{}
attack_corridor_base_10,1,pos_yawl_spoof,56607,0.001152109820395708,0.0009611812420189381,-0.09050841629505157,-35.3632621,149.1652375,-0.006,-0.01,0.01,0.0,-9.94216970866546e-05,9.444927127333358e-05,0.0,1000,1000,1000,1000,12600,0,0.0027449512854218483,0.0026981437113136053,0.0027362967375665903,10,{}
attack_corridor_base_10,1,pos_yawl_spoof,56857,0.0011377293849363923,0.0009589620749466121,-0.09059562534093857,-35.3632621,149.1652375,-0.006,-0.01,0.01,0.0,-9.942174074240029e-05,9.444930037716404e-05,0.0,1000,1000,1000,1000,12600,0,0.0028524380177259445,0.002723886864259839,0.002717749448493123,10,{}
attack_corridor_base_10,1,pos_yawl_spoof,57107,0.0011325697414577007,0.0009548433008603752,-0.09071137011051178,-35.3632621,149.1652375,-0.006,-0.01,0.01,0.0,-9.942178439814597e-05,9.444930037716404e-05,0.0,1000,1000,1000,1000,12600,0,0.0027467580512166023,0.002944682026281953,0.0027957407291978598,10,{}
attack_corridor_base_10,1,pos_yawl_spoof,57357,0.0011408913414925337,0.0009567330125719309,-0.09083002805709839,-35.3632621,149.1652375,-0.006,-0.01,0.01,0.0,-9.942182077793404e-05,9.444934403290972e-05,0.0,1000,1000,1000,1000,12600,0,0.002813530620187521,0.00291701452806592,0.0027251604478806257,10,{}
attack_corridor_base_10,1,pos_yawl_spoof,57609,0.0011471644975245,0.0009653907036408782,-0.09094556421041489,-35.3632622,149.1652375,-0.006,-0.01,0.01,0.0,-9.942180622601882e-05,9.444935130886734e-05,0.0,1000,1000,1000,1000,12600,0,0.0026687553618103266,0.002612673444673419,0.002502416493371129,10,{}
attack_corridor_base_10,1,pos_yawl_spoof,57859,0.0011461941758170724,0.0009619080810807645,-0.09105420857667923,-35.3632622,149.1652375,-0.006,-0.01,0.01,0.0,-9.942182805389166e-05,9.444936586078256e-05,0.0,1000,1000,1000,1000,12600,0,0.0026686876080930233,0.0025595328770577908,0.002613175194710493,10,{}
attack_corridor_base_10,1,pos_yawl_spoof,58109,0.0011505525326356292,0.0009610041161067784,-0.09116332978010178,-35.3632621,149.1652375,-0.006,-0.01,0.01,0.0,-9.942185715772212e-05,9.444940224057063e-05,0.0,1000,1000,1000,1000,12600,0,0.0025921626947820187,0.002722289878875017,0.0025753893423825502,10,{}
attack_corridor_base_10,1,pos_yawl_spoof,58359,0.001154232071712613,0.000966985709965229,-0.09127876162528992,-35.3632622,149.1652375,-0.006,-0.01,0.01,0.0,-9.94218498817645e-05,9.444938041269779e-05,0.0,1000,1000,1000,1000,12600,0,0.003136976854875684,0.00285535492002964,0.002741058124229312,10,{}
attack_corridor_base_10,1,pos_yawl_spoof,58609,0.0011553011136129498,0.0009718756773509085,-0.09138531237840652,-35.3632622,149.1652375,-0.006,-0.01,0.01,0.0,-9.942191536538303e-05,9.444943134440109e-05,0.0,1000,1000,1000,1000,12600,0,0.0033145740162581205,0.0030581026803702116,0.0028399054426699877,10,{}
attack_corridor_base_10,1,pos_yawl_spoof,58857,0.0011541019193828106,0.0009683457319624722,-0.09149757027626038,-35.3632622,149.1652375,-0.006,-0.01,0.01,0.0,-9.94219517451711e-05,9.444946772418916e-05,0.0,1000,1000,1000,1000,12600,0,0.002873932244256139,0.002750982763245702,0.002643563784658909,10,{}
attack_corridor_base_10,1,pos_yawl_spoof,59107,0.0011552872601896524,0.0009689393336884677,-0.09160509705543518,-35.3632621,149.1652375,-0.006,-0.01,0.01,0.0,-9.942193719325587e-05,9.444942406844348e-05,0.0,1000,1000,1000,1000,12600,0,0.0027203550562262535,0.0027573516126722097,0.0026316349394619465,10,{}
attack_corridor_base_10,1,pos_yawl_spoof,59357,0.001157941878773272,0.00097500323317945,-0.0917072743177414,-35.3632622,149.1652375,-0.006,-0.01,0.01,0.0,-9.942193719325587e-05,9.444938041269779e-05,0.0,1000,1000,1000,1000,12600,0,0.002996547147631645,0.002563196700066328,0.0026640347205102444,10,{}
attack_corridor_base_10,1,pos_yawl_spoof,59609,0.0011633834801614285,0.0009801442502066493,-0.09181450307369232,-35.3632622,149.1652375,-0.006,-0.01,0.01,0.0,-9.942194446921349e-05,9.444936586078256e-05,0.0,1000,1000,1000,1000,12600,0,0.002974344417452812,0.0027255008462816477,0.002718479372560978,10,{}
attack_corridor_base_10,1,pos_yawl_spoof,59859,0.001150948228314519,0.0009753514314070344,-0.09191413968801498,-35.3632621,149.1652375,-0.006,-0.01,0.01,0.0,-9.942197357304394e-05,9.44493876886554e-05,0.0,1000,1000,1000,1000,12600,0,0.002691302914172411,0.0028327982872724533,0.002781176706776023,10,{}
attack_corridor_base_10,1,pos_yawl_spoof,60109,0.001150992582552135,0.0009697595960460603,-0.0920155718922615,-35.3632621,149.1652375,-0.006,-0.01,0.01,0.0,-9.942198812495917e-05,9.444936586078256e-05,0.0,1000,1000,1000,1000,12600,0,0.0030766644049435854,0.0027686390094459057,0.0027320855297148228,10,{}
attack_corridor_base_10,1,pos_yawl_spoof,60359,0.001152415294200182,0.0009686223929747939,-0.0921175554394722,-35.3632621,149.1652375,-0.006,-0.01,0.01,0.0,-9.942203178070486e-05,9.444936586078256e-05,0.0,1000,1000,1000,1000,12600,0,0.00264367600902915,0.0028392449021339417,0.0027064899913966656,10,{}
attack_corridor_base_10,1,pos_yawl_spoof,60609,0.0011598190758377314,0.0009716156055219471,-0.09221701323986053,-35.3632622,149.1652375,-0.006,-0.01,0.01,0.0,-9.942204633262008e-05,9.444936586078256e-05,0.0,1000,1000,1000,1000,12600,0,0.0027707696426659822,0.002933873562142253,0.0028347743209451437,10,{}
attack_corridor_base_10,1,pos_yawl_spoof,60857,0.0011504931608214974,0.0009576431475579739,-0.09232048690319061,-35.3632621,149.1652375,-0.006,-0.01,0.01,0.0,-9.942202450474724e-05,9.444936586078256e-05,0.0,1000,1000,1000,1000,12600,0,0.002845232840627432,0.0027584449853748083,0.00260436930693686,10,{}
attack_corridor_base_10,1,pos_yawl_spoof,61107,0.0011541639687493443,0.0009533643024042249,-0.09242001920938492,-35.3632621,149.1652375,-0.006,-0.01,0.01,0.0,-9.94220536085777e-05,9.444938041269779e-05,0.0,1000,1000,1000,1000,12600,0,0.002500199945643544,0.0029055047780275345,0.002839866327121854,10,{}
attack_corridor_base_10,1,pos_yawl_spoof,61357,0.0011569516500458121,0.0009570189868099988,-0.09251154214143753,-35.3632622,149.1652375,-0.006,-0.01,0.01,0.0,-9.942203905666247e-05,9.444936586078256e-05,0.0,1000,1000,1000,1000,12600,0,0.0030743605457246304,0.003097902750596404,0.0030541466549038887,10,{}
attack_corridor_base_10,1,pos_yawl_spoof,61607,0.0011638278374448419,0.0009604333317838609,-0.0926051139831543,-35.3632622,149.1652375,-0.006,-0.01,0.01,0.0,-9.942208271240816e-05,9.444936586078256e-05,0.0,1000,1000,1000,1000,12600,0,0.002756094792857766,0.0028211004100739956,0.0029993485659360886,10,{}
attack_corridor_base_10,1,pos_yawl_spoof,61859,0.0011544275330379605,0.0009527966612949967,-0.09268105775117874,-35.3632622,149.1652375,-0.006,-0.01,0.01,0.0,-9.942209726432338e-05,9.444940951652825e-05,0.0,1000,1000,1000,1000,12600,0,0.002897427650168538,0.0027740972582250834,0.0030336007475852966,10,{}
attack_corridor_base_10,1,pos_yawl_spoof,62109,0.0011569677153602242,0.0009554944699630141,-0.09277230501174927,-35.3632622,149.1652375,-0.006,-0.01,0.01,0.0,-9.9422104540281e-05,9.444942406844348e-05,0.0,1000,1000,1000,1000,12600,0,0.002576263854280114,0.0028237842489033937,0.00281587615609169,10,{}
attack_corridor_base_10,1,pos_yawl_spoof,62359,0.001162378117442131,0.0009543164051137865,-0.09286495298147202,-35.3632622,149.1652375,-0.006,-0.01,0.01,0.0,-9.942212636815384e-05,9.444945317227393e-05,0.0,1000,1000,1000,1000,12600,0,0.0026123153511434793,0.0026703509502112865,0.0027822148986160755,10,{}
attack_corridor_base_10,1,pos_yawl_spoof,62609,0.0011630640365183353,0.0009633832378312945,-0.09295174479484558,-35.3632622,149.1652375,-0.006,-0.01,0.01,0.0,-9.942212636815384e-05,9.444947500014678e-05,0.0,1000,1000,1000,1000,12600,0,0.002607963513582945,0.00300018722191453,0.0027914310339838266,10,{}
attack_corridor_base_10,1,pos_yawl_spoof,62857,0.001160485320724547,0.0009621976059861481,-0.09304482489824295,-35.3632621,149.1652375,-0.006,-0.01,0.01,0.0,-9.942214092006907e-05,9.4449489552062e-05,0.0,1000,1000,1000,1000,12600,0,0.002651479560881853,0.003121313638985157,0.0026552302297204733,10,{}
attack_corridor_base_10,1,pos_yawl_spoof,63107,0.0011597730917856097,0.0009676816989667714,-0.09314043819904327,-35.3632622,149.1652375,-0.006,-0.01,0.01,0.0,-9.942209726432338e-05,9.444941679248586e-05,0.0,1000,1000,1000,1000,12600,0,0.0029293911065906286,0.0028691685292869806,0.0026994990184903145,10,{}
attack_corridor_base_10,1,pos_yawl_spoof,63357,0.0011584697058424354,0.0009658655035309494,-0.0932370126247406,-35.3632622,149.1652375,-0.006,-0.01,0.01,0.0,-9.942211181623861e-05,9.444940951652825e-05,0.0,1000,1000,1000,1000,12600,0,0.0027864265721291304,0.0026744119822978973,0.002895828802138567,10,{}
attack_corridor_base_10,1,pos_yawl_spoof,63607,0.0011627428466454148,0.0009755063219927251,-0.0933191254734993,-35.3632622,149.1652375,-0.006,-0.01,0.01,0.0,-9.942211181623861e-05,9.44493876886554e-05,0.0,1000,1000,1000,1000,12600,0,0.002906401641666889,0.00250183860771358,0.0027420709375292063,10,{}
attack_corridor_base_10,1,pos_yawl_spoof,63859,0.0011575233656913042,0.0009708762518130243,-0.09340231865644455,-35.3632622,149.1652375,-0.006,-0.01,0.01,0.0,-9.942211181623861e-05,9.444943134440109e-05,0.0,1000,1000,1000,1000,12600,0,0.002907722955569625,0.0029737127479165792,0.0028477597516030073,10,{}
attack_corridor_base_10,1,pos_yawl_spoof,64109,0.0011629948858171701,0.0009625497623346746,-0.09349004924297333,-35.3632622,149.1652375,-0.006,-0.01,0.01,0.0,-9.942211909219623e-05,9.444942406844348e-05,0.0,1000,1000,1000,1000,12600,0,0.0027221243362873793,0.003016339847818017,0.0031026387587189674,10,{}
attack_corridor_base_10,1,pos_yawl_spoof,64359,0.0011643841862678528,0.0009647234110161662,-0.0935746431350708,-35.3632622,149.1652375,-0.006,-0.01,0.01,0.0,-9.942214819602668e-05,9.444943134440109e-05,0.0,1000,1000,1000,1000,12600,0,0.0028825874906033278,0.00287686032243073,0.002806844422593713,10,{}
attack_corridor_base_10,1,pos_yawl_spoof,64609,0.0011742374626919627,0.0009671474690549076,-0.09366049617528915,-35.3632622,149.1652375,-0.006,-0.01,0.01,0.0,-9.942217002389953e-05,9.444946044823155e-05,0.0,1000,1000,1000,1000,12600,0,0.002824182389304042,0.0028840594459325075,0.0029115660581737757,10,{}
attack_corridor_base_10,1,pos_yawl_spoof,64859,0.0011716042645275593,0.0009586861706338823,-0.09374558180570602,-35.3632621,149.1652375,-0.006,-0.01,0.01,0.0,-9.942219912772998e-05,9.444946772418916e-05,0.0,1000,1000,1000,1000,12600,0,0.0028020250611007214,0.0029560797847807407,0.0029144000727683306,10,{}
attack_corridor_base_10,1,pos_yawl_spoof,65107,0.0011646389029920101,0.0009524457273073494,-0.0938311368227005,-35.3632621,149.1652375,-0.006,-0.01,0.01,0.0,-9.942217729985714e-05,9.444945317227393e-05,0.0,1000,1000,1000,1000,12600,0,0.002846860559657216,0.0030448264442384243,0.0027191070839762688,10,{}
attack_corridor_base_10,1,pos_yawl_spoof,65357,0.0011628345819190145,0.0009588719112798572,-0.09391337633132935,-35.3632621,149.1652375,-0.006,-0.01,0.01,0.0,-9.942219185177237e-05,9.444947500014678e-05,0.0,1000,1000,1000,1000,12600,0,0.0027609574608504772,0.0027785159181803465,0.0029155134689062834,10,{}
attack_corridor_base_10,1,pos_yawl_spoof,65607,0.0011659776791930199,0.0009660838986746967,-0.09399935603141785,-35.3632622,149.1652375,-0.006,-0.01,0.01,0.0,-9.942222095560282e-05,9.444951137993485e-05,0.0,1000,1000,1000,1000,12600,0,0.0027030259370803833,0.002563867950811982,0.0027166062500327826,10,{}
attack_corridor_base_10,1,pos_yawl_spoof,65859,0.0011626722989603877,0.0009607851970940828,-0.09408099204301834,-35.3632621,149.1652375,-0.006,-0.01,0.01,0.0,-9.942219912772998e-05,9.4449489552062e-05,0.0,1000,1000,1000,1000,12600,0,0.0026965041179209948,0.002991631394252181,0.002652183873578906,10,{}
attack_corridor_base_10,1,pos_yawl_spoof,66109,0.0011652786051854491,0.0009615044109523296,-0.09416186809539795,-35.3632621,149.1652375,-0.006,-0.01,0.01,0.0,-9.942219185177237e-05,9.4449489552062e-05,0.0,1000,1000,1000,1000,12600,0,0.002651833463460207,0.002939603989943862,0.002944599138572812,10,{}
attack_corridor_base_10,1,pos_yawl_spoof,66359,0.0011716493172571063,0.0009616982424631715,-0.0942365825176239,-35.3632621,149.1652375,-0.006,-0.01,0.01,0.0,-9.942219912772998e-05,9.444951137993485e-05,0.0,1000,1000,1000,1000,12600,0,0.0028581684455275536,0.002851201221346855,0.0026736941654235125,10,{}
attack_corridor_base_10,1,pos_yawl_spoof,66609,0.0011715091532096267,0.0009742812835611403,-0.09432173520326614,-35.3632622,149.1652375,-0.006,-0.01,0.01,0.0,-9.942217729985714e-05,9.444947500014678e-05,0.0,1000,1000,1000,1000,12600,0,0.0029005699325352907,0.0027807378210127354,0.002708904445171356,10,{}
attack_corridor_base_10,1,pos_yawl_spoof,66859,0.001172133139334619,0.0009718957007862628,-0.09439142793416977,-35.3632621,149.1652375,-0.006,-0.01,0.01,0.0,-9.942214819602668e-05,9.444947500014678e-05,0.0,1000,1000,1000,1000,12600,0,0.0024763979017734528,0.0028172589372843504,0.002990212058648467,10,{}
