flight_id,label,attack_type,timestamp,att_roll,att_pitch,att_yaw,pos_lat,pos_lon,pos_alt_rel,pos_vx,pos_vy,pos_vz,nav_roll,nav_pitch,nav_alt_error,servo1_raw,servo2_raw,servo3_raw,servo4_raw,sys_voltage_battery,sys_load,vib_x,vib_y,vib_z,gps_sats_visible,attack_params_json
attack_corridor_base_7,1,pos_yawl_spoof,15604,0.0003307894803583,0.000111322835437,-0.0738353282213211,-35.3632621,149.1652374,0.0,0.0,0.0,-0.01,,,,,,,,,,,,,,{}
attack_corridor_base_7,1,pos_yawl_spoof,15854,0.000336661178153,0.0001202569474116,-0.0709400251507759,-35.3632621,149.1652374,0.0,0.0,0.0,0.0,-9.94214933598414e-05,9.444936586078256e-05,0.0,1000.0,1000.0,1000.0,1000.0,12600.0,0.0,0.0027072629891335,0.002762735588476,0.0025704740546643,10.0,{}
attack_corridor_base_7,1,pos_yawl_spoof,16104,0.0003452042583376,0.0001299749565077,-0.0682651922106742,-35.3632621,149.1652374,0.0,0.0,0.0,0.0,-9.94214933598414e-05,9.44493804126978e-05,0.0,1000.0,1000.0,1000.0,1000.0,12600.0,0.0,0.0026779365725815,0.0029505274724215,0.0025404887273907,10.0,{}
attack_corridor_base_7,1,pos_yawl_spoof,16354,0.0003532669215928,0.0001378981978632,-0.0659649744629859,-35.3632621,149.1652374,0.0,0.0,0.0,0.0,-9.942147880792618e-05,9.444936586078256e-05,0.0,1000.0,1000.0,1000.0,1000.0,12600.0,0.0,0.0028696916997432,0.0027859706897288,0.0026478935033082,10.0,{}
attack_corridor_base_7,1,pos_yawl_spoof,16604,0.0003659805224742,0.0001450852869311,-0.0639095678925514,-35.3632621,149.1652374,0.0,0.0,0.0,0.0,-9.942150791175663e-05,9.44493804126978e-05,0.0,1000.0,1000.0,1000.0,1000.0,12600.0,0.0,0.0031085845548659,0.0028157921042293,0.002728606108576,10.0,{}
attack_corridor_base_7,1,pos_yawl_spoof,16854,0.0003762916894629,0.0001535237970529,-0.0621426291763782,-35.3632621,149.1652374,0.0,0.0,0.0,0.0,-9.942150063579902e-05,9.44493804126978e-05,0.0,1000.0,1000.0,1000.0,1000.0,12600.0,0.0,0.0031171389855444,0.0025906378868967,0.0026223356835544,10.0,{}
attack_corridor_base_7,1,pos_yawl_spoof,17104,0.0003871856024488,0.0001591964828548,-0.0605298094451427,-35.3632621,149.1652374,0.0,0.0,0.0,0.0,-9.942147880792618e-05,9.444940224057063e-05,0.0,1000.0,1000.0,1000.0,1000.0,12600.0,0.0,0.0028657773509621,0.0028376190457493,0.0027757382486015,10.0,{}
attack_corridor_base_7,1,pos_yawl_spoof,17354,0.0003955228894483,0.0001677753316471,-0.0591977722942829,-35.3632621,149.1652374,0.0,0.0,0.0,0.0,-9.94214933598414e-05,9.444935858482496e-05,0.0,1000.0,1000.0,1000.0,1000.0,12600.0,0.0,0.0028861563187092,0.0029514983762055,0.0028374560642987,10.0,{}
attack_corridor_base_7,1,pos_yawl_spoof,17604,0.0004047987458761,0.0001756962301442,-0.0579873695969581,-35.3632621,149.1652374,0.0,0.0,0.0,0.0,-9.942156611941756e-05,9.444936586078256e-05,0.0,1000.0,1000.0,1000.0,1000.0,12600.0,0.0,0.0029728438239544,0.0026562421116977,0.0030318403150886,10.0,{}
attack_corridor_base_7,1,pos_yawl_spoof,17854,0.0004177895607426,0.0001869245315901,-0.0569822788238525,-35.3632621,149.1652374,0.0,0.0,0.0,0.0,-9.942162432707846e-05,9.444939496461302e-05,0.0,1000.0,1000.0,1000.0,1000.0,12600.0,0.0,0.0026762848719954,0.0028294476214796,0.002573411213234,10.0,{}
attack_corridor_base_7,1,pos_yawl_spoof,18104,0.0004220268747303,0.0002007403236348,-0.0560926981270313,-35.3632621,149.1652374,0.0,0.0,0.0,0.0,-9.94216461549513e-05,9.444936586078256e-05,0.0,1000.0,1000.0,1000.0,1000.0,12600.0,0.0,0.003081863047555,0.0027946266345679,0.0029850620776414,10.0,{}
attack_corridor_base_7,1,pos_yawl_spoof,18354,0.0004347852664068,0.0002105072053382,-0.0553563609719276,-35.3632621,149.1652374,0.0,0.0,0.0,0.0,-9.942168253473938e-05,9.444936586078256e-05,0.0,1000.0,1000.0,1000.0,1000.0,12600.0,0.0,0.0025776501279324,0.0026853235904127,0.0028172358870506,10.0,{}
attack_corridor_base_7,1,pos_yawl_spoof,18604,0.0004446501261554,0.000223845738219,-0.0547312684357166,-35.3632621,149.1652374,0.0,0.0,0.0,0.0,-9.942166070686652e-05,9.444932948099448e-05,0.0,1000.0,1000.0,1000.0,1000.0,12600.0,0.0,0.0027302973903715,0.0028875148855149,0.0030948719941079,10.0,{}
attack_corridor_base_7,1,pos_yawl_spoof,18854,0.0004583432746585,0.0002324098895769,-0.0542303472757339,-35.3632621,149.1652374,0.0,0.0,0.0,0.0,-9.942160249920562e-05,9.44492858252488e-05,0.0,1000.0,1000.0,1000.0,1000.0,12600.0,0.0,0.0030844281427562,0.0028300916310399,0.0029561107512563,10.0,{}
attack_corridor_base_7,1,pos_yawl_spoof,19104,0.000473252555821,0.0002460639807395,-0.0537919998168945,-35.3632621,149.1652374,0.0,0.0,0.0,0.0,-9.942161705112083e-05,9.444930037716404e-05,0.0,1000.0,1000.0,1000.0,1000.0,12600.0,0.0,0.0028859658632427,0.0030414722859859,0.0027661134954541,10.0,{}
attack_corridor_base_7,1,pos_yawl_spoof,19354,0.0004835073486901,0.0002548878255765,-0.0534892491996288,-35.3632621,149.1652374,0.0,0.0,0.0,0.0,-9.942163160303608e-05,9.444930037716404e-05,0.0,1000.0,1000.0,1000.0,1000.0,12600.0,0.0,0.0030188111122697,0.0027805299032479,0.0029215789400041,10.0,{}
attack_corridor_base_7,1,pos_yawl_spoof,19604,0.0004979342338629,0.0002657345030456,-0.0532085411250591,-35.3632621,149.1652374,0.0,0.0,0.0,0.0,-9.9421595223248e-05,9.444933675695212e-05,0.0,1000.0,1000.0,1000.0,1000.0,12600.0,0.0,0.0028427853249013,0.0027270782738924,0.0025448510423302,10.0,{}
attack_corridor_base_7,1,pos_yawl_spoof,19854,0.0005103171570226,0.0002776170149445,-0.0530040077865123,-35.3632621,149.1652374,0.0,0.0,0.0,0.0,-9.942163160303608e-05,9.444932220503688e-05,0.0,1000.0,1000.0,1000.0,1000.0,12600.0,0.0,0.0031067267991602,0.0026636405382305,0.0028043841011822,10.0,{}
attack_corridor_base_7,1,pos_yawl_spoof,20104,0.000528288539499,0.0002925331355072,-0.0526733472943306,-35.3632621,149.1652374,0.006,0.0,0.0,0.0,-9.942166070686652e-05,9.444935858482496e-05,0.0,1000.0,1000.0,1000.0,1000.0,12600.0,0.0,0.0027985542546957,0.0026960850227624,0.002533990656957,10.0,{}
attack_corridor_base_7,1,pos_yawl_spoof,20354,0.0005375060136429,0.000305482186377,-0.0526387654244899,-35.3632621,149.1652374,-0.007,0.0,0.0,0.0,-9.94217480183579e-05,9.444939496461302e-05,0.0,1000.0,1000.0,1000.0,1000.0,12600.0,0.0,0.0029574835207313,0.0028636660426855,0.0027805767022073,10.0,{}
attack_corridor_base_7,1,pos_yawl_spoof,20604,0.0005520523409359,0.0003211016592103,-0.0526163801550865,-35.3632621,149.1652374,-0.008,0.0,0.0,0.0,-9.942171163856985e-05,9.44493876886554e-05,0.0,1000.0,1000.0,1000.0,1000.0,12600.0,0.0,0.0027908205520361,0.0028034204151481,0.00261483900249,10.0,{}
attack_corridor_base_7,1,pos_yawl_spoof,20854,0.0005641535390168,0.0003304746060166,-0.0527246668934822,-35.3632621,149.1652374,-0.007,0.0,0.0,0.0,-9.942173346644267e-05,9.444940951652824e-05,0.0,1000.0,1000.0,1000.0,1000.0,12600.0,0.0,0.0028966995887458,0.0028701340779662,0.0029533167835325,10.0,{}
attack_corridor_base_7,1,pos_yawl_spoof,21104,0.0005746348761022,0.0003435110556893,-0.0527659356594085,-35.3632621,149.1652374,-0.006,0.0,0.0,0.0,-9.942174074240028e-05,9.44493804126978e-05,0.0,1000.0,1000.0,1000.0,1000.0,12600.0,0.0,0.0030105393379926,0.002687282860279,0.0028378425631672,10.0,{}
attack_corridor_base_7,1,pos_yawl_spoof,21354,0.0005907655577175,0.0003538569435477,-0.0529665201902389,-35.3632621,149.1652374,-0.005,0.0,0.0,0.0,-9.94217989500612e-05,9.444940951652824e-05,0.0,1000.0,1000.0,1000.0,1000.0,12600.0,0.0,0.0027204926591366,0.0029342006891965,0.0029819128103554,10.0,{}
attack_corridor_base_7,1,pos_yawl_spoof,21604,0.0006054956465959,0.0003729227173607,-0.053089439868927,-35.3632621,149.1652374,-0.003,0.0,0.0,0.0,-9.942175529431552e-05,9.444939496461302e-05,0.0,1000.0,1000.0,1000.0,1000.0,12600.0,0.0,0.0027613146230578,0.0028337850235402,0.0028759317938238,10.0,{}
attack_corridor_base_7,1,pos_yawl_spoof,21854,0.0006200548377819,0.0003831041103694,-0.0533007495105266,-35.3632621,149.1652374,-0.002,0.0,0.0,0.0,-9.94217916741036e-05,9.444935858482496e-05,0.0,1000.0,1000.0,1000.0,1000.0,12600.0,0.0,0.0030334508046507,0.0029329471290111,0.0028616569470614,10.0,{}
attack_corridor_base_7,1,pos_yawl_spoof,22104,0.0006370442570187,0.0003939037851523,-0.05350162088871,-35.3632621,149.1652374,-0.001,0.0,0.01,0.0,-9.942181350197644e-05,9.444936586078256e-05,0.0,1000.0,1000.0,1000.0,1000.0,12600.0,0.0,0.0027742879465222,0.0026149884797632,0.0028830440714955,10.0,{}
attack_corridor_base_7,1,pos_yawl_spoof,22354,0.0006521207978948,0.0004115745250601,-0.0537788420915603,-35.3632621,149.1652374,0.0,0.0,0.01,0.0,-9.942183532984929e-05,9.444942406844348e-05,0.0,1000.0,1000.0,1000.0,1000.0,12600.0,0.0,0.0026865140534937,0.0029530581086874,0.0027669749688357,10.0,{}
attack_corridor_base_7,1,pos_yawl_spoof,22604,0.0006631377618759,0.000431900814874,-0.0540137887001037,-35.3632621,149.1652374,0.0,0.0,0.01,0.0,-9.94219008134678e-05,9.444946044823156e-05,0.0,1000.0,1000.0,1000.0,1000.0,12600.0,0.0,0.0026155281811952,0.0028221227694302,0.0028636783827096,10.0,{}
attack_corridor_base_7,1,pos_yawl_spoof,22854,0.0006813962827436,0.0004459907650016,-0.0543423593044281,-35.3632621,149.1652374,0.0,0.0,0.01,0.0,-9.942196629708631e-05,9.4449489552062e-05,0.0,1000.0,1000.0,1000.0,1000.0,12600.0,0.0,0.002744521247223,0.0024350264575332,0.0030237550381571,10.0,{}
attack_corridor_base_7,1,pos_yawl_spoof,23104,0.0006957764271646,0.0004622129781637,-0.0546187497675418,-35.3632621,149.1652374,0.0,0.0,0.01,0.0,-9.94219517451711e-05,9.444945317227392e-05,0.0,1000.0,1000.0,1000.0,1000.0,12600.0,0.0,0.0028994344174861,0.0028378486167639,0.0028537467587739,10.0,{}
attack_corridor_base_7,1,pos_yawl_spoof,23354,0.000706813763827,0.0004747620550915,-0.0549991615116596,-35.3632621,149.1652374,0.001,-0.01,0.01,0.0,-9.94219517451711e-05,9.444946772418916e-05,0.0,1000.0,1000.0,1000.0,1000.0,12600.0,0.0,0.002752931555733,0.0028864524792879,0.0028853293042629,10.0,{}
attack_corridor_base_7,1,pos_yawl_spoof,23604,0.0007208743481896,0.000487007346237,-0.0553050637245178,-35.3632621,149.1652374,0.001,-0.01,0.01,0.0,-9.942188626155256e-05,9.444942406844348e-05,0.0,1000.0,1000.0,1000.0,1000.0,12600.0,0.0,0.0028109268750995,0.0026169249322265,0.0028419548179954,10.0,{}
attack_corridor_base_7,1,pos_yawl_spoof,23854,0.0007321488228626,0.0005008588777855,-0.0556375086307525,-35.3632621,149.1652374,0.002,-0.01,0.01,0.0,-9.942181350197644e-05,9.444941679248586e-05,0.0,1000.0,1000.0,1000.0,1000.0,12600.0,0.0,0.0023440306540578,0.0026128238532692,0.0028588427230715,10.0,{}
attack_corridor_base_7,1,pos_yawl_spoof,24104,0.0007444238872267,0.0005176453269086,-0.05601517111063,-35.3632621,149.1652374,0.002,-0.01,0.01,0.0,-9.942178439814596e-05,9.444935858482496e-05,0.0,1000.0,1000.0,1000.0,1000.0,12600.0,0.0,0.0026853163726627,0.0026543613057583,0.002516079461202,10.0,{}
attack_corridor_base_7,1,pos_yawl_spoof,24354,0.0007536527118645,0.0005274725263006,-0.056374404579401,-35.3632621,149.1652374,0.002,-0.01,0.01,0.0,-9.942184260580687e-05,9.444939496461302e-05,0.0,1000.0,1000.0,1000.0,1000.0,12600.0,0.0,0.0026981262490153,0.0026943220291286,0.0025936353486031,10.0,{}
attack_corridor_base_7,1,pos_yawl_spoof,24604,0.0007668493199162,0.0005404784460552,-0.0567333921790123,-35.3632621,149.1652374,0.002,-0.01,0.01,0.0,-9.942186443367972e-05,9.444940224057063e-05,0.0,1000.0,1000.0,1000.0,1000.0,12600.0,0.0,0.0031169822905212,0.0028848550282418,0.0030434159561991,10.0,{}
attack_corridor_base_7,1,pos_yawl_spoof,24854,0.0007792132673785,0.0005558501579798,-0.0571058206260204,-35.3632621,149.1652374,0.002,-0.01,0.01,0.0,-9.94219008134678e-05,9.444946772418916e-05,0.0,1000.0,1000.0,1000.0,1000.0,12600.0,0.0,0.0026470695156604,0.0030704578384757,0.0027303078677505,10.0,{}
attack_corridor_base_7,1,pos_yawl_spoof,25104,0.0007922374061308,0.0005713800783269,-0.0574889257550239,-35.3632621,149.1652374,0.003,-0.01,0.01,0.0,-9.942192991729826e-05,9.444950410397725e-05,0.0,1000.0,1000.0,1000.0,1000.0,12600.0,0.0,0.0029566262383013,0.0026608002372086,0.0026481305249035,10.0,{}
attack_corridor_base_7,1,pos_yawl_spoof,25354,0.0008021586108952,0.0005788663402199,-0.0578522495925426,-35.3632621,149.1652374,0.003,-0.01,0.01,0.0,-9.942192264134064e-05,9.444953320780768e-05,0.0,1000.0,1000.0,1000.0,1000.0,12600.0,0.0,0.0028825385961681,0.0030665483791381,0.0029955806676298,10.0,{}
attack_corridor_base_7,1,pos_yawl_spoof,25604,0.0008190333028323,0.0005943062133155,-0.0581345669925212,-35.3632621,149.1652374,0.003,-0.01,0.01,0.0,-9.942192991729826e-05,9.44495404837653e-05,0.0,1000.0,1000.0,1000.0,1000.0,12600.0,0.0,0.0027322233654558,0.0030391116160899,0.0027069230563938,10.0,{}
attack_corridor_base_7,1,pos_yawl_spoof,25854,0.0008252623374573,0.0006092829280532,-0.0585154928267002,-35.3632621,149.1652374,0.002,-0.01,0.01,0.0,-9.94219080894254e-05,9.444953320780768e-05,0.0,1000.0,1000.0,1000.0,1000.0,12600.0,0.0,0.0027972708921879,0.002897830447182,0.002967819571495,10.0,{}
attack_corridor_base_7,1,pos_yawl_spoof,26104,0.0008407101267948,0.0006194824236445,-0.0589008033275604,-35.3632621,149.1652374,0.002,-0.01,0.01,0.0,-9.94219008134678e-05,9.444950410397725e-05,0.0,1000.0,1000.0,1000.0,1000.0,12600.0,0.0,0.0028526566457003,0.0028259854298084,0.0031367894262075,10.0,{}
attack_corridor_base_7,1,pos_yawl_spoof,26354,0.0008522347779944,0.0006216208566911,-0.0593425519764423,-35.3632621,149.1652374,0.002,-0.01,0.01,0.0,-9.94218935375102e-05,9.444946772418916e-05,0.0,1000.0,1000.0,1000.0,1000.0,12600.0,0.0,0.0025090014096349,0.0028206009883433,0.0028137098997831,10.0,{}
attack_corridor_base_7,1,pos_yawl_spoof,27224,0.000888314389158,0.0006551367696374,-0.0607797615230083,-35.3632621,149.1652374,0.002,-0.01,0.01,0.0,-9.94219008134678e-05,9.444944589631632e-05,0.0,1000.0,1000.0,1000.0,1000.0,12600.0,0.0,0.0026615059468895,0.0028689671307802,0.0026371229905635,10.0,{}
attack_corridor_base_7,1,pos_yawl_spoof,27474,0.0008957832469604,0.0006557534215971,-0.0611648112535476,-35.3632621,149.1652374,0.002,-0.01,0.01,0.0,-9.942198084900156e-05,9.444952593185008e-05,0.0,1000.0,1000.0,1000.0,1000.0,12600.0,0.0,0.0026867315173149,0.0028722609858959,0.0027638634201139,10.0,{}
attack_corridor_base_7,1,pos_yawl_spoof,27724,0.000906987232156,0.0006657597841694,-0.0616312995553016,-35.3632621,149.1652374,0.001,-0.01,0.01,0.0,-9.942197357304394e-05,9.4449489552062e-05,0.0,1000.0,1000.0,1000.0,1000.0,12600.0,0.0,0.0030489615164697,0.0025708095636218,0.0030956983100622,10.0,{}
attack_corridor_base_7,1,pos_yawl_spoof,27974,0.0009152205311693,0.0006771812913939,-0.0619832724332809,-35.3632621,149.1652374,0.001,-0.01,0.01,0.0,-9.942197357304394e-05,9.4449489552062e-05,0.0,1000.0,1000.0,1000.0,1000.0,12600.0,0.0,0.002891136566177,0.0029997029341757,0.0026789512485265,10.0,{}
attack_corridor_base_7,1,pos_yawl_spoof,28489,0.0009342913981527,0.0006964629865251,-0.062817171216011,-35.3632621,149.1652374,0.001,-0.01,0.01,0.0,-9.942203905666248e-05,9.444957686355338e-05,0.0,1000.0,1000.0,1000.0,1000.0,12600.0,0.0,0.0030315772164613,0.0026377809699624,0.0029982128180563,10.0,{}
attack_corridor_base_7,1,pos_yawl_spoof,28821,0.000944318191614,0.000713488087058,-0.0633187070488929,-35.3632621,149.1652374,0.0,-0.01,0.01,0.0,-9.94221118162386e-05,9.444963507121427e-05,0.0,1000.0,1000.0,1000.0,1000.0,12600.0,0.0,0.0027981982566416,0.0026792904827743,0.0025503239594399,10.0,{}
attack_corridor_base_7,1,pos_yawl_spoof,29154,0.0009551855619065,0.0007300754659809,-0.0638044327497482,-35.3632621,149.1652374,0.0,-0.01,0.01,0.0,-9.942223550751804e-05,9.44496860029176e-05,0.0,1000.0,1000.0,1000.0,1000.0,12600.0,0.0,0.0028505942318588,0.0026112045161426,0.0026569983456283,10.0,{}
attack_corridor_base_7,1,pos_yawl_spoof,29486,0.0009713288745842,0.000739455979783,-0.0642746314406395,-35.3632621,149.1652374,0.0,-0.01,0.01,0.0,-9.942223550751804e-05,9.44496860029176e-05,0.0,1000.0,1000.0,1000.0,1000.0,12600.0,0.0,0.0029159192927181,0.0029858716297894,0.0028165664989501,10.0,{}
attack_corridor_base_7,1,pos_yawl_spoof,29819,0.0009827332105487,0.0007537574856542,-0.0649239346385002,-35.3632621,149.1652374,0.0,-0.01,0.02,0.0,-9.942230099113658e-05,9.444972238270566e-05,0.0,1000.0,1000.0,1000.0,1000.0,12600.0,0.0,0.003002512268722,0.0027436644304543,0.0031088204123079,10.0,{}
attack_corridor_base_7,1,pos_yawl_spoof,30224,0.0009973382111638,0.0007691414793953,-0.0656361058354377,-35.3632621,149.1652374,-0.001,-0.01,0.02,0.0,-9.942242468241602e-05,9.444980969419704e-05,0.0,1000.0,1000.0,1000.0,1000.0,12600.0,0.0,0.0029718012083321,0.0029255147092044,0.002824280411005,10.0,{}
attack_corridor_base_7,1,pos_yawl_spoof,30474,0.0010015009902417,0.0007769473595544,-0.0659776106476783,-35.3632621,149.1652374,-0.001,-0.01,0.02,0.0,-9.942236647475512e-05,9.44497878663242e-05,0.0,1000.0,1000.0,1000.0,1000.0,12600.0,0.0,0.0029718012083321,0.0029255147092044,0.002824280411005,10.0,{}
attack_corridor_base_7,1,pos_yawl_spoof,30724,0.0010057110339403,0.0007857282762415,-0.0664055719971656,-35.3632621,149.1652374,-0.001,-0.01,0.02,0.0,-9.94224174064584e-05,9.444983152206988e-05,0.0,1000.0,1000.0,1000.0,1000.0,12600.0,0.0,0.0027095964178442,0.0024083985481411,0.0030318635981529,10.0,{}
attack_corridor_base_7,1,pos_yawl_spoof,30974,0.0010176718933507,0.0007912766304798,-0.0667357668280601,-35.3632621,149.1652374,-0.002,-0.01,0.02,0.0,-9.942248289007694e-05,9.444988245377316e-05,0.0,1000.0,1000.0,1000.0,1000.0,12600.0,0.0,0.0026895459741353,0.0027547497302293,0.0027035803068429,10.0,{}
attack_corridor_base_7,1,pos_yawl_spoof,31224,0.0010223619174212,0.0007979072979651,-0.0671635270118713,-35.3632621,149.1652374,-0.002,-0.01,0.02,0.0,-9.942248289007694e-05,9.444988245377316e-05,0.0,1000.0,1000.0,1000.0,1000.0,12600.0,0.0,0.0028728446923196,0.0029501533135771,0.0026858837809413,10.0,{}
attack_corridor_base_7,1,pos_yawl_spoof,31474,0.0010363750625401,0.000803732429631,-0.0674900487065315,-35.3632621,149.1652374,-0.002,-0.01,0.02,0.0,-9.942254109773784e-05,9.444996248930693e-05,0.0,1000.0,1000.0,1000.0,1000.0,12600.0,0.0,0.0028428134974092,0.002766023389995,0.0030795049387961,10.0,{}
attack_corridor_base_7,1,pos_yawl_spoof,31724,0.0010421328479424,0.0008093040669336,-0.0678320452570915,-35.3632621,149.1652374,-0.002,-0.01,0.02,0.0,-9.942254109773784e-05,9.444996248930693e-05,0.0,1000.0,1000.0,1000.0,1000.0,12600.0,0.0,0.0026487477589398,0.0027972813695669,0.0028776244726032,10.0,{}
attack_corridor_base_7,1,pos_yawl_spoof,32132,0.0010434149298816,0.0008098157704807,-0.0681614801287651,-35.3632621,149.1652374,-0.003,-0.01,0.02,0.0,-9.942248289007694e-05,9.444988245377316e-05,0.0,1000.0,1000.0,1000.0,1000.0,12600.0,0.0,0.002659332472831,0.0029134079813957,0.0028558489866554,10.0,{}
attack_corridor_base_7,1,pos_yawl_spoof,32467,0.0010527274571359,0.0008177514537237,-0.06855458766222,-35.3632621,149.1652374,-0.003,-0.01,0.02,0.0,-9.942247561411932e-05,9.444995521334933e-05,0.0,1000.0,1000.0,1000.0,1000.0,12600.0,0.0,0.0029417027253657,0.0028666814323514,0.0027582417242228,10.0,{}
attack_corridor_base_7,1,pos_yawl_spoof,32799,0.0010672772768884,0.0008361968793906,-0.0693354532122612,-35.3632621,149.1652374,-0.004,-0.01,0.02,0.0,-9.942254109773784e-05,9.444996976526454e-05,0.0,1000.0,1000.0,1000.0,1000.0,12600.0,0.0,0.0025865633506327,0.0025822247844189,0.0029832813888788,10.0,{}
attack_corridor_base_7,1,pos_yawl_spoof,33131,0.0010744102764874,0.0008482144912704,-0.0697655156254768,-35.3632621,149.1652374,-0.004,-0.01,0.02,0.0,-9.942254109773784e-05,9.444996976526454e-05,0.0,1000.0,1000.0,1000.0,1000.0,12600.0,0.0,0.0027618836611509,0.0029849128331989,0.0027419091202318,10.0,{}
attack_corridor_base_7,1,pos_yawl_spoof,33464,0.0010904371738433,0.0008602763991802,-0.0701954960823059,-35.3632621,149.1652374,-0.004,-0.01,0.02,0.0,-9.942254837369546e-05,9.444992610951886e-05,0.0,1000.0,1000.0,1000.0,1000.0,12600.0,0.0,0.0028007247019559,0.0027928112540394,0.0027432341594249,10.0,{}
attack_corridor_base_7,1,pos_yawl_spoof,33797,0.0011082147248089,0.0008724651997908,-0.0707662925124168,-35.3632621,149.1652374,-0.004,-0.01,0.02,0.0,-9.942253382178023e-05,9.444996248930693e-05,0.0,1000.0,1000.0,1000.0,1000.0,12600.0,0.0,0.0028962830547243,0.0027442690916359,0.0026944475248456,10.0,{}
attack_corridor_base_7,1,pos_yawl_spoof,34132,0.0011160868452861,0.0008776189642958,-0.0711867958307266,-35.3632621,149.1652374,-0.005,-0.02,0.02,0.0,-9.942253382178023e-05,9.444996248930693e-05,0.0,1000.0,1000.0,1000.0,1000.0,12600.0,0.0,0.0027936710976064,0.0028096050955355,0.0028703126590698,10.0,{}
attack_corridor_base_7,1,pos_yawl_spoof,34464,0.0011210087686777,0.0008908002637326,-0.0715904757380485,-35.3632621,149.1652374,-0.005,-0.02,0.02,0.0,-9.942246106220408e-05,9.444998431717976e-05,0.0,1000.0,1000.0,1000.0,1000.0,12600.0,0.0,0.0025879745371639,0.0027566631324589,0.0028686295263469,10.0,{}
attack_corridor_base_7,1,pos_yawl_spoof,34796,0.0011362126097083,0.0009087254875339,-0.072123497724533,-35.3632621,149.1652374,-0.005,-0.02,0.02,0.0,-9.942238830262796e-05,9.444997704122216e-05,0.0,1000.0,1000.0,1000.0,1000.0,12600.0,0.0,0.0025773246306926,0.0028875125572085,0.0031540777999907,10.0,{}
attack_corridor_base_7,1,pos_yawl_spoof,35129,0.0011471138568595,0.0009178468608297,-0.0725171789526939,-35.3632621,149.1652374,-0.005,-0.02,0.02,0.0,-9.942238830262796e-05,9.444997704122216e-05,0.0,1000.0,1000.0,1000.0,1000.0,12600.0,0.0,0.002907388145104,0.0029569983016699,0.0026412403676658,10.0,{}
attack_corridor_base_7,1,pos_yawl_spoof,35464,0.0011540162377059,0.0009299021912738,-0.0729155540466308,-35.3632621,149.1652374,-0.005,-0.02,0.02,0.0,-9.94223082670942e-05,9.444993338547648e-05,0.0,1000.0,1000.0,1000.0,1000.0,12600.0,0.0,0.0025789944920688,0.0030531552620232,0.0026208995841443,10.0,{}
attack_corridor_base_7,1,pos_yawl_spoof,35797,0.0011638061841949,0.0009306427673436,-0.0734363868832588,-35.3632621,149.1652374,-0.005,-0.02,0.02,0.0,-9.94223591987975e-05,9.444991883356124e-05,0.0,1000.0,1000.0,1000.0,1000.0,12600.0,0.0,0.0024661622010171,0.0030634929426014,0.0027677472680807,10.0,{}
attack_corridor_base_7,1,pos_yawl_spoof,36129,0.0011680179741233,0.0009393178625032,-0.0737560540437698,-35.3632621,149.1652374,-0.005,-0.02,0.02,0.0,-9.94223591987975e-05,9.444991883356124e-05,0.0,1000.0,1000.0,1000.0,1000.0,12600.0,0.0,0.0029136457014828,0.0027494132518768,0.0029041015077382,10.0,{}
attack_corridor_base_7,1,pos_yawl_spoof,36462,0.0011776038445532,0.0009513185359537,-0.0741267427802085,-35.3632621,149.1652374,-0.005,-0.02,0.02,0.0,-9.94223155430518e-05,9.44499479373917e-05,0.0,1000.0,1000.0,1000.0,1000.0,12600.0,0.0,0.0029645131435245,0.0027078234124928,0.0027882596477866,10.0,{}
attack_corridor_base_7,1,pos_yawl_spoof,36794,0.0011880727251991,0.0009733182378113,-0.0746354684233665,-35.3632621,149.1652374,-0.005,-0.02,0.02,0.0,-9.942230099113658e-05,9.44498970056884e-05,0.0,1000.0,1000.0,1000.0,1000.0,12600.0,0.0,0.0026694412808865,0.0028074905276298,0.0028575086034834,10.0,{}
attack_corridor_base_7,1,pos_yawl_spoof,37129,0.0011969545157626,0.0009863090235739,-0.0749888941645622,-35.3632621,149.1652374,-0.005,-0.02,0.02,0.0,-9.942230099113658e-05,9.44498970056884e-05,0.0,1000.0,1000.0,1000.0,1000.0,12600.0,0.0,0.0027257280889898,0.0028552117291837,0.002870513824746,10.0,{}
attack_corridor_base_7,1,pos_yawl_spoof,37461,0.0012073431862518,0.0009985191281884,-0.0753589048981666,-35.3632621,149.1652374,-0.005,-0.02,0.02,0.0,-9.942234464688228e-05,9.4449904281646e-05,0.0,1000.0,1000.0,1000.0,1000.0,12600.0,0.0,0.0029377175960689,0.0030683937948197,0.0024611381813883,10.0,{}
attack_corridor_base_7,1,pos_yawl_spoof,37794,0.0012134251883253,0.0010138152865692,-0.0758306011557579,-35.3632621,149.1652374,-0.005,-0.02,0.02,0.0,-9.942233009496704e-05,9.444988972973078e-05,0.0,1000.0,1000.0,1000.0,1000.0,12600.0,0.0,0.0028528759721666,0.0028381319716572,0.0027344331610947,10.0,{}
attack_corridor_base_7,1,pos_yawl_spoof,38127,0.0012179808691143,0.0010295864194631,-0.0761949196457862,-35.3632621,149.1652374,-0.006,-0.02,0.02,0.0,-9.942233009496704e-05,9.444988972973078e-05,0.0,1000.0,1000.0,1000.0,1000.0,12600.0,0.0,0.0029077026993036,0.0027615937869995,0.0024677431210875,10.0,{}
attack_corridor_base_7,1,pos_yawl_spoof,38459,0.0012305686250329,0.0010378103470429,-0.0765449851751327,-35.3632621,149.1652374,-0.006,-0.02,0.02,0.0,-9.942233009496704e-05,9.444986062590031e-05,0.0,1000.0,1000.0,1000.0,1000.0,12600.0,0.0,0.0029857642948627,0.0030662801582366,0.0031037209555506,10.0,{}
attack_corridor_base_7,1,pos_yawl_spoof,38794,0.0012419725535437,0.0010460541816428,-0.0770071670413017,-35.3632621,149.1652374,-0.006,-0.02,0.02,0.0,-9.942230099113658e-05,9.444986062590031e-05,0.0,1000.0,1000.0,1000.0,1000.0,12600.0,0.0,0.0026902153622359,0.0029099928215146,0.0026589224580675,10.0,{}
attack_corridor_base_7,1,pos_yawl_spoof,39126,0.0012474622344598,0.0010652929777279,-0.0773500576615333,-35.3632621,149.1652374,-0.006,-0.02,0.02,0.0,-9.942230099113658e-05,9.444986062590031e-05,0.0,1000.0,1000.0,1000.0,1000.0,12600.0,0.0,0.0031295102089643,0.0028085769154131,0.0028353196103125,10.0,{}
attack_corridor_base_7,1,pos_yawl_spoof,39459,0.0012502869358286,0.0010675634257495,-0.0776929408311843,-35.3632621,149.1652374,-0.006,-0.02,0.02,0.0,-9.942227916326374e-05,9.444988245377316e-05,0.0,1000.0,1000.0,1000.0,1000.0,12600.0,0.0,0.0025302895810455,0.002822600537911,0.002772218780592,10.0,{}
attack_corridor_base_7,1,pos_yawl_spoof,39791,0.0012557617155835,0.0010776335839182,-0.0781325846910476,-35.3632621,149.1652374,-0.006,-0.02,0.02,0.0,-9.942224278347568e-05,9.444988245377316e-05,0.0,1000.0,1000.0,1000.0,1000.0,12600.0,0.0,0.002895020879805,0.0027999645099043,0.002632500603795,10.0,{}
attack_corridor_base_7,1,pos_yawl_spoof,40124,0.0012638764455914,0.0010807191720232,-0.0784644559025764,-35.3632621,149.1652374,-0.006,-0.02,0.02,0.0,-9.942224278347568e-05,9.444988245377316e-05,0.0,1000.0,1000.0,1000.0,1000.0,12600.0,0.0,0.0026602398138493,0.0027126129716634,0.0027850284241139,10.0,{}
attack_corridor_base_7,1,pos_yawl_spoof,40457,0.0012726286659017,0.0010910596465691,-0.0787729769945144,-35.3632621,149.1652374,-0.006,-0.02,0.02,0.0,-9.942229371517897e-05,9.444994066143408e-05,0.0,1000.0,1000.0,1000.0,1000.0,12600.0,0.0,0.0027628985699266,0.0026109011378139,0.0030910652130842,10.0,{}
attack_corridor_base_7,1,pos_yawl_spoof,40792,0.0012814447982236,0.0010958159109577,-0.0791927129030227,-35.3632621,149.1652374,-0.006,-0.02,0.02,0.0,-9.94222573353909e-05,9.444992610951886e-05,0.0,1000.0,1000.0,1000.0,1000.0,12600.0,0.0,0.0027285944670438,0.0026558130048215,0.0026168425101786,10.0,{}
attack_corridor_base_7,1,pos_yawl_spoof,41124,0.0012899736175313,0.0011045751161873,-0.0794491544365882,-35.3632621,149.1652374,-0.006,-0.02,0.02,0.0,-9.94222573353909e-05,9.444992610951886e-05,0.0,1000.0,1000.0,1000.0,1000.0,12600.0,0.0,0.0029052828904241,0.0030527100898325,0.0029689576476812,10.0,{}
attack_corridor_base_7,1,pos_yawl_spoof,41456,0.0012951914686709,0.0011135505046695,-0.0797575786709785,-35.3632621,149.1652374,-0.006,-0.02,0.02,0.0,-9.942227916326374e-05,9.444992610951886e-05,0.0,1000.0,1000.0,1000.0,1000.0,12600.0,0.0,0.0027688529808074,0.00304566626437,0.0027916273102164,10.0,{}
attack_corridor_base_7,1,pos_yawl_spoof,41789,0.0013163598487153,0.0011380014475435,-0.0801655054092407,-35.3632621,149.1652374,-0.006,0.0,0.0,0.0,-9.942232281900942e-05,9.444991883356124e-05,0.0,1000.0,1000.0,1000.0,1000.0,12600.0,0.0,0.0028134970925748,0.0029184026643633,0.0028703247662633,10.0,{}
attack_corridor_base_7,1,pos_yawl_spoof,42122,0.0013921206118538,0.0012129418319091,-0.0804624184966087,-35.3632621,149.1652374,-0.006,0.0,0.0,0.0,-9.942232281900942e-05,9.444991883356124e-05,0.0,1000.0,1000.0,1000.0,1000.0,12600.0,0.0,0.0029243777971714,0.002683408325538,0.00271813175641,10.0,{}
attack_corridor_base_7,1,pos_yawl_spoof,42457,0.0014636131236329,0.0012837566900998,-0.0807730108499527,-35.3632621,149.1652374,-0.006,0.0,0.0,0.0,-9.942230099113658e-05,9.444993338547648e-05,0.0,1000.0,1000.0,1000.0,1000.0,12600.0,0.0,0.0028882259503006,0.0028609372675418,0.0025729949120432,10.0,{}
attack_corridor_base_7,1,pos_yawl_spoof,42789,0.0015431517967954,0.0013685687445104,-0.081172727048397,-35.3632621,149.1652374,-0.006,0.0,0.0,0.0,-9.942230099113658e-05,9.444991883356124e-05,0.0,1000.0,1000.0,1000.0,1000.0,12600.0,0.0,0.0026643769815564,0.0027788444422185,0.0025749797932803,10.0,{}
attack_corridor_base_7,1,pos_yawl_spoof,43121,0.001600818010047,0.0014236618299037,-0.0814833417534828,-35.3632621,149.1652374,-0.006,-0.01,0.01,0.0,-9.942230099113658e-05,9.444991883356124e-05,0.0,1000.0,1000.0,1000.0,1000.0,12600.0,0.0,0.0027954631950706,0.0029753542039543,0.0027731081936508,10.0,{}
attack_corridor_base_7,1,pos_yawl_spoof,43454,0.0016402065521106,0.0014543714933097,-0.0817915424704551,-35.3632621,149.1652374,-0.006,-0.01,0.01,0.0,-9.942233009496704e-05,9.44498970056884e-05,0.0,1000.0,1000.0,1000.0,1000.0,12600.0,0.0,0.0027352904435247,0.0029369755648076,0.0028583600651472,10.0,{}
attack_corridor_base_7,1,pos_yawl_spoof,43789,0.0016607349971309,0.0014744392829015,-0.0822005569934845,-35.3632621,149.1652374,-0.006,-0.01,0.01,0.0,-9.94223591987975e-05,9.444986062590031e-05,0.0,1000.0,1000.0,1000.0,1000.0,12600.0,0.0,0.0032159746624529,0.0030641842167824,0.0027033174410462,10.0,{}
attack_corridor_base_7,1,pos_yawl_spoof,44122,0.0016524909297004,0.0014713769778609,-0.0825074762105941,-35.3632621,149.1652374,-0.006,-0.01,0.01,0.0,-9.94223591987975e-05,9.444986062590031e-05,0.0,1000.0,1000.0,1000.0,1000.0,12600.0,0.0,0.0028224398847669,0.0030298104975372,0.0028602711390703,10.0,{}
attack_corridor_base_7,1,pos_yawl_spoof,44454,0.0016335733234882,0.0014493694761767,-0.0827986299991607,-35.3632621,149.1652375,-0.006,-0.01,0.02,0.0,-9.942238830262796e-05,9.4449904281646e-05,0.0,1000.0,1000.0,1000.0,1000.0,12600.0,0.0,0.002693856600672,0.0030421826522797,0.0027881963178515,10.0,{}
attack_corridor_base_7,1,pos_yawl_spoof,44787,0.0015851242933422,0.0014002617681398,-0.0831698179244995,-35.3632621,149.1652375,-0.006,-0.01,0.02,0.0,-9.942235192283988e-05,9.444988245377316e-05,0.0,1000.0,1000.0,1000.0,1000.0,12600.0,0.0,0.0029116591904312,0.0028196396306157,0.0027336720377206,10.0,{}
attack_corridor_base_7,1,pos_yawl_spoof,45224,0.0015094690024852,0.0013266741298139,-0.0836057066917419,-35.3632621,149.1652375,-0.006,-0.01,0.02,0.0,-9.942235192283988e-05,9.444988245377316e-05,0.0,1000.0,1000.0,1000.0,1000.0,12600.0,0.0,0.0028116218745708,0.0026526164729148,0.0028558971825987,10.0,{}
attack_corridor_base_7,1,pos_yawl_spoof,45474,0.001455649966374,0.0012779700336977,-0.0838008821010589,-35.3632622,149.1652375,-0.006,-0.01,0.02,0.0,-9.942233737092464e-05,9.444988245377316e-05,0.0,1000.0,1000.0,1000.0,1000.0,12600.0,0.0,0.0028116218745708,0.0026526164729148,0.0028558971825987,10.0,{}
attack_corridor_base_7,1,pos_yawl_spoof,45724,0.0014064986025914,0.0012280590599402,-0.0840288400650024,-35.3632622,149.1652375,-0.006,-0.01,0.02,0.0,-9.942233009496704e-05,9.4449904281646e-05,0.0,1000.0,1000.0,1000.0,1000.0,12600.0,0.0,0.0030397854279726,0.0025576539337635,0.0027057032566517,10.0,{}
attack_corridor_base_7,1,pos_yawl_spoof,45974,0.0013675885275006,0.0011853098403662,-0.0842080116271972,-35.3632622,149.1652375,-0.006,-0.01,0.02,0.0,-9.942234464688228e-05,9.444988972973078e-05,0.0,1000.0,1000.0,1000.0,1000.0,12600.0,0.0,0.0029979737009853,0.0028227150905877,0.0029878539498895,10.0,{}
attack_corridor_base_7,1,pos_yawl_spoof,46224,0.0013261011335998,0.0011383041273802,-0.084431380033493,-35.3632622,149.1652375,-0.006,-0.01,0.01,0.0,-9.94223155430518e-05,9.444988245377316e-05,0.0,1000.0,1000.0,1000.0,1000.0,12600.0,0.0,0.0029578784015029,0.0027583707123994,0.002546862931922,10.0,{}
attack_corridor_base_7,1,pos_yawl_spoof,46474,0.0012875847751274,0.0011002960382029,-0.0845669209957122,-35.3632622,149.1652375,-0.006,-0.01,0.01,0.0,-9.94223082670942e-05,9.444991883356124e-05,0.0,1000.0,1000.0,1000.0,1000.0,12600.0,0.0,0.002791839884594,0.0028056437149643,0.0026402024086564,10.0,{}
attack_corridor_base_7,1,pos_yawl_spoof,46724,0.0012499367585405,0.0010678087128326,-0.0847640857100486,-35.3632622,149.1652375,-0.006,-0.01,0.01,0.0,-9.942230099113658e-05,9.444991883356124e-05,0.0,1000.0,1000.0,1000.0,1000.0,12600.0,0.0,0.0026510930620133,0.0027331572491675,0.0026970591861754,10.0,{}
attack_corridor_base_7,1,pos_yawl_spoof,46974,0.0012202659854665,0.0010412629926577,-0.0849405005574226,-35.3632622,149.1652375,-0.006,-0.01,0.01,0.0,-9.942222095560282e-05,9.444988245377316e-05,0.0,1000.0,1000.0,1000.0,1000.0,12600.0,0.0,0.0029989853501319,0.0027279702480882,0.0024267816916108,10.0,{}
attack_corridor_base_7,1,pos_yawl_spoof,47224,0.0011892286129295,0.001016859896481,-0.0851393342018127,-35.3632621,149.1652375,-0.006,-0.01,0.01,0.0,-9.942224278347568e-05,9.444991883356124e-05,0.0,1000.0,1000.0,1000.0,1000.0,12600.0,0.0,0.0028099501505494,0.002839682623744,0.0027941814623773,10.0,{}
attack_corridor_base_7,1,pos_yawl_spoof,47474,0.0011606332845985,0.0009906878694891,-0.085305705666542,-35.3632621,149.1652375,-0.006,-0.01,0.01,0.0,-9.942219185177235e-05,9.444988972973078e-05,0.0,1000.0,1000.0,1000.0,1000.0,12600.0,0.0,0.0029139723628759,0.003050715662539,0.0029047818388789,10.0,{}
attack_corridor_base_7,1,pos_yawl_spoof,47724,0.0011379665229469,0.0009729251614771,-0.0854906737804412,-35.3632621,149.1652375,-0.006,-0.01,0.01,0.0,-9.94221554719843e-05,9.444986062590031e-05,0.0,1000.0,1000.0,1000.0,1000.0,12600.0,0.0,0.0027568710502237,0.002945584943518,0.0026933313347399,10.0,{}
attack_corridor_base_7,1,pos_yawl_spoof,47974,0.0011259408202022,0.0009597939206287,-0.0856532081961631,-35.3632621,149.1652375,-0.006,-0.01,0.01,0.0,-9.942214819602668e-05,9.444983879802749e-05,0.0,1000.0,1000.0,1000.0,1000.0,12600.0,0.0,0.0028327899053692,0.0026628950145095,0.0028131688013672,10.0,{}
attack_corridor_base_7,1,pos_yawl_spoof,48224,0.0011154741514474,0.0009466209448873,-0.0858334451913833,-35.3632621,149.1652375,-0.006,-0.01,0.01,0.0,-9.942213364411144e-05,9.444983879802749e-05,0.0,1000.0,1000.0,1000.0,1000.0,12600.0,0.0,0.0026986850425601,0.0028127732221037,0.0027631253469735,10.0,{}
attack_corridor_base_7,1,pos_yawl_spoof,48474,0.0011011961614713,0.0009312951588071,-0.0859935730695724,-35.3632621,149.1652375,-0.006,-0.01,0.01,0.0,-9.94221118162386e-05,9.444982424611226e-05,0.0,1000.0,1000.0,1000.0,1000.0,12600.0,0.0,0.0029389359988272,0.00301244109869,0.0026684240438044,10.0,{}
attack_corridor_base_7,1,pos_yawl_spoof,48724,0.0010890939738601,0.0009224390378221,-0.0861638560891151,-35.3632621,149.1652375,-0.006,-0.01,0.01,0.0,-9.94220536085777e-05,9.44497951422818e-05,0.0,1000.0,1000.0,1000.0,1000.0,12600.0,0.0,0.0030934594105929,0.0027348739095032,0.0026001457590609,10.0,{}
attack_corridor_base_7,1,pos_yawl_spoof,48974,0.0010864023352041,0.0009235548786818,-0.0863052234053611,-35.3632621,149.1652375,-0.006,-0.01,0.01,0.0,-9.94220536085777e-05,9.444976603845134e-05,0.0,1000.0,1000.0,1000.0,1000.0,12600.0,0.0,0.0028400977607816,0.0029698805883526,0.0027216686867177,10.0,{}
attack_corridor_base_7,1,pos_yawl_spoof,49224,0.0010851914994418,0.0009140979964286,-0.0864901468157768,-35.3632621,149.1652375,-0.006,-0.01,0.01,0.0,-9.94219954009168e-05,9.444975148653612e-05,0.0,1000.0,1000.0,1000.0,1000.0,12600.0,0.0,0.0024789299350231,0.0027532395906746,0.0025987992994487,10.0,{}
attack_corridor_base_7,1,pos_yawl_spoof,49474,0.0010834971908479,0.0009088540682569,-0.0866306722164154,-35.3632621,149.1652375,-0.006,-0.01,0.01,0.0,-9.94219954009168e-05,9.444975148653612e-05,0.0,1000.0,1000.0,1000.0,1000.0,12600.0,0.0,0.0026049274019896,0.0028017680160701,0.0026827715337276,10.0,{}
attack_corridor_base_7,1,pos_yawl_spoof,49724,0.0010780557058751,0.0009051202796399,-0.086798220872879,-35.3632621,149.1652375,-0.006,-0.01,0.01,0.0,-9.942193719325589e-05,9.44496932788752e-05,0.0,1000.0,1000.0,1000.0,1000.0,12600.0,0.0,0.0026575492229312,0.0027421975973993,0.0028382169548422,10.0,{}
attack_corridor_base_7,1,pos_yawl_spoof,49974,0.0010800075251609,0.0009120777831412,-0.0869426876306533,-35.3632621,149.1652375,-0.006,-0.01,0.01,0.0,-9.942198812495916e-05,9.44496932788752e-05,0.0,1000.0,1000.0,1000.0,1000.0,12600.0,0.0,0.0027840705588459,0.0026727181393653,0.0029317596927285,10.0,{}
attack_corridor_base_7,1,pos_yawl_spoof,50224,0.0010854299180209,0.0009188120020553,-0.0871180295944213,-35.3632621,149.1652375,-0.006,-0.01,0.01,0.0,-9.942198812495916e-05,9.444967872695996e-05,0.0,1000.0,1000.0,1000.0,1000.0,12600.0,0.0,0.0026985055301338,0.0025407746434211,0.0029737390577793,10.0,{}
attack_corridor_base_7,1,pos_yawl_spoof,50474,0.0010772491805255,0.0009094753186218,-0.0872557237744331,-35.3632621,149.1652375,-0.006,-0.01,0.01,0.0,-9.942198812495916e-05,9.444964962312952e-05,0.0,1000.0,1000.0,1000.0,1000.0,12600.0,0.0,0.0027814696077257,0.0027300945948809,0.0030039225239306,10.0,{}
attack_corridor_base_7,1,pos_yawl_spoof,50724,0.0010820955503731,0.0009105166536755,-0.0874176695942878,-35.3632621,149.1652375,-0.006,-0.01,0.01,0.0,-9.942196629708631e-05,9.4449584139511e-05,0.0,1000.0,1000.0,1000.0,1000.0,12600.0,0.0,0.0028887575026601,0.0030040093697607,0.0030171894468367,10.0,{}
attack_corridor_base_7,1,pos_yawl_spoof,50974,0.0010900428751483,0.0009134304127655,-0.0875502750277519,-35.3632621,149.1652375,-0.006,-0.01,0.01,0.0,-9.942192991729826e-05,9.44495914154686e-05,0.0,1000.0,1000.0,1000.0,1000.0,12600.0,0.0,0.0028638383373618,0.0028796184342354,0.0027851425111293,10.0,{}
attack_corridor_base_7,1,pos_yawl_spoof,51224,0.0010904661612585,0.0009183639194816,-0.0877168998122215,-35.3632621,149.1652375,-0.006,-0.01,0.01,0.0,-9.94218935375102e-05,9.444953320780768e-05,0.0,1000.0,1000.0,1000.0,1000.0,12600.0,0.0,0.0028555209282785,0.0026120005641132,0.0027917705010622,10.0,{}
attack_corridor_base_7,1,pos_yawl_spoof,51474,0.001086791162379,0.0009167922544293,-0.0878394022583961,-35.3632621,149.1652375,-0.006,-0.01,0.01,0.0,-9.942186443367972e-05,9.444950410397725e-05,0.0,1000.0,1000.0,1000.0,1000.0,12600.0,0.0,0.0028820079751312,0.003163194283843,0.0026215680409222,10.0,{}
attack_corridor_base_7,1,pos_yawl_spoof,51724,0.0010888300603255,0.0009131818078458,-0.0880019217729568,-35.3632621,149.1652375,-0.006,-0.01,0.01,0.0,-9.942192264134064e-05,9.444952593185008e-05,0.0,1000.0,1000.0,1000.0,1000.0,12600.0,0.0,0.0030243278015404,0.0031365267932415,0.0027848135214298,10.0,{}
attack_corridor_base_7,1,pos_yawl_spoof,51974,0.0010976589983329,0.0009117064182646,-0.0881261005997657,-35.3632621,149.1652375,-0.006,-0.01,0.01,0.0,-9.942192264134064e-05,9.444950410397725e-05,0.0,1000.0,1000.0,1000.0,1000.0,12600.0,0.0,0.0027694215532392,0.0027035516686737,0.002779429545626,10.0,{}
attack_corridor_base_7,1,pos_yawl_spoof,52224,0.0011064044665545,0.0009128958918154,-0.0882834121584892,-35.3632621,149.1652375,-0.006,-0.01,0.01,0.0,-9.942187170963734e-05,9.444945317227392e-05,0.0,1000.0,1000.0,1000.0,1000.0,12600.0,0.0,0.0028149823192507,0.0025744347367435,0.0028533039148896,10.0,{}
attack_corridor_base_7,1,pos_yawl_spoof,52474,0.0011053326306864,0.0009049677173607,-0.0883849710226059,-35.3632621,149.1652375,-0.006,-0.01,0.01,0.0,-9.94218498817645e-05,9.444945317227392e-05,0.0,1000.0,1000.0,1000.0,1000.0,12600.0,0.0,0.0028391436208039,0.0027559993322938,0.0028773301746696,10.0,{}
attack_corridor_base_7,1,pos_yawl_spoof,52724,0.0011080267140641,0.0009140280890278,-0.0885301455855369,-35.3632621,149.1652375,-0.006,-0.01,0.01,0.0,-9.942183532984929e-05,9.444943134440108e-05,0.0,1000.0,1000.0,1000.0,1000.0,12600.0,0.0,0.0026836921460926,0.003025755751878,0.0029079290106892,10.0,{}
attack_corridor_base_7,1,pos_yawl_spoof,52974,0.0011099895928055,0.0009169655968435,-0.088649146258831,-35.3632621,149.1652375,-0.006,-0.01,0.01,0.0,-9.94218498817645e-05,9.444943134440108e-05,0.0,1000.0,1000.0,1000.0,1000.0,12600.0,0.0,0.0029707269277423,0.0030304396059364,0.0029242699965834,10.0,{}
attack_corridor_base_7,1,pos_yawl_spoof,53224,0.0011166475014761,0.0009219293715432,-0.0888044834136962,-35.3632621,149.1652375,-0.006,-0.01,0.01,0.0,-9.942186443367972e-05,9.444942406844348e-05,0.0,1000.0,1000.0,1000.0,1000.0,12600.0,0.0,0.0030997397843748,0.0028124742675572,0.0027801014948636,10.0,{}
attack_corridor_base_7,1,pos_yawl_spoof,53474,0.001119623077102,0.0009216744219884,-0.0889269113540649,-35.3632621,149.1652375,-0.006,-0.01,0.01,0.0,-9.942183532984929e-05,9.444944589631632e-05,0.0,1000.0,1000.0,1000.0,1000.0,12600.0,0.0,0.0029339597094804,0.0029801412019878,0.002632382325828,10.0,{}
attack_corridor_base_7,1,pos_yawl_spoof,53724,0.001125602517277,0.0009289858280681,-0.0890682488679885,-35.3632621,149.1652375,-0.006,-0.01,0.01,0.0,-9.942182805389166e-05,9.444940951652824e-05,0.0,1000.0,1000.0,1000.0,1000.0,12600.0,0.0,0.0028014029376208,0.002754041692242,0.0031522901263087,10.0,{}
attack_corridor_base_7,1,pos_yawl_spoof,53974,0.0011331639252603,0.0009326403378508,-0.0891880542039871,-35.3632621,149.1652375,-0.006,-0.01,0.01,0.0,-9.942181350197644e-05,9.444942406844348e-05,0.0,1000.0,1000.0,1000.0,1000.0,12600.0,0.0,0.0026925434358417,0.0027740271762013,0.0031037279404699,10.0,{}
attack_corridor_base_7,1,pos_yawl_spoof,54224,0.0011345285456627,0.000941201171372,-0.0893345400691032,-35.3632621,149.1652375,-0.006,-0.01,0.01,0.0,-9.942177712218836e-05,9.444939496461302e-05,0.0,1000.0,1000.0,1000.0,1000.0,12600.0,0.0,0.0028241979889571,0.0029111707117408,0.0025553458835929,10.0,{}
attack_corridor_base_7,1,pos_yawl_spoof,54474,0.0011373561574146,0.0009436423424631,-0.0894433110952377,-35.3632621,149.1652375,-0.006,-0.01,0.01,0.0,-9.942175529431552e-05,9.44493804126978e-05,0.0,1000.0,1000.0,1000.0,1000.0,12600.0,0.0,0.0026778548490256,0.0028503984212875,0.0027312117163091,10.0,{}
attack_corridor_base_7,1,pos_yawl_spoof,54724,0.0011455245548859,0.0009449587087146,-0.0895839855074882,-35.3632621,149.1652375,-0.006,-0.01,0.01,0.0,-9.942174074240028e-05,9.444935858482496e-05,0.0,1000.0,1000.0,1000.0,1000.0,12600.0,0.0,0.0029419839847832,0.0030412408523261,0.002793937921524,10.0,{}
attack_corridor_base_7,1,pos_yawl_spoof,54974,0.0011452719336375,0.0009506294736638,-0.0896931067109108,-35.3632621,149.1652375,-0.006,-0.01,0.01,0.0,-9.942174074240028e-05,9.444933675695212e-05,0.0,1000.0,1000.0,1000.0,1000.0,12600.0,0.0,0.002832283033058,0.0026488127186894,0.0025990614667534,10.0,{}
attack_corridor_base_7,1,pos_yawl_spoof,55224,0.0011460229288786,0.0009561096085235,-0.0898326933383941,-35.3632621,149.1652375,-0.006,-0.01,0.01,0.0,-9.942173346644267e-05,9.44492858252488e-05,0.0,1000.0,1000.0,1000.0,1000.0,12600.0,0.0,0.0026187768671661,0.0024631870910525,0.0027045749593526,10.0,{}
attack_corridor_base_7,1,pos_yawl_spoof,55474,0.0011453091865405,0.0009510595700703,-0.0899460315704345,-35.3632621,149.1652375,-0.006,-0.01,0.01,0.0,-9.942171891452745e-05,9.444929310120642e-05,0.0,1000.0,1000.0,1000.0,1000.0,12600.0,0.0,0.0026943353004753,0.0026018584612756,0.0026763509958982,10.0,{}
attack_corridor_base_7,1,pos_yawl_spoof,55724,0.0011449336307123,0.0009499530424363,-0.0900826156139373,-35.3632621,149.1652375,-0.006,-0.01,0.01,0.0,-9.942166798282416e-05,9.444926399737597e-05,0.0,1000.0,1000.0,1000.0,1000.0,12600.0,0.0,0.0029695909470319,0.0028571425937116,0.0027578042354434,10.0,{}
attack_corridor_base_7,1,pos_yawl_spoof,55974,0.0011487558949738,0.0009527814108878,-0.0901866480708122,-35.3632621,149.1652375,-0.006,-0.01,0.01,0.0,-9.942168253473938e-05,9.444925672141836e-05,0.0,1000.0,1000.0,1000.0,1000.0,12600.0,0.0,0.0027303199749439,0.0027655737940222,0.0028614934999495,10.0,{}
attack_corridor_base_7,1,pos_yawl_spoof,56224,0.0011520000407472,0.0009534391574561,-0.0903302431106567,-35.3632621,149.1652375,-0.006,-0.01,0.01,0.0,-9.94216970866546e-05,9.444927127333358e-05,0.0,1000.0,1000.0,1000.0,1000.0,12600.0,0.0,0.0026245340704917,0.0028642157558351,0.0029501775279641,10.0,{}
attack_corridor_base_7,1,pos_yawl_spoof,56474,0.0011498294770717,0.0009580883197486,-0.0904314443469047,-35.3632621,149.1652375,-0.006,-0.01,0.01,0.0,-9.942168253473938e-05,9.444924216950312e-05,0.0,1000.0,1000.0,1000.0,1000.0,12600.0,0.0,0.0027888445183634,0.0025060204789042,0.0030134168919175,10.0,{}
attack_corridor_base_7,1,pos_yawl_spoof,56724,0.0011425163829699,0.0009574954747222,-0.0905509069561958,-35.3632621,149.1652375,-0.006,-0.01,0.01,0.0,-9.942174074240028e-05,9.44492858252488e-05,0.0,1000.0,1000.0,1000.0,1000.0,12600.0,0.0,0.0026962978299707,0.0024393522180616,0.0028275384102016,10.0,{}
attack_corridor_base_7,1,pos_yawl_spoof,56974,0.0011384717654436,0.0009606729145161,-0.0906417891383171,-35.3632621,149.1652375,-0.006,-0.01,0.01,0.0,-9.94217916741036e-05,9.444930765312164e-05,0.0,1000.0,1000.0,1000.0,1000.0,12600.0,0.0,0.0027490362990647,0.0029784864746034,0.0027823236305266,10.0,{}
attack_corridor_base_7,1,pos_yawl_spoof,57224,0.0011426105629652,0.0009588309912942,-0.090770848095417,-35.3632621,149.1652375,-0.006,-0.01,0.01,0.0,-9.94217916741036e-05,9.444931492907926e-05,0.0,1000.0,1000.0,1000.0,1000.0,12600.0,0.0,0.0028295966330915,0.0028100323397666,0.0024811897892504,10.0,{}
attack_corridor_base_7,1,pos_yawl_spoof,57474,0.0011421618983149,0.000959274941124,-0.0908804461359977,-35.3632621,149.1652375,-0.006,-0.01,0.01,0.0,-9.942182077793404e-05,9.444934403290972e-05,0.0,1000.0,1000.0,1000.0,1000.0,12600.0,0.0,0.0029097641818225,0.0029478571377694,0.002663783961907,10.0,{}
attack_corridor_base_7,1,pos_yawl_spoof,57724,0.0011424436233937,0.0009605810628272,-0.0909984186291694,-35.3632621,149.1652375,-0.006,-0.01,0.01,0.0,-9.942181350197644e-05,9.444935858482496e-05,0.0,1000.0,1000.0,1000.0,1000.0,12600.0,0.0,0.0027735664043575,0.0024159650783985,0.002939339261502,10.0,{}
attack_corridor_base_7,1,pos_yawl_spoof,57974,0.0011504992144182,0.0009599888580851,-0.0910971909761428,-35.3632621,149.1652375,-0.006,-0.01,0.01,0.0,-9.942183532984929e-05,9.444940224057063e-05,0.0,1000.0,1000.0,1000.0,1000.0,12600.0,0.0,0.0022667599841952,0.0028494505677372,0.0025230802129954,10.0,{}
attack_corridor_base_7,1,pos_yawl_spoof,58224,0.0011559727136045,0.0009683596435934,-0.0912229046225547,-35.3632621,149.1652375,-0.006,-0.01,0.01,0.0,-9.942182805389166e-05,9.444936586078256e-05,0.0,1000.0,1000.0,1000.0,1000.0,12600.0,0.0,0.0026433761231601,0.0024415252264589,0.0027877683751285,10.0,{}
attack_corridor_base_7,1,pos_yawl_spoof,58474,0.0011530470801517,0.0009679587674327,-0.0913216099143028,-35.3632621,149.1652375,-0.006,-0.01,0.01,0.0,-9.942186443367972e-05,9.444940951652824e-05,0.0,1000.0,1000.0,1000.0,1000.0,12600.0,0.0,0.0028189029544591,0.0030376403592526,0.0029258620925247,10.0,{}
attack_corridor_base_7,1,pos_yawl_spoof,58724,0.0011524294968694,0.000968286243733,-0.0914407670497894,-35.3632621,149.1652375,-0.006,-0.01,0.01,0.0,-9.942191536538304e-05,9.44494386203587e-05,0.0,1000.0,1000.0,1000.0,1000.0,12600.0,0.0,0.00309862755239,0.0027896508108824,0.0026822532527148,10.0,{}
attack_corridor_base_7,1,pos_yawl_spoof,58974,0.0011551646748557,0.0009709138539619,-0.0915412679314613,-35.3632621,149.1652375,-0.006,-0.01,0.01,0.0,-9.942194446921349e-05,9.444945317227392e-05,0.0,1000.0,1000.0,1000.0,1000.0,12600.0,0.0,0.0030406597070395,0.0028857544530183,0.0028602075763046,10.0,{}
attack_corridor_base_7,1,pos_yawl_spoof,59224,0.0011588046327233,0.0009762192494235,-0.0916573926806449,-35.3632621,149.1652375,-0.006,-0.01,0.01,0.0,-9.942193719325589e-05,9.444941679248586e-05,0.0,1000.0,1000.0,1000.0,1000.0,12600.0,0.0,0.0030027739703655,0.0029933219775557,0.0028111285064369,10.0,{}
attack_corridor_base_7,1,pos_yawl_spoof,59474,0.0011593208182603,0.000976244569756,-0.0917474180459976,-35.3632621,149.1652375,-0.006,-0.01,0.01,0.0,-9.942193719325589e-05,9.444937313674018e-05,0.0,1000.0,1000.0,1000.0,1000.0,12600.0,0.0,0.0029863074887543,0.0027554838452488,0.002790591912344,10.0,{}
attack_corridor_base_7,1,pos_yawl_spoof,59724,0.0011521129636093,0.0009715785272419,-0.0918653085827827,-35.3632621,149.1652375,-0.006,-0.01,0.01,0.0,-9.942197357304394e-05,9.444937313674018e-05,0.0,1000.0,1000.0,1000.0,1000.0,12600.0,0.0,0.0027109258808195,0.002932502888143,0.0029619119595736,10.0,{}
attack_corridor_base_7,1,pos_yawl_spoof,59974,0.0011484021088108,0.000975402246695,-0.0919555127620697,-35.3632622,149.1652375,-0.006,-0.01,0.01,0.0,-9.94219954009168e-05,9.444939496461302e-05,0.0,1000.0,1000.0,1000.0,1000.0,12600.0,0.0,0.0030074822716414,0.0024832193739712,0.0030731949955224,10.0,{}
attack_corridor_base_7,1,pos_yawl_spoof,60224,0.0011575000826269,0.0009738944936543,-0.0920660272240638,-35.3632622,149.1652375,-0.006,-0.01,0.01,0.0,-9.942201722878964e-05,9.444936586078256e-05,0.0,1000.0,1000.0,1000.0,1000.0,12600.0,0.0,0.0027361342217773,0.0029377567116171,0.0028323249425739,10.0,{}
attack_corridor_base_7,1,pos_yawl_spoof,60474,0.0011525851441547,0.0009691336890682,-0.0921565592288971,-35.3632621,149.1652375,-0.006,-0.01,0.01,0.0,-9.9422009952832e-05,9.444935130886734e-05,0.0,1000.0,1000.0,1000.0,1000.0,12600.0,0.0,0.0027554163243621,0.0028061540797352,0.0026374070439487,10.0,{}
attack_corridor_base_7,1,pos_yawl_spoof,60724,0.0011527154128998,0.0009617574978619,-0.0922679230570793,-35.3632621,149.1652375,-0.006,-0.01,0.01,0.0,-9.942203178070486e-05,9.444934403290972e-05,0.0,1000.0,1000.0,1000.0,1000.0,12600.0,0.0,0.002729563973844,0.0029358169995248,0.0026090187020599,10.0,{}
attack_corridor_base_7,1,pos_yawl_spoof,60974,0.0011545392917469,0.000955166935455,-0.0923587307333946,-35.3632622,149.1652375,-0.006,-0.01,0.01,0.0,-9.942204633262008e-05,9.444937313674018e-05,0.0,1000.0,1000.0,1000.0,1000.0,12600.0,0.0,0.0029459972865879,0.0028706439770758,0.0028141834773123,10.0,{}
attack_corridor_base_7,1,pos_yawl_spoof,61224,0.0011574497912079,0.000958853343036,-0.0924651846289634,-35.3632622,149.1652375,-0.006,-0.01,0.01,0.0,-9.942204633262008e-05,9.444937313674018e-05,0.0,1000.0,1000.0,1000.0,1000.0,12600.0,0.0,0.002666683634743,0.0028684649150818,0.0026233973912894,10.0,{}
attack_corridor_base_7,1,pos_yawl_spoof,61474,0.0011572511866688,0.0009563305648043,-0.0925489664077758,-35.3632622,149.1652375,-0.006,-0.01,0.01,0.0,-9.94220536085777e-05,9.44493876886554e-05,0.0,1000.0,1000.0,1000.0,1000.0,12600.0,0.0,0.0029832096770405,0.0028127322439104,0.0031894810963422,10.0,{}
attack_corridor_base_7,1,pos_yawl_spoof,61724,0.0011552907526493,0.0009532826370559,-0.0926384478807449,-35.3632622,149.1652375,-0.006,-0.01,0.01,0.0,-9.942207543645054e-05,9.444939496461302e-05,0.0,1000.0,1000.0,1000.0,1000.0,12600.0,0.0,0.0030496988911181,0.0031926371157169,0.0026802266947925,10.0,{}
attack_corridor_base_7,1,pos_yawl_spoof,61974,0.0011604434112086,0.0009559898171573,-0.0927183181047439,-35.3632622,149.1652375,-0.006,-0.01,0.01,0.0,-9.942209726432338e-05,9.444941679248586e-05,0.0,1000.0,1000.0,1000.0,1000.0,12600.0,0.0,0.0025833137333393,0.0028384514153003,0.0030637208838015,10.0,{}
attack_corridor_base_7,1,pos_yawl_spoof,62224,0.001164658460766,0.0009563456405885,-0.0928185433149337,-35.3632622,149.1652375,-0.006,-0.01,0.01,0.0,-9.9422104540281e-05,9.444943134440108e-05,0.0,1000.0,1000.0,1000.0,1000.0,12600.0,0.0,0.0029677238781005,0.0030949821230024,0.0027663719374686,10.0,{}
attack_corridor_base_7,1,pos_yawl_spoof,62474,0.0011585736647248,0.0009547632653266,-0.0929024443030357,-35.3632622,149.1652375,-0.006,-0.01,0.01,0.0,-9.942213364411144e-05,9.44494822761044e-05,0.0,1000.0,1000.0,1000.0,1000.0,12600.0,0.0,0.0029212641529738,0.0029617890249937,0.0028588185086846,10.0,{}
attack_corridor_base_7,1,pos_yawl_spoof,62724,0.0011567288311198,0.0009583685896359,-0.0929995477199554,-35.3632622,149.1652375,-0.006,-0.01,0.01,0.0,-9.942214092006908e-05,9.4449489552062e-05,0.0,1000.0,1000.0,1000.0,1000.0,12600.0,0.0,0.0024153364356607,0.0029141439590603,0.0025135958567261,10.0,{}
attack_corridor_base_7,1,pos_yawl_spoof,62974,0.0011623956961557,0.0009690204751677,-0.0930890291929245,-35.3632622,149.1652375,-0.006,-0.01,0.01,0.0,-9.94221118162386e-05,9.444945317227392e-05,0.0,1000.0,1000.0,1000.0,1000.0,12600.0,0.0,0.0028533041477203,0.0028065040241926,0.0026127016171813,10.0,{}
attack_corridor_base_7,1,pos_yawl_spoof,63224,0.0011638193391263,0.0009718318469822,-0.0931875184178352,-35.3632622,149.1652375,-0.006,-0.01,0.01,0.0,-9.942208271240816e-05,9.44493876886554e-05,0.0,1000.0,1000.0,1000.0,1000.0,12600.0,0.0,0.0027997789438813,0.0026512648910284,0.0027238340117037,10.0,{}
attack_corridor_base_7,1,pos_yawl_spoof,63474,0.0011605939362198,0.0009691385785117,-0.0932730957865715,-35.3632621,149.1652375,-0.006,-0.01,0.01,0.0,-9.94221118162386e-05,9.444942406844348e-05,0.0,1000.0,1000.0,1000.0,1000.0,12600.0,0.0,0.0026953320484608,0.003032098757103,0.0025981361977756,10.0,{}
attack_corridor_base_7,1,pos_yawl_spoof,63724,0.0011556046083569,0.0009688264108262,-0.0933641716837883,-35.3632621,149.1652375,-0.006,-0.01,0.01,0.0,-9.942208271240816e-05,9.444939496461302e-05,0.0,1000.0,1000.0,1000.0,1000.0,12600.0,0.0,0.0029428796842694,0.0026821633800864,0.0026973742060363,10.0,{}
attack_corridor_base_7,1,pos_yawl_spoof,63974,0.0011619047727435,0.0009670100407674,-0.0934405922889709,-35.3632622,149.1652375,-0.006,-0.01,0.01,0.0,-9.942208998836576e-05,9.444940951652824e-05,0.0,1000.0,1000.0,1000.0,1000.0,12600.0,0.0,0.0028746703173965,0.0029154771473258,0.0028553060255944,10.0,{}
attack_corridor_base_7,1,pos_yawl_spoof,64224,0.0011668251827359,0.0009680336224846,-0.0935324355959892,-35.3632622,149.1652375,-0.006,-0.01,0.01,0.0,-9.942213364411144e-05,9.444944589631632e-05,0.0,1000.0,1000.0,1000.0,1000.0,12600.0,0.0,0.0027003160212188,0.002778893103823,0.0029127211309969,10.0,{}
attack_corridor_base_7,1,pos_yawl_spoof,64474,0.0011689107632264,0.0009642294025979,-0.0936099588871002,-35.3632621,149.1652375,-0.006,-0.01,0.01,0.0,-9.942217002389953e-05,9.444945317227392e-05,0.0,1000.0,1000.0,1000.0,1000.0,12600.0,0.0,0.0025577582418918,0.0028511637356132,0.0026038964278995,10.0,{}
attack_corridor_base_7,1,pos_yawl_spoof,64724,0.0011694642016664,0.0009574581054039,-0.0937033891677856,-35.3632621,149.1652375,-0.006,-0.01,0.01,0.0,-9.942222095560282e-05,9.44494822761044e-05,0.0,1000.0,1000.0,1000.0,1000.0,12600.0,0.0,0.0026671995874494,0.0028013905975967,0.002726464997977,10.0,{}
attack_corridor_base_7,1,pos_yawl_spoof,64974,0.0011685382341966,0.0009578836616128,-0.0937785357236862,-35.3632622,149.1652375,-0.006,-0.01,0.01,0.0,-9.942217729985714e-05,9.444946044823156e-05,0.0,1000.0,1000.0,1000.0,1000.0,12600.0,0.0,0.0029304677154868,0.0026707812212407,0.0028087003156542,10.0,{}
attack_corridor_base_7,1,pos_yawl_spoof,65224,0.0011683222837746,0.0009600557968951,-0.0938728600740432,-35.3632622,149.1652375,-0.006,-0.01,0.01,0.0,-9.942219185177235e-05,9.444945317227392e-05,0.0,1000.0,1000.0,1000.0,1000.0,12600.0,0.0,0.0028833101969212,0.0027567772194743,0.0026247831992805,10.0,{}
attack_corridor_base_7,1,pos_yawl_spoof,65474,0.0011617442360147,0.00095903838519,-0.093941830098629,-35.3632621,149.1652375,-0.006,-0.01,0.01,0.0,-9.942219185177235e-05,9.44494822761044e-05,0.0,1000.0,1000.0,1000.0,1000.0,12600.0,0.0,0.0025392540264874,0.0027370725292712,0.0027856759261339,10.0,{}
attack_corridor_base_7,1,pos_yawl_spoof,65724,0.0011627593776211,0.0009600924677215,-0.0940428599715232,-35.3632621,149.1652375,-0.006,-0.01,0.01,0.0,-9.942219185177235e-05,9.444951137993483e-05,0.0,1000.0,1000.0,1000.0,1000.0,12600.0,0.0,0.0025544769596308,0.0031056944280862,0.0027133924886584,10.0,{}
attack_corridor_base_7,1,pos_yawl_spoof,65974,0.0011659844312816,0.000963351514656,-0.0941098183393478,-35.3632622,149.1652375,-0.006,-0.01,0.01,0.0,-9.942219912772998e-05,9.444950410397725e-05,0.0,1000.0,1000.0,1000.0,1000.0,12600.0,0.0,0.0028830769006162,0.0030227953102439,0.0027904915623366,10.0,{}
attack_corridor_base_7,1,pos_yawl_spoof,66224,0.0011721374467015,0.0009641231736168,-0.0942007675766944,-35.3632622,149.1652375,-0.006,-0.01,0.01,0.0,-9.942219185177235e-05,9.444950410397725e-05,0.0,1000.0,1000.0,1000.0,1000.0,12600.0,0.0,0.002741556148976,0.0028711892664432,0.0024634026922285,10.0,{}
attack_corridor_base_7,1,pos_yawl_spoof,66474,0.0011694292770698,0.0009655811008997,-0.0942688509821891,-35.3632621,149.1652375,-0.006,-0.01,0.01,0.0,-9.942222095560282e-05,9.444950410397725e-05,0.0,1000.0,1000.0,1000.0,1000.0,12600.0,0.0,0.0028669391758739,0.0029621438588947,0.0027746295090764,10.0,{}
attack_corridor_base_7,1,pos_yawl_spoof,66724,0.001169572235085,0.0009669628343544,-0.0943573489785194,-35.3632621,149.1652375,-0.006,-0.01,0.01,0.0,-9.942219185177235e-05,9.4449489552062e-05,0.0,1000.0,1000.0,1000.0,1000.0,12600.0,0.0,0.002760512754321,0.0030421440023928,0.0026626591570675,10.0,{}
attack_corridor_base_7,1,pos_yawl_spoof,66974,0.0011728630634024,0.0009761679102666,-0.0944189950823783,-35.3632622,149.1652375,-0.006,-0.01,0.01,0.0,-9.942213364411144e-05,9.4449489552062e-05,0.0,1000.0,1000.0,1000.0,1000.0,12600.0,0.0,0.0028150207363069,0.0027836931403726,0.0028073573485016,10.0,{}
attack_corridor_base_7,1,pos_yawl_spoof,67224,0.001175892772153,0.0009773265337571,-0.0944837033748626,-35.3632622,149.1652375,-0.006,-0.01,0.01,0.0,-9.942213364411144e-05,9.4449489552062e-05,0.0,1000.0,1000.0,1000.0,1000.0,12600.0,0.0,0.0029805183876305,0.0026166795287281,0.0026116468943655,10.0,{}
attack_corridor_base_7,1,pos_yawl_spoof,67474,0.0011690310202538,0.0009746806463226,-0.0945419818162918,-35.3632621,149.1652375,-0.006,-0.01,0.01,0.0,-9.942217729985714e-05,9.4449489552062e-05,0.0,1000.0,1000.0,1000.0,1000.0,12600.0,0.0,0.0028604250401258,0.00288673536852,0.0031121191568672,10.0,{}
attack_corridor_base_7,1,pos_yawl_spoof,67724,0.0011754801962524,0.0009788760216906,-0.0946271494030952,-35.3632622,149.1652375,-0.006,-0.01,0.01,0.0,-9.942219912772998e-05,9.444950410397725e-05,0.0,1000.0,1000.0,1000.0,1000.0,12600.0,0.0,0.0026619445998221,0.0029478673823177,0.0027288745623081,10.0,{}
attack_corridor_base_7,1,pos_yawl_spoof,67974,0.0011762719368562,0.0009829773334786,-0.0946949124336242,-35.3632622,149.1652375,-0.006,-0.01,0.01,0.0,-9.942216274794192e-05,9.4449489552062e-05,0.0,1000.0,1000.0,1000.0,1000.0,12600.0,0.0,0.002962484024465,0.002827112795785,0.0029919689986854,10.0,{}
attack_corridor_base_7,1,pos_yawl_spoof,68224,0.0011839785147458,0.0009916715789586,-0.0947720929980278,-35.3632622,149.1652375,-0.006,-0.01,0.01,0.0,-9.942214819602668e-05,9.444947500014678e-05,0.0,1000.0,1000.0,1000.0,1000.0,12600.0,0.0,0.0029136519879102,0.002737513044849,0.0025831402745097,10.0,{}
attack_corridor_base_7,1,pos_yawl_spoof,68474,0.0011831448646262,0.0009878857526928,-0.0948421880602836,-35.3632622,149.1652375,-0.006,-0.01,0.01,0.0,-9.942217002389953e-05,9.444946772418916e-05,0.0,1000.0,1000.0,1000.0,1000.0,12600.0,0.0,0.0029177668038755,0.0029473407194018,0.0027775776106864,10.0,{}
attack_corridor_base_7,1,pos_yawl_spoof,68724,0.0011855195043608,0.0009879986755549,-0.094916820526123,-35.3632622,149.1652375,-0.006,-0.01,0.01,0.0,-9.942213364411144e-05,9.444940951652824e-05,0.0,1000.0,1000.0,1000.0,1000.0,12600.0,0.0,0.0027447363827377,0.0026353790890425,0.0028583840467035,10.0,{}
attack_corridor_base_7,1,pos_yawl_spoof,68974,0.0011982879368588,0.0009939681040123,-0.0949757844209671,-35.3632622,149.1652375,-0.006,-0.01,0.01,0.0,-9.94221554719843e-05,9.444941679248586e-05,0.0,1000.0,1000.0,1000.0,1000.0,12600.0,0.0,0.0029098340310156,0.0027269260026514,0.0027481392025947,10.0,{}
attack_corridor_base_7,1,pos_yawl_spoof,69224,0.0011997079709544,0.0009945047786459,-0.0950644165277481,-35.3632622,149.1652375,-0.006,-0.01,0.01,0.0,-9.942219185177235e-05,9.44494386203587e-05,0.0,1000.0,1000.0,1000.0,1000.0,12600.0,0.0,0.0028999592177569,0.0026372848078608,0.0025587677955627,10.0,{}
attack_corridor_base_7,1,pos_yawl_spoof,69474,0.001198103534989,0.0009872787632048,-0.0951205193996429,-35.3632622,149.1652375,-0.006,-0.01,0.01,0.0,-9.942222095560282e-05,9.444944589631632e-05,0.0,1000.0,1000.0,1000.0,1000.0,12600.0,0.0,0.0026446974370628,0.0028959107585251,0.0028771157376468,10.0,{}
attack_corridor_base_7,1,pos_yawl_spoof,69724,0.0011934813810512,0.0009887942578643,-0.0951992124319076,-35.3632622,149.1652375,-0.006,-0.01,0.01,0.0,-9.942219185177235e-05,9.444943134440108e-05,0.0,1000.0,1000.0,1000.0,1000.0,12600.0,0.0,0.0028539525810629,0.0029146613087505,0.0028460067696869,10.0,{}
