flight_id,label,attack_type,timestamp,att_roll,att_pitch,att_yaw,pos_lat,pos_lon,pos_alt_rel,pos_vx,pos_vy,pos_vz,nav_roll,nav_pitch,nav_alt_error,servo1_raw,servo2_raw,servo3_raw,servo4_raw,sys_voltage_battery,sys_load,vib_x,vib_y,vib_z,gps_sats_visible,attack_params_json
attack_corridor_base_8,1,pos_yawl_spoof,10236,0.000194949665456,-3.882805685861968e-05,-0.3386886715888977,-35.3632621,149.1652374,0.0,0.0,0.0,-0.03,-9.942173346644267e-05,9.444946044823156e-05,0.0,1000,1000,1000,1000,12600,0,0.0028659394010901,0.0030850854236632,0.0028728963807225,3,{}
attack_corridor_base_8,1,pos_yawl_spoof,10569,0.0001993595069507,-2.808626959449612e-05,-0.3074460625648498,-35.3632621,149.1652374,0.0,0.0,0.0,-0.03,-9.942168253473938e-05,9.444936586078256e-05,0.0,1000,1000,1000,1000,12600,0,0.0025773041415959,0.0026128599420189,0.0031461273320019,10,{}
attack_corridor_base_8,1,pos_yawl_spoof,10902,0.0002007017174037,-1.8191032722825184e-05,-0.2701600193977356,-35.3632621,149.1652374,0.0,0.0,0.0,-0.03,-9.942165343090892e-05,9.444937313674018e-05,0.0,1000,1000,1000,1000,12600,0,0.002548711374402,0.0024832792114466,0.002565276576206,10,{}
attack_corridor_base_8,1,pos_yawl_spoof,11234,0.0002068861358566,-9.607862011762336e-06,-0.2450398206710815,-35.3632621,149.1652374,0.0,0.0,0.0,-0.03,-9.942165343090892e-05,9.444937313674018e-05,0.0,1000,1000,1000,1000,12600,0,0.0027697412297129,0.0026218215934932,0.0031068664975464,10,{}
attack_corridor_base_8,1,pos_yawl_spoof,11567,0.0002105789171764,1.816594163983609e-07,-0.2219221889972686,-35.3632621,149.1652374,0.0,0.0,0.0,-0.03,-9.9421595223248e-05,9.44493804126978e-05,0.0,1000,1000,1000,1000,12600,0,0.0030132331885397,0.0027995824348181,0.0028754682280123,10,{}
attack_corridor_base_8,1,pos_yawl_spoof,11901,0.0002221171598648,8.434996743744705e-06,-0.1944983005523681,-35.3632621,149.1652374,0.0,0.0,0.0,-0.02,-9.942157339537516e-05,9.444939496461302e-05,0.0,1000,1000,1000,1000,12600,0,0.0029868131969124,0.0026336212176829,0.0025984328240156,10,{}
attack_corridor_base_8,1,pos_yawl_spoof,12234,0.0002230023237643,2.042105552391149e-05,-0.1765702813863754,-35.3632621,149.1652374,0.0,0.0,0.0,-0.02,-9.942157339537516e-05,9.444939496461302e-05,0.0,1000,1000,1000,1000,12600,0,0.0028445564676076,0.0027712441515177,0.002737796632573,10,{}
attack_corridor_base_8,1,pos_yawl_spoof,12566,0.0002320748026249,2.624402441142593e-05,-0.1605920046567917,-35.3632621,149.1652374,0.0,0.0,0.0,-0.02,-9.942166798282416e-05,9.444940951652824e-05,0.0,1000,1000,1000,1000,12600,0,0.0030481796711683,0.0028275609947741,0.0027541457675397,10,{}
attack_corridor_base_8,1,pos_yawl_spoof,12899,0.0002415050839772,3.733369521796703e-05,-0.1419620811939239,-35.3632621,149.1652374,0.0,0.0,0.0,-0.02,-9.94216461549513e-05,9.444936586078256e-05,0.0,1000,1000,1000,1000,12600,0,0.0025590660516172,0.0027988527435809,0.0028304411098361,10,{}
attack_corridor_base_8,1,pos_yawl_spoof,13232,0.0002491918567102,4.110194640816189e-05,-0.1298843026161193,-35.3632621,149.1652374,0.0,0.0,0.0,-0.02,-9.94216461549513e-05,9.444936586078256e-05,0.0,1000,1000,1000,1000,12600,0,0.0027397323865443,0.0026772753335535,0.0027513531967997,10,{}
attack_corridor_base_8,1,pos_yawl_spoof,13567,0.00025781505974,4.678450568462722e-05,-0.1192731037735939,-35.3632621,149.1652374,0.0,0.0,0.0,-0.01,-9.942163887899368e-05,9.444939496461302e-05,0.0,1000,1000,1000,1000,12600,0,0.0028566734399646,0.0025400079321116,0.0027698052581399,10,{}
attack_corridor_base_8,1,pos_yawl_spoof,13899,0.000270804943284,5.8227215049555525e-05,-0.1071167588233947,-35.3632621,149.1652374,0.0,0.0,0.0,-0.01,-9.942155884345992e-05,9.44493804126978e-05,0.0,1000,1000,1000,1000,12600,0,0.0028194049373269,0.0028157862834632,0.0026790639385581,10,{}
attack_corridor_base_8,1,pos_yawl_spoof,14231,0.0002787006087601,6.699298683088273e-05,-0.0992982760071754,-35.3632621,149.1652374,0.0,0.0,0.0,-0.01,-9.942155884345992e-05,9.44493804126978e-05,0.0,1000,1000,1000,1000,12600,0,0.002740304917097,0.0027566703502088,0.0027041819412261,10,{}
attack_corridor_base_8,1,pos_yawl_spoof,14564,0.0002871854230761,7.934118912089616e-05,-0.0924853682518005,-35.3632621,149.1652374,0.0,0.0,0.0,-0.01,-9.942151518771424e-05,9.444933675695212e-05,0.0,1000,1000,1000,1000,12600,0,0.0027362443506717,0.0029416258912533,0.0025050742551684,10,{}
attack_corridor_base_8,1,pos_yawl_spoof,14899,0.0003045428020413,9.49110690271482e-05,-0.084700733423233,-35.3632621,149.1652374,0.0,0.0,0.0,-0.01,-9.942147153196856e-05,9.444930037716404e-05,0.0,1000,1000,1000,1000,12600,0,0.0027021565474569,0.0026759314350783,0.002933545038104,10,{}
attack_corridor_base_8,1,pos_yawl_spoof,15352,0.000320296123391,0.000106562700239,-0.07727712392807,-35.3632621,149.1652374,0.0,0.0,0.0,-0.01,-9.942147153196856e-05,9.444930037716404e-05,0.0,1000,1000,1000,1000,12600,0,0.0026712398976087,0.0026836642064154,0.0025917023885995,10,{}
attack_corridor_base_8,1,pos_yawl_spoof,15602,0.0003311962354928,0.0001118296422646,-0.0738836526870727,-35.3632621,149.1652374,0.0,0.0,0.0,-0.01,-9.942147153196856e-05,9.444930037716404e-05,0.0,1000,1000,1000,1000,12600,0,0.0026712398976087,0.0026836642064154,0.0025917023885995,10,{}
attack_corridor_base_8,1,pos_yawl_spoof,15854,0.000336661178153,0.0001202569474116,-0.0709400251507759,-35.3632621,149.1652374,0.0,0.0,0.0,0.0,-9.942147880792618e-05,9.444934403290972e-05,0.0,1000,1000,1000,1000,12600,0,0.0027463410515338,0.0027875511441379,0.0025867025833576,10,{}
attack_corridor_base_8,1,pos_yawl_spoof,16104,0.0003452042583376,0.0001299749565077,-0.0682651922106742,-35.3632621,149.1652374,0.0,0.0,0.0,0.0,-9.942147880792618e-05,9.444934403290972e-05,0.0,1000,1000,1000,1000,12600,0,0.0026779365725815,0.0029505274724215,0.0025404887273907,10,{}
attack_corridor_base_8,1,pos_yawl_spoof,16559,0.0003532669215928,0.0001378981978632,-0.0659649744629859,-35.3632621,149.1652374,0.0,0.0,0.0,0.0,-9.942150063579902e-05,9.444936586078256e-05,0.0,1000,1000,1000,1000,12600,0,0.0031085845548659,0.0028157921042293,0.002728606108576,10,{}
attack_corridor_base_8,1,pos_yawl_spoof,16891,0.0003775658260565,0.0001527020212961,-0.0618018135428428,-35.3632621,149.1652374,0.0,0.0,0.0,0.0,-9.942150063579902e-05,9.44493876886554e-05,0.0,1000,1000,1000,1000,12600,0,0.0028657773509621,0.0028376190457493,0.0027757382486015,10,{}
attack_corridor_base_8,1,pos_yawl_spoof,17224,0.0003899566072504,0.0001609963801456,-0.0600017569959163,-35.3632621,149.1652374,0.0,0.0,0.0,0.0,-9.94215442915447e-05,9.44493804126978e-05,0.0,1000,1000,1000,1000,12600,0,0.0029251228552311,0.0029772222042083,0.0028551104478538,10,{}
attack_corridor_base_8,1,pos_yawl_spoof,17557,0.0003990308323409,0.0001740548759698,-0.0584758482873439,-35.3632621,149.1652374,0.0,0.0,0.0,0.0,-9.94215442915447e-05,9.44493804126978e-05,0.0,1000,1000,1000,1000,12600,0,0.0029612437356263,0.002710357774049,0.0030167517252266,10,{}
attack_corridor_base_8,1,pos_yawl_spoof,17889,0.0004174765781499,0.0001901611976791,-0.0567714273929595,-35.3632621,149.1652374,0.0,0.0,0.0,0.0,-9.942160977516323e-05,9.444935858482496e-05,0.0,1000,1000,1000,1000,12600,0,0.0027306098490953,0.002785108750686,0.0026244414038956,10,{}
attack_corridor_base_8,1,pos_yawl_spoof,18224,0.0004278393753338,0.0002041590341832,-0.0557598881423473,-35.3632621,149.1652374,0.0,0.0,0.0,0.0,-9.9421689810697e-05,9.444935858482496e-05,0.0,1000,1000,1000,1000,12600,0,0.0028682688716799,0.0029554259963333,0.0030154164414852,10,{}
attack_corridor_base_8,1,pos_yawl_spoof,18556,0.0004410362744238,0.0002158186398446,-0.0549218580126762,-35.3632621,149.1652374,0.0,0.0,0.0,0.0,-9.9421689810697e-05,9.444935858482496e-05,0.0,1000,1000,1000,1000,12600,0,0.0028845849446952,0.0029461232479661,0.002932948525995,10,{}
attack_corridor_base_8,1,pos_yawl_spoof,18889,0.00046197741176,0.0002355049655307,-0.0540656335651874,-35.3632621,149.1652374,0.0,0.0,0.0,0.0,-9.942163160303608e-05,9.444930037716404e-05,0.0,1000,1000,1000,1000,12600,0,0.0028480698820203,0.0028877304866909,0.0029219870921224,10,{}
attack_corridor_base_8,1,pos_yawl_spoof,19222,0.0004783541953656,0.0002491759078111,-0.0536429770290851,-35.3632621,149.1652374,0.0,0.0,0.0,0.0,-9.9421595223248e-05,9.444932220503688e-05,0.0,1000,1000,1000,1000,12600,0,0.0027193271089345,0.0029899184592068,0.0027290985453873,10,{}
attack_corridor_base_8,1,pos_yawl_spoof,19554,0.0004880148917436,0.0002588804636616,-0.0532884411513805,-35.3632621,149.1652374,0.0,0.0,0.0,0.0,-9.9421595223248e-05,9.444932220503688e-05,0.0,1000,1000,1000,1000,12600,0,0.002866004826501,0.002843482652679,0.002932486589998,10,{}
attack_corridor_base_8,1,pos_yawl_spoof,19887,0.0005136911640875,0.0002777095069177,-0.0528639145195484,-35.3632621,149.1652374,0.0,0.0,0.0,0.0,-9.942167525878176e-05,9.444936586078256e-05,0.0,1000,1000,1000,1000,12600,0,0.0030229748226702,0.0026364268269389,0.0029325287323445,10,{}
attack_corridor_base_8,1,pos_yawl_spoof,20221,0.0005300069460645,0.0002988381311297,-0.0525769293308258,-35.3632621,149.1652374,-0.006,0.0,0.0,0.0,-9.942174074240028e-05,9.444937313674018e-05,0.0,1000,1000,1000,1000,12600,0,0.0030161347240209,0.002791297622025,0.0025520045310258,10,{}
attack_corridor_base_8,1,pos_yawl_spoof,20554,0.0005456946673803,0.0003131507837679,-0.0525513179600238,-35.3632621,149.1652374,-0.008,0.0,0.0,0.0,-9.942174074240028e-05,9.444937313674018e-05,0.0,1000,1000,1000,1000,12600,0,0.0027359775267541,0.0029284278862178,0.0026235445402562,10,{}
attack_corridor_base_8,1,pos_yawl_spoof,20886,0.00056010420667,0.0003275270864833,-0.0526005662977695,-35.3632621,149.1652374,-0.007,0.0,0.0,0.0,-9.942174074240028e-05,9.444939496461302e-05,0.0,1000,1000,1000,1000,12600,0,0.0029267240315675,0.0028155886102467,0.0031179394572973,10,{}
attack_corridor_base_8,1,pos_yawl_spoof,21219,0.0005800982471555,0.0003484768676571,-0.0527420714497566,-35.3632621,149.1652374,-0.005,0.0,0.0,0.0,-9.942176257027312e-05,9.444935130886734e-05,0.0,1000,1000,1000,1000,12600,0,0.0029155979864299,0.0026333683636039,0.0028158789500594,10,{}
attack_corridor_base_8,1,pos_yawl_spoof,21552,0.0005956951063126,0.0003655158507172,-0.0529493205249309,-35.3632621,149.1652374,-0.004,0.0,0.0,0.0,-9.942176257027312e-05,9.444935130886734e-05,0.0,1000,1000,1000,1000,12600,0,0.002728919731453,0.0028758223634213,0.0026537242811173,10,{}
attack_corridor_base_8,1,pos_yawl_spoof,21887,0.0006179172778502,0.0003792936913669,-0.0531687550246715,-35.3632621,149.1652374,-0.002,0.0,0.0,0.0,-9.942178439814596e-05,9.444934403290972e-05,0.0,1000,1000,1000,1000,12600,0,0.0032729269005358,0.0028677086811512,0.0028150859288871,10,{}
attack_corridor_base_8,1,pos_yawl_spoof,22219,0.0006410524947568,0.0004010053817182,-0.0535236038267612,-35.3632621,149.1652374,-0.001,0.0,0.01,0.0,-9.942185715772212e-05,9.444945317227392e-05,0.0,1000,1000,1000,1000,12600,0,0.0028329610358923,0.0026435311883687,0.0027858270332217,10,{}
attack_corridor_base_8,1,pos_yawl_spoof,22551,0.0006596900057047,0.0004198102978989,-0.0538247898221015,-35.3632621,149.1652374,0.0,0.0,0.01,0.0,-9.942185715772212e-05,9.444945317227392e-05,0.0,1000,1000,1000,1000,12600,0,0.0027584345079958,0.0027947849594056,0.0029552332125604,10,{}
attack_corridor_base_8,1,pos_yawl_spoof,22884,0.0006774840294383,0.0004416858428157,-0.0541668497025966,-35.3632621,149.1652374,0.0,0.0,0.01,0.0,-9.942198084900156e-05,9.4449489552062e-05,0.0,1000,1000,1000,1000,12600,0,0.002673638286069,0.0025689143221825,0.0030638328753411,10,{}
attack_corridor_base_8,1,pos_yawl_spoof,23219,0.0006980673060752,0.0004639248363673,-0.0546723864972591,-35.3632621,149.1652374,0.001,-0.01,0.01,0.0,-9.942191536538304e-05,9.44494386203587e-05,0.0,1000,1000,1000,1000,12600,0,0.0031260799150913,0.0029043238610029,0.0027430173940956,10,{}
attack_corridor_base_8,1,pos_yawl_spoof,23552,0.0007122082752175,0.0004851695266552,-0.055111426860094,-35.3632621,149.1652374,0.001,-0.01,0.01,0.0,-9.942191536538304e-05,9.44494386203587e-05,0.0,1000,1000,1000,1000,12600,0,0.0027288245037198,0.0028246112633496,0.0027134562842547,10,{}
attack_corridor_base_8,1,pos_yawl_spoof,23884,0.0007275535608641,0.0004973769537173,-0.0555045865476131,-35.3632621,149.1652374,0.002,-0.01,0.01,0.0,-9.942183532984929e-05,9.444940224057063e-05,0.0,1000,1000,1000,1000,12600,0,0.002565630711615,0.002670879708603,0.0026104396674782,10,{}
attack_corridor_base_8,1,pos_yawl_spoof,24216,0.0007469978881999,0.0005233392002992,-0.0560938604176044,-35.3632621,149.1652374,0.002,-0.01,0.01,0.0,-9.942186443367972e-05,9.444942406844348e-05,0.0,1000,1000,1000,1000,12600,0,0.0026123949792236,0.0027232647407799,0.0025949974078685,10,{}
attack_corridor_base_8,1,pos_yawl_spoof,24549,0.0007597010117024,0.0005344473174773,-0.0565204583108425,-35.3632621,149.1652374,0.002,-0.01,0.01,0.0,-9.942186443367972e-05,9.444942406844348e-05,0.0,1000,1000,1000,1000,12600,0,0.0028050546534359,0.0028592115268111,0.0027078134007751,10,{}
attack_corridor_base_8,1,pos_yawl_spoof,24884,0.0007767067872919,0.0005536953685805,-0.0569563992321491,-35.3632621,149.1652374,0.003,-0.01,0.01,0.0,-9.94219080894254e-05,9.444945317227392e-05,0.0,1000,1000,1000,1000,12600,0,0.0027656161691993,0.0030379253439605,0.0027931265067309,10,{}
attack_corridor_base_8,1,pos_yawl_spoof,25216,0.000793878280092,0.0005745430244132,-0.0575631521642208,-35.3632621,149.1652374,0.003,-0.01,0.01,0.0,-9.942191536538304e-05,9.444950410397725e-05,0.0,1000,1000,1000,1000,12600,0,0.0027802402619272,0.0027223569341003,0.0027118627913296,10,{}
attack_corridor_base_8,1,pos_yawl_spoof,25549,0.0008089000475592,0.0005866757128387,-0.0579975508153438,-35.3632621,149.1652374,0.003,-0.01,0.01,0.0,-9.942191536538304e-05,9.444950410397725e-05,0.0,1000,1000,1000,1000,12600,0,0.0027897041290998,0.002812078455463,0.0029007068369537,10,{}
attack_corridor_base_8,1,pos_yawl_spoof,25882,0.0008233243715949,0.0006068345974199,-0.0583513379096984,-35.3632621,149.1652374,0.002,-0.01,0.01,0.0,-9.942191536538304e-05,9.444951137993483e-05,0.0,1000,1000,1000,1000,12600,0,0.0027011800557374,0.0029724116902798,0.0029917724896222,10,{}
attack_corridor_base_8,1,pos_yawl_spoof,26214,0.0008468893356621,0.0006195463356561,-0.0590008534491062,-35.3632621,149.1652374,0.002,-0.01,0.01,0.0,-9.94219080894254e-05,9.444946044823156e-05,0.0,1000,1000,1000,1000,12600,0,0.0030188539531081,0.0027898221742361,0.003141398075968,10,{}
attack_corridor_base_8,1,pos_yawl_spoof,26549,0.0008583663147874,0.000624171050731,-0.0594948679208755,-35.3632621,149.1652374,0.002,-0.01,0.01,0.0,-9.94219080894254e-05,9.444946044823156e-05,0.0,1000,1000,1000,1000,12600,0,0.0025462873745709,0.0026970303151756,0.0029381462372839,10,{}
attack_corridor_base_8,1,pos_yawl_spoof,26881,0.0008720006444491,0.0006316974759101,-0.0599869899451732,-35.3632621,149.1652374,0.002,-0.01,0.01,0.0,-9.942192991729826e-05,9.444944589631632e-05,0.0,1000,1000,1000,1000,12600,0,0.0029184899758547,0.0028069491963833,0.0026668685022741,10,{}
attack_corridor_base_8,1,pos_yawl_spoof,27214,0.0008873444749042,0.0006534938584081,-0.060647040605545,-35.3632621,149.1652374,0.002,-0.01,0.01,0.0,-9.942197357304394e-05,9.444952593185008e-05,0.0,1000,1000,1000,1000,12600,0,0.0027886223979294,0.0028302450664341,0.0028394684195518,10,{}
attack_corridor_base_8,1,pos_yawl_spoof,27547,0.0008956904639489,0.0006566187948919,-0.0611715093255043,-35.3632621,149.1652374,0.001,-0.01,0.01,0.0,-9.942197357304394e-05,9.444952593185008e-05,0.0,1000,1000,1000,1000,12600,0,0.002679721917957,0.0028284995350986,0.0026793028227984,10,{}
attack_corridor_base_8,1,pos_yawl_spoof,27879,0.000909490219783,0.0006718568620271,-0.0616759695112705,-35.3632621,149.1652374,0.001,-0.01,0.01,0.0,-9.942195902112871e-05,9.4449489552062e-05,0.0,1000,1000,1000,1000,12600,0,0.0028443138580769,0.0026642067823559,0.0027727209962904,10,{}
attack_corridor_base_8,1,pos_yawl_spoof,28212,0.0009230726864188,0.0006869049393571,-0.0623278841376304,-35.3632621,149.1652374,0.001,-0.01,0.01,0.0,-9.942203178070486e-05,9.444956958759576e-05,0.0,1000,1000,1000,1000,12600,0,0.0027313805185258,0.0029466799460351,0.0027191652916371,10,{}
attack_corridor_base_8,1,pos_yawl_spoof,28546,0.000934773706831,0.0006974004209041,-0.0628335401415824,-35.3632621,149.1652374,0.0,-0.01,0.01,0.0,-9.942203178070486e-05,9.444956958759576e-05,0.0,1000,1000,1000,1000,12600,0,0.0026127023156732,0.0027496628463268,0.0029201267752796,10,{}
attack_corridor_base_8,1,pos_yawl_spoof,28879,0.000944227038417,0.0007130895974114,-0.0633083060383796,-35.3632621,149.1652374,0.0,-0.01,0.01,0.0,-9.94221118162386e-05,9.444962051929906e-05,0.0,1000,1000,1000,1000,12600,0,0.0030388205777853,0.002851135097444,0.0027472167275846,10,{}
attack_corridor_base_8,1,pos_yawl_spoof,29211,0.0009616900933906,0.0007354813278652,-0.0639431923627853,-35.3632621,149.1652374,0.0,-0.01,0.01,0.0,-9.942223550751804e-05,9.444967872695996e-05,0.0,1000,1000,1000,1000,12600,0,0.0029454424511641,0.0025700230617076,0.002409870037809,10,{}
attack_corridor_base_8,1,pos_yawl_spoof,29544,0.0009745848947204,0.0007400776376016,-0.0644165277481079,-35.3632621,149.1652374,0.0,-0.01,0.01,0.0,-9.942223550751804e-05,9.444967872695996e-05,0.0,1000,1000,1000,1000,12600,0,0.0027826428413391,0.0026922468096017,0.0027541839517652,10,{}
attack_corridor_base_8,1,pos_yawl_spoof,29877,0.0009828275069594,0.0007538357749581,-0.0649143680930137,-35.3632621,149.1652374,0.0,-0.01,0.02,0.0,-9.94223155430518e-05,9.444970055483282e-05,0.0,1000,1000,1000,1000,12600,0,0.0027839818503707,0.002987595507875,0.0028458265587687,10,{}
attack_corridor_base_8,1,pos_yawl_spoof,30546,0.000998881063424,0.0007762580644339,-0.0658226981759071,-35.3632621,149.1652374,-0.001,-0.01,0.02,0.0,-9.942238102667034e-05,9.44497951422818e-05,0.0,1000,1000,1000,1000,12600,0,0.002940583275631,0.0027313984464854,0.00272894394584,10,{}
attack_corridor_base_8,1,pos_yawl_spoof,30879,0.0010146806016564,0.0007896236493252,-0.0665864050388336,-35.3632621,149.1652374,-0.002,-0.01,0.02,0.0,-9.942250471794978e-05,9.444988972973078e-05,0.0,1000,1000,1000,1000,12600,0,0.0026380515191704,0.00269187358208,0.0029353960417211,10,{}
attack_corridor_base_8,1,pos_yawl_spoof,31211,0.0010209237225353,0.0007966352277435,-0.0670770481228828,-35.3632621,149.1652374,-0.002,-0.01,0.02,0.0,-9.942250471794978e-05,9.444991883356124e-05,0.0,1000,1000,1000,1000,12600,0,0.0027142839971929,0.0029571945779025,0.0028449641540646,10,{}
attack_corridor_base_8,1,pos_yawl_spoof,31544,0.0010376677382737,0.0008045055437833,-0.0675172433257103,-35.3632621,149.1652374,-0.002,-0.01,0.02,0.0,-9.942253382178023e-05,9.444995521334933e-05,0.0,1000,1000,1000,1000,12600,0,0.0028715853113681,0.0027594305574893,0.0028922024648636,10,{}
attack_corridor_base_8,1,pos_yawl_spoof,31877,0.0010438624303787,0.0008089592447504,-0.0678693130612373,-35.3632621,149.1652374,-0.003,-0.01,0.02,0.0,-9.942249016603456e-05,9.444988972973078e-05,0.0,1000,1000,1000,1000,12600,0,0.0026611415669322,0.0029158140532672,0.0029727853834629,10,{}
attack_corridor_base_8,1,pos_yawl_spoof,32212,0.0010526175610721,0.0008172173984348,-0.0684562027454376,-35.3632621,149.1652374,-0.003,-0.01,0.02,0.0,-9.942246833816172e-05,9.444992610951886e-05,0.0,1000,1000,1000,1000,12600,0,0.0027037642430514,0.0029108664020895,0.0026926912833005,10,{}
attack_corridor_base_8,1,pos_yawl_spoof,32544,0.0010610006283968,0.0008249238017015,-0.0689215511083602,-35.3632621,149.1652374,-0.003,-0.01,0.02,0.0,-9.942246833816172e-05,9.444995521334933e-05,0.0,1000,1000,1000,1000,12600,0,0.0029355739243328,0.0027033109217882,0.0026228951755911,10,{}
attack_corridor_base_8,1,pos_yawl_spoof,32876,0.0010681512067094,0.0008374371682293,-0.0693499520421028,-35.3632621,149.1652374,-0.004,-0.01,0.02,0.0,-9.942253382178023e-05,9.444997704122216e-05,0.0,1000,1000,1000,1000,12600,0,0.0026793594006448,0.0025909766554832,0.0029935468919575,10,{}
attack_corridor_base_8,1,pos_yawl_spoof,33209,0.0010816798312589,0.0008544589509256,-0.0699271485209465,-35.3632621,149.1652374,-0.004,-0.01,0.02,0.0,-9.942253382178023e-05,9.444997704122216e-05,0.0,1000,1000,1000,1000,12600,0,0.0027802838012576,0.0028288832399994,0.0029364947695285,10,{}
attack_corridor_base_8,1,pos_yawl_spoof,33544,0.0010957142803817,0.0008657012949697,-0.0703541710972786,-35.3632621,149.1652374,-0.004,-0.01,0.02,0.0,-9.942258475348352e-05,9.444995521334933e-05,0.0,1000,1000,1000,1000,12600,0,0.0028188843280076,0.0026674892287701,0.0025642921682447,10,{}
attack_corridor_base_8,1,pos_yawl_spoof,33877,0.0011100508272647,0.0008758165640756,-0.0707897618412971,-35.3632621,149.1652374,-0.004,-0.02,0.02,0.0,-9.942254837369546e-05,9.444997704122216e-05,0.0,1000,1000,1000,1000,12600,0,0.0027249380946159,0.0029075902421027,0.0027782092802226,10,{}
attack_corridor_base_8,1,pos_yawl_spoof,34209,0.0011176522821187,0.0008824842516332,-0.0713340267539024,-35.3632621,149.1652374,-0.005,-0.02,0.02,0.0,-9.942254837369546e-05,9.444997704122216e-05,0.0,1000,1000,1000,1000,12600,0,0.0031914161518216,0.0025317757390439,0.0026998606044799,10,{}
attack_corridor_base_8,1,pos_yawl_spoof,34542,0.0011287998640909,0.0008983018924482,-0.0717400982975959,-35.3632621,149.1652374,-0.005,-0.02,0.02,0.0,-9.942247561411932e-05,9.444998431717976e-05,0.0,1000,1000,1000,1000,12600,0,0.00283386092633,0.002719891257584,0.002808776916936,10,{}
attack_corridor_base_8,1,pos_yawl_spoof,34874,0.0011374348541721,0.0009104200289584,-0.0721449553966522,-35.3632621,149.1652374,-0.005,-0.02,0.02,0.0,-9.94224101305008e-05,9.444998431717976e-05,0.0,1000,1000,1000,1000,12600,0,0.0025842504110187,0.0028852573595941,0.0029567654710263,10,{}
attack_corridor_base_8,1,pos_yawl_spoof,35209,0.001148929237388,0.0009237446356564,-0.0726700872182846,-35.3632621,149.1652374,-0.005,-0.02,0.02,0.0,-9.94224101305008e-05,9.444998431717976e-05,0.0,1000,1000,1000,1000,12600,0,0.0029207807965576,0.0029301664326339,0.0026169857010245,10,{}
attack_corridor_base_8,1,pos_yawl_spoof,35541,0.0011569638736546,0.0009315219940617,-0.0730647444725036,-35.3632621,149.1652374,-0.005,-0.02,0.02,0.0,-9.942233009496704e-05,9.444995521334933e-05,0.0,1000,1000,1000,1000,12600,0,0.002568042371422,0.0029486236162483,0.0024867174215614,10,{}
attack_corridor_base_8,1,pos_yawl_spoof,35874,0.0011615438852459,0.000930038804654,-0.0734749734401702,-35.3632621,149.1652374,-0.005,-0.02,0.02,0.0,-9.94223591987975e-05,9.444991883356124e-05,0.0,1000,1000,1000,1000,12600,0,0.0026354868896305,0.0028522626962512,0.0028150028083473,10,{}
attack_corridor_base_8,1,pos_yawl_spoof,36207,0.0011696172878146,0.000946259999182,-0.0738685205578804,-35.3632621,149.1652374,-0.005,-0.02,0.02,0.0,-9.94223591987975e-05,9.444991883356124e-05,0.0,1000,1000,1000,1000,12600,0,0.0028159948997199,0.0027626177761703,0.0029491554014384,10,{}
attack_corridor_base_8,1,pos_yawl_spoof,36539,0.0011791066499426,0.0009590226109139,-0.0742590278387069,-35.3632621,149.1652374,-0.005,-0.02,0.02,0.0,-9.942230099113658e-05,9.444993338547648e-05,0.0,1000,1000,1000,1000,12600,0,0.003028032137081,0.0026211885269731,0.0026488269213587,10,{}
attack_corridor_base_8,1,pos_yawl_spoof,36874,0.0011892262846231,0.0009750049794092,-0.0746405497193336,-35.3632621,149.1652374,-0.005,-0.02,0.02,0.0,-9.94223082670942e-05,9.44498970056884e-05,0.0,1000,1000,1000,1000,12600,0,0.0025678062811493,0.0027781459502875,0.0026286987122148,10,{}
attack_corridor_base_8,1,pos_yawl_spoof,37206,0.001199226710014,0.0009932273533195,-0.0751184895634651,-35.3632621,149.1652374,-0.005,-0.02,0.02,0.0,-9.94223082670942e-05,9.44498970056884e-05,0.0,1000,1000,1000,1000,12600,0,0.0030023495201021,0.0029136084485799,0.0027827096637338,10,{}
attack_corridor_base_8,1,pos_yawl_spoof,37539,0.0012097603175789,0.0010020443005487,-0.0754850208759307,-35.3632621,149.1652374,-0.005,-0.02,0.02,0.0,-9.942233737092464e-05,9.4449904281646e-05,0.0,1000,1000,1000,1000,12600,0,0.0029369969852268,0.0025477833114564,0.0026297729928046,10,{}
attack_corridor_base_8,1,pos_yawl_spoof,37872,0.0012134795542806,0.0010142477694898,-0.0758362710475921,-35.3632621,149.1652374,-0.006,-0.02,0.02,0.0,-9.94223082670942e-05,9.444986062590031e-05,0.0,1000,1000,1000,1000,12600,0,0.0027904924936592,0.0027128369547426,0.0027274668682366,10,{}
attack_corridor_base_8,1,pos_yawl_spoof,38204,0.0012250393629074,0.0010368261719122,-0.0763223320245742,-35.3632621,149.1652374,-0.006,-0.02,0.02,0.0,-9.94223082670942e-05,9.444986062590031e-05,0.0,1000,1000,1000,1000,12600,0,0.0030373015906661,0.0026336703449487,0.0025190063752233,10,{}
attack_corridor_base_8,1,pos_yawl_spoof,38537,0.0012329797027632,0.0010408675298094,-0.0766677856445312,-35.3632621,149.1652374,-0.006,-0.02,0.02,0.0,-9.942232281900942e-05,9.444986062590031e-05,0.0,1000,1000,1000,1000,12600,0,0.0031326359603554,0.0029842846561223,0.0028225777205079,10,{}
attack_corridor_base_8,1,pos_yawl_spoof,38871,0.0012434112140908,0.0010483943624421,-0.0770217925310134,-35.3632621,149.1652374,-0.006,-0.02,0.02,0.0,-9.942227916326374e-05,9.444983879802749e-05,0.0,1000,1000,1000,1000,12600,0,0.0028307917527854,0.0029480794910341,0.0029574709478765,10,{}
attack_corridor_base_8,1,pos_yawl_spoof,39204,0.0012509310618042,0.0010672293137758,-0.0774788185954094,-35.3632621,149.1652374,-0.006,-0.02,0.02,0.0,-9.942227916326374e-05,9.444983879802749e-05,0.0,1000,1000,1000,1000,12600,0,0.0026935951318591,0.0029616649262607,0.0027761035598814,10,{}
attack_corridor_base_8,1,pos_yawl_spoof,39536,0.0012480112491175,0.0010727312183007,-0.0778190642595291,-35.3632621,149.1652374,-0.006,-0.02,0.02,0.0,-9.942225005943328e-05,9.444986062590031e-05,0.0,1000,1000,1000,1000,12600,0,0.0027997097931802,0.0028482750058174,0.0028740677516907,10,{}
attack_corridor_base_8,1,pos_yawl_spoof,39869,0.0012573123676702,0.0010779363801702,-0.0781432390213012,-35.3632621,149.1652374,-0.006,-0.02,0.02,0.0,-9.942224278347568e-05,9.444988245377316e-05,0.0,1000,1000,1000,1000,12600,0,0.0028708635363727,0.0028827551286667,0.0026065623387694,10,{}
attack_corridor_base_8,1,pos_yawl_spoof,40202,0.0012658330379053,0.0010844683274626,-0.0785886943340301,-35.3632621,149.1652374,-0.006,-0.02,0.02,0.0,-9.942224278347568e-05,9.444988245377316e-05,0.0,1000,1000,1000,1000,12600,0,0.0028405897319316,0.0030798129737377,0.0030830192845314,10,{}
attack_corridor_base_8,1,pos_yawl_spoof,40537,0.001274993061088,0.001094470382668,-0.0788956582546234,-35.3632621,149.1652374,-0.006,-0.02,0.02,0.0,-9.942226461134852e-05,9.444991155760364e-05,0.0,1000,1000,1000,1000,12600,0,0.0026965977158397,0.0027188526000827,0.0025690398178994,10,{}
attack_corridor_base_8,1,pos_yawl_spoof,40869,0.0012818947434425,0.0010958609636873,-0.0791909098625183,-35.3632621,149.1652374,-0.006,-0.02,0.02,0.0,-9.942224278347568e-05,9.4449904281646e-05,0.0,1000,1000,1000,1000,12600,0,0.0027882200665771,0.0027866750024259,0.0026042736135423,10,{}
attack_corridor_base_8,1,pos_yawl_spoof,41201,0.0012900868896394,0.0011086368467658,-0.0795504003763198,-35.3632621,149.1652374,-0.006,-0.02,0.02,0.0,-9.942224278347568e-05,9.4449904281646e-05,0.0,1000,1000,1000,1000,12600,0,0.00270875566639,0.0030558086000382,0.0026414569001644,10,{}
attack_corridor_base_8,1,pos_yawl_spoof,41534,0.0012985521461814,0.0011168541386723,-0.0798617303371429,-35.3632621,149.1652374,-0.006,-0.02,0.02,0.0,-9.942227916326374e-05,9.444992610951886e-05,0.0,1000,1000,1000,1000,12600,0,0.0030662682838737,0.0030182928312569,0.0027289579156786,10,{}
attack_corridor_base_8,1,pos_yawl_spoof,41869,0.0013190626632422,0.0011424436233937,-0.0801653563976287,-35.3632621,149.1652374,-0.006,0.0,0.0,0.0,-9.942232281900942e-05,9.444991883356124e-05,0.0,1000,1000,1000,1000,12600,0,0.0029232951346784,0.0027170637622475,0.0029292351100593,10,{}
attack_corridor_base_8,1,pos_yawl_spoof,42202,0.0014236929127946,0.0012450041249394,-0.0805780738592147,-35.3632621,149.1652374,-0.006,0.0,0.0,0.0,-9.942232281900942e-05,9.444991883356124e-05,0.0,1000,1000,1000,1000,12600,0,0.0027876927051693,0.0026954170316457,0.0027259169146418,10,{}
attack_corridor_base_8,1,pos_yawl_spoof,42534,0.0014888086589053,0.0013102164957672,-0.0808777064085006,-35.3632621,149.1652374,-0.006,0.0,0.0,0.0,-9.942228643922137e-05,9.444991883356124e-05,0.0,1000,1000,1000,1000,12600,0,0.0029845014214515,0.0026858218479901,0.0028065007645636,10,{}
attack_corridor_base_8,1,pos_yawl_spoof,42867,0.0015495305415242,0.0013732630759477,-0.081178992986679,-35.3632621,149.1652374,-0.006,0.0,0.01,0.0,-9.94223155430518e-05,9.444992610951886e-05,0.0,1000,1000,1000,1000,12600,0,0.0026949825696647,0.0027166502550244,0.0024866645690053,10,{}
attack_corridor_base_8,1,pos_yawl_spoof,43199,0.0016208488959819,0.0014412106247618,-0.0815920606255531,-35.3632621,149.1652374,-0.006,-0.01,0.01,0.0,-9.94223155430518e-05,9.444992610951886e-05,0.0,1000,1000,1000,1000,12600,0,0.0029285673517733,0.0027780395466834,0.0027117941062897,10,{}
attack_corridor_base_8,1,pos_yawl_spoof,43534,0.0016484678490087,0.0014640463050454,-0.0819004029035568,-35.3632621,149.1652374,-0.006,-0.01,0.01,0.0,-9.94223082670942e-05,9.444988245377316e-05,0.0,1000,1000,1000,1000,12600,0,0.0027666671667248,0.0028907689265906,0.0026363795623183,10,{}
attack_corridor_base_8,1,pos_yawl_spoof,43866,0.0016620508395135,0.0014777512988075,-0.0822071135044097,-35.3632621,149.1652374,-0.006,-0.01,0.01,0.0,-9.942233737092464e-05,9.444985334994271e-05,0.0,1000,1000,1000,1000,12600,0,0.0028932082932442,0.0029289247468113,0.0026246116030961,10,{}
attack_corridor_base_8,1,pos_yawl_spoof,44199,0.0016472160350531,0.0014670786913484,-0.0826213136315345,-35.3632621,149.1652374,-0.006,-0.01,0.01,0.0,-9.942233737092464e-05,9.444985334994271e-05,0.0,1000,1000,1000,1000,12600,0,0.0028680171817541,0.0028613661415874,0.0031038366723805,10,{}
attack_corridor_base_8,1,pos_yawl_spoof,44532,0.0016194442287087,0.0014323754003271,-0.0829062238335609,-35.3632621,149.1652375,-0.006,-0.01,0.02,0.0,-9.942238830262796e-05,9.44498970056884e-05,0.0,1000,1000,1000,1000,12600,0,0.0029072451870888,0.0029565300792455,0.0027256025932729,10,{}
attack_corridor_base_8,1,pos_yawl_spoof,44864,0.0015858113765716,0.0014008339494466,-0.0831823348999023,-35.3632621,149.1652375,-0.006,-0.01,0.02,0.0,-9.942234464688228e-05,9.444986790185794e-05,0.0,1000,1000,1000,1000,12600,0,0.0025492585264146,0.002899375045672,0.0026221508160233,10,{}
attack_corridor_base_8,1,pos_yawl_spoof,45354,0.0014804797247052,0.0012993920827284,-0.0837104097008705,-35.3632621,149.1652375,-0.006,-0.01,0.02,0.0,-9.942234464688228e-05,9.444986790185794e-05,0.0,1000,1000,1000,1000,12600,0,0.0027992676477879,0.0028477176092565,0.0026398675981909,10,{}
attack_corridor_base_8,1,pos_yawl_spoof,45604,0.0014411400770768,0.0012627006508409,-0.0839231014251709,-35.3632622,149.1652375,-0.006,-0.01,0.02,0.0,-9.942233737092464e-05,9.444988972973078e-05,0.0,1000,1000,1000,1000,12600,0,0.0025725185405462,0.0029621843714267,0.0026198888663202,10,{}
attack_corridor_base_8,1,pos_yawl_spoof,45854,0.0013846403453499,0.0012035705149173,-0.0841258689761161,-35.3632622,149.1652375,-0.006,-0.01,0.02,0.0,-9.942232281900942e-05,9.444987517781556e-05,0.0,1000,1000,1000,1000,12600,0,0.0030863878782838,0.0027566668577492,0.0029086922295391,10,{}
attack_corridor_base_8,1,pos_yawl_spoof,46104,0.0013428085949271,0.0011582352453842,-0.0843303054571151,-35.3632622,149.1652375,-0.006,-0.01,0.01,0.0,-9.942230099113658e-05,9.444988245377316e-05,0.0,1000,1000,1000,1000,12600,0,0.0029848872218281,0.0028086963575333,0.0028126961551606,10,{}
attack_corridor_base_8,1,pos_yawl_spoof,46352,0.0013025023508816,0.0011123078875243,-0.0845018252730369,-35.3632622,149.1652375,-0.006,-0.01,0.01,0.0,-9.942228643922137e-05,9.444988245377316e-05,0.0,1000,1000,1000,1000,12600,0,0.0025709944311529,0.0027074618265032,0.0028636532370001,10,{}
attack_corridor_base_8,1,pos_yawl_spoof,46602,0.001277262228541,0.0010922300862148,-0.0846611112356185,-35.3632622,149.1652375,-0.006,-0.01,0.01,0.0,-9.942232281900942e-05,9.444991155760364e-05,0.0,1000,1000,1000,1000,12600,0,0.0026421651709824,0.0028156084008514,0.0026463067624717,10,{}
attack_corridor_base_8,1,pos_yawl_spoof,46852,0.0012309965677559,0.0010524387471377,-0.084863856434822,-35.3632621,149.1652375,-0.006,-0.01,0.01,0.0,-9.942226461134852e-05,9.444991155760364e-05,0.0,1000,1000,1000,1000,12600,0,0.0029707022476941,0.0026457230560481,0.0024611451663076,10,{}
attack_corridor_base_8,1,pos_yawl_spoof,47104,0.0011975904926657,0.0010227134916931,-0.0850404724478721,-35.3632621,149.1652375,-0.006,-0.01,0.01,0.0,-9.942225005943328e-05,9.444992610951886e-05,0.0,1000,1000,1000,1000,12600,0,0.0028023007325828,0.0026535729411989,0.0023823615629225,10,{}
attack_corridor_base_8,1,pos_yawl_spoof,47354,0.0011719116009771,0.0010003843344748,-0.0852296352386474,-35.3632621,149.1652375,-0.006,-0.01,0.01,0.0,-9.94222136796452e-05,9.44498970056884e-05,0.0,1000,1000,1000,1000,12600,0,0.0029850788414478,0.0028518245089799,0.0027925963513553,10,{}
attack_corridor_base_8,1,pos_yawl_spoof,47604,0.001158807077445,0.000987262581475,-0.0853955596685409,-35.3632621,149.1652375,-0.006,-0.01,0.01,0.0,-9.942217729985714e-05,9.444986062590031e-05,0.0,1000,1000,1000,1000,12600,0,0.0027651889249682,0.0027806686703115,0.002833001781255,10,{}
attack_corridor_base_8,1,pos_yawl_spoof,47854,0.0011324296938255,0.0009647379629313,-0.0855831801891326,-35.3632621,149.1652375,-0.006,-0.01,0.01,0.0,-9.942214819602668e-05,9.444982424611226e-05,0.0,1000,1000,1000,1000,12600,0,0.0028726437594741,0.0027113389223814,0.0027382494881749,10,{}
attack_corridor_base_8,1,pos_yawl_spoof,48104,0.0011169440113008,0.0009482037858106,-0.0857379809021949,-35.3632621,149.1652375,-0.006,-0.01,0.01,0.0,-9.942211909219624e-05,9.444982424611226e-05,0.0,1000,1000,1000,1000,12600,0,0.0030948978383094,0.0027696487959474,0.0027956296689808,10,{}
attack_corridor_base_8,1,pos_yawl_spoof,48352,0.0011059866519644,0.0009370085899718,-0.0859232917428016,-35.3632621,149.1652375,-0.006,-0.01,0.01,0.0,-9.9422104540281e-05,9.444980969419704e-05,0.0,1000,1000,1000,1000,12600,0,0.0026993537321686,0.0029867307748645,0.0028631356544792,10,{}
attack_corridor_base_8,1,pos_yawl_spoof,48602,0.0010992470197379,0.0009307488217018,-0.0860808938741684,-35.3632621,149.1652375,-0.006,-0.01,0.01,0.0,-9.942207543645054e-05,9.444980969419704e-05,0.0,1000,1000,1000,1000,12600,0,0.002891200594604,0.0027307234704494,0.0029982773121446,10,{}
attack_corridor_base_8,1,pos_yawl_spoof,48852,0.0010890064295381,0.000922356150113,-0.0862428024411201,-35.3632621,149.1652375,-0.006,-0.01,0.01,0.0,-9.942206816049291e-05,9.44497878663242e-05,0.0,1000,1000,1000,1000,12600,0,0.002841594396159,0.0030615055002272,0.0027512952219694,10,{}
attack_corridor_base_8,1,pos_yawl_spoof,49102,0.0010843920754268,0.00091586378403,-0.0864072665572166,-35.3632621,149.1652375,-0.006,-0.01,0.01,0.0,-9.942202450474724e-05,9.444976603845134e-05,0.0,1000,1000,1000,1000,12600,0,0.0028043596539646,0.0031085521914064,0.002751677064225,10,{}
attack_corridor_base_8,1,pos_yawl_spoof,49354,0.0010827458463609,0.0009113935520872,-0.0865654423832893,-35.3632621,149.1652375,-0.006,-0.01,0.01,0.0,-9.942195902112871e-05,9.444973693462087e-05,0.0,1000,1000,1000,1000,12600,0,0.0027328429277986,0.0026489251758903,0.0027982436586171,10,{}
attack_corridor_base_8,1,pos_yawl_spoof,49604,0.0010833182604983,0.0009119200403802,-0.0867183208465576,-35.3632621,149.1652375,-0.006,-0.01,0.01,0.0,-9.942197357304394e-05,9.444972238270566e-05,0.0,1000,1000,1000,1000,12600,0,0.0027050171047449,0.0028584597166627,0.0026947201695293,10,{}
attack_corridor_base_8,1,pos_yawl_spoof,49854,0.0010778730502352,0.0009135783184319,-0.0868803188204765,-35.3632621,149.1652375,-0.006,-0.01,0.01,0.0,-9.942198812495916e-05,9.444972238270566e-05,0.0,1000,1000,1000,1000,12600,0,0.0026668154168874,0.0028378865681588,0.0026346191298216,10,{}
attack_corridor_base_8,1,pos_yawl_spoof,50104,0.0010775232221931,0.000914690666832,-0.0870360359549522,-35.3632621,149.1652375,-0.006,-0.01,0.01,0.0,-9.942198812495916e-05,9.444970055483282e-05,0.0,1000,1000,1000,1000,12600,0,0.0028905768413096,0.0027850077021867,0.0027597155421972,10,{}
attack_corridor_base_8,1,pos_yawl_spoof,50352,0.0010807048529386,0.0009156184969469,-0.0871860012412071,-35.3632621,149.1652375,-0.006,-0.01,0.01,0.0,-9.94219517451711e-05,9.444964962312952e-05,0.0,1000,1000,1000,1000,12600,0,0.0024053682573139,0.002637889701873,0.0029700126033276,10,{}
attack_corridor_base_8,1,pos_yawl_spoof,50602,0.0010835247812792,0.0009137835004366,-0.0873447433114051,-35.3632621,149.1652375,-0.006,-0.01,0.01,0.0,-9.942196629708631e-05,9.444961324334145e-05,0.0,1000,1000,1000,1000,12600,0,0.0028235607314854,0.0030159980524331,0.0027573858387768,10,{}
attack_corridor_base_8,1,pos_yawl_spoof,50852,0.0010853032581508,0.0009118804591707,-0.0874937549233436,-35.3632621,149.1652375,-0.006,-0.01,0.01,0.0,-9.942192991729826e-05,9.444955503568052e-05,0.0,1000,1000,1000,1000,12600,0,0.0028349093627184,0.0030810760799795,0.0029645063914358,10,{}
attack_corridor_base_8,1,pos_yawl_spoof,51102,0.0010853878920897,0.0009120735921896,-0.087638072669506,-35.3632621,149.1652375,-0.006,-0.01,0.01,0.0,-9.942192264134064e-05,9.444954775972292e-05,0.0,1000,1000,1000,1000,12600,0,0.0026799850165843,0.0026327075902372,0.0027050108183175,10,{}
attack_corridor_base_8,1,pos_yawl_spoof,51354,0.001085813390091,0.0009175768354907,-0.0877843871712684,-35.3632621,149.1652375,-0.006,-0.01,0.01,0.0,-9.94218935375102e-05,9.444951865589246e-05,0.0,1000,1000,1000,1000,12600,0,0.0029122401028871,0.0027383274864405,0.0025523535441607,10,{}
attack_corridor_base_8,1,pos_yawl_spoof,51604,0.001091634039767,0.0009184255613945,-0.0879271700978279,-35.3632621,149.1652375,-0.006,-0.01,0.01,0.0,-9.942188626155256e-05,9.444950410397725e-05,0.0,1000,1000,1000,1000,12600,0,0.0028933412395417,0.0029222385492175,0.0029246697667986,10,{}
attack_corridor_base_8,1,pos_yawl_spoof,51854,0.0010946730617433,0.0009140240726992,-0.0880668014287948,-35.3632621,149.1652375,-0.006,-0.01,0.01,0.0,-9.94219080894254e-05,9.444951865589246e-05,0.0,1000,1000,1000,1000,12600,0,0.0029782506171613,0.0026361104100942,0.0029025685507804,10,{}
attack_corridor_base_8,1,pos_yawl_spoof,52104,0.001099464832805,0.0009063141187652,-0.0882136523723602,-35.3632621,149.1652375,-0.006,-0.01,0.01,0.0,-9.94219008134678e-05,9.4449489552062e-05,0.0,1000,1000,1000,1000,12600,0,0.0029803561046719,0.0025234532076865,0.0028609002474695,10,{}
attack_corridor_base_8,1,pos_yawl_spoof,52354,0.0011040210956707,0.0009052871610037,-0.0883453264832496,-35.3632621,149.1652375,-0.006,-0.01,0.01,0.0,-9.942187898559496e-05,9.4449489552062e-05,0.0,1000,1000,1000,1000,12600,0,0.0027319409418851,0.0028791949152946,0.0028401061426848,10,{}
attack_corridor_base_8,1,pos_yawl_spoof,52602,0.0011081314878538,0.0009157033637166,-0.0884544178843498,-35.3632621,149.1652375,-0.006,-0.01,0.01,0.0,-9.942186443367972e-05,9.444945317227392e-05,0.0,1000,1000,1000,1000,12600,0,0.0031511781271547,0.0027405773289501,0.0027971896342933,10,{}
attack_corridor_base_8,1,pos_yawl_spoof,52852,0.0011104063596576,0.0009180120541714,-0.0885974243283271,-35.3632621,149.1652375,-0.006,-0.01,0.01,0.0,-9.942183532984929e-05,9.444941679248586e-05,0.0,1000,1000,1000,1000,12600,0,0.0029357362072914,0.0030668750405311,0.0029107134323567,10,{}
attack_corridor_base_8,1,pos_yawl_spoof,53102,0.0011100290575996,0.0009140246547758,-0.0887239277362823,-35.3632621,149.1652375,-0.006,-0.01,0.01,0.0,-9.942186443367972e-05,9.444943134440108e-05,0.0,1000,1000,1000,1000,12600,0,0.0027094644028693,0.0028501420747488,0.0026948410086333,10,{}
attack_corridor_base_8,1,pos_yawl_spoof,53354,0.0011169607751071,0.0009218837949447,-0.08887330442667,-35.3632621,149.1652375,-0.006,-0.01,0.01,0.0,-9.942185715772212e-05,9.444944589631632e-05,0.0,1000,1000,1000,1000,12600,0,0.0027912037912756,0.0025407737120985,0.0025785721372812,10,{}
attack_corridor_base_8,1,pos_yawl_spoof,53604,0.0011289530666545,0.0009298947406932,-0.0889998599886894,-35.3632621,149.1652375,-0.006,-0.01,0.01,0.0,-9.942184260580687e-05,9.444943134440108e-05,0.0,1000,1000,1000,1000,12600,0,0.0027636028826236,0.003063402371481,0.0027509357314556,10,{}
attack_corridor_base_8,1,pos_yawl_spoof,53854,0.0011316254967823,0.0009272624738514,-0.0891336277127265,-35.3632621,149.1652375,-0.006,-0.01,0.01,0.0,-9.942180622601882e-05,9.444941679248586e-05,0.0,1000,1000,1000,1000,12600,0,0.0025276294909417,0.002687640953809,0.0029394775629043,10,{}
attack_corridor_base_8,1,pos_yawl_spoof,54104,0.001133176148869,0.0009355432703159,-0.0892647355794906,-35.3632621,149.1652375,-0.006,-0.01,0.01,0.0,-9.942177712218836e-05,9.444940951652824e-05,0.0,1000,1000,1000,1000,12600,0,0.0030245122034102,0.0028088903054594,0.0028744465671479,10,{}
attack_corridor_base_8,1,pos_yawl_spoof,54354,0.0011349148117005,0.0009390068007633,-0.0893965661525726,-35.3632621,149.1652375,-0.006,-0.01,0.01,0.0,-9.94217480183579e-05,9.444936586078256e-05,0.0,1000,1000,1000,1000,12600,0,0.0028915447182953,0.0029433239251375,0.0030009583570063,10,{}
attack_corridor_base_8,1,pos_yawl_spoof,54602,0.0011444736737757,0.0009483124595135,-0.0895159393548965,-35.3632621,149.1652375,-0.006,-0.01,0.01,0.0,-9.942172619048506e-05,9.444937313674018e-05,0.0,1000,1000,1000,1000,12600,0,0.0026453684549778,0.002755707129836,0.0026714955456554,10,{}
attack_corridor_base_8,1,pos_yawl_spoof,54852,0.001144333044067,0.0009473909740336,-0.0896452963352203,-35.3632621,149.1652375,-0.006,-0.01,0.01,0.0,-9.942174074240028e-05,9.444934403290972e-05,0.0,1000,1000,1000,1000,12600,0,0.0031747906468808,0.0029127050656825,0.0029006493277847,10,{}
attack_corridor_base_8,1,pos_yawl_spoof,55102,0.001146687194705,0.0009494174737483,-0.0897677540779113,-35.3632621,149.1652375,-0.006,-0.01,0.01,0.0,-9.942173346644267e-05,9.444930037716404e-05,0.0,1000,1000,1000,1000,12600,0,0.002807936631143,0.0028245018329471,0.0025800231378525,10,{}
attack_corridor_base_8,1,pos_yawl_spoof,55352,0.0011457601794973,0.0009510644595138,-0.0898911207914352,-35.3632621,149.1652375,-0.006,-0.01,0.01,0.0,-9.94217480183579e-05,9.444930037716404e-05,0.0,1000,1000,1000,1000,12600,0,0.0025631352327764,0.0025228960439562,0.0025725215673446,10,{}
attack_corridor_base_8,1,pos_yawl_spoof,55604,0.0011502888519316,0.0009563730563968,-0.0900185480713844,-35.3632621,149.1652375,-0.006,-0.01,0.01,0.0,-9.9421689810697e-05,9.444925672141836e-05,0.0,1000,1000,1000,1000,12600,0,0.0027655109297484,0.0030749649740755,0.0026963385753333,10,{}
attack_corridor_base_8,1,pos_yawl_spoof,55854,0.0011466194409877,0.0009505181224085,-0.0901408642530441,-35.3632621,149.1652375,-0.006,-0.01,0.01,0.0,-9.942168253473938e-05,9.444926399737597e-05,0.0,1000,1000,1000,1000,12600,0,0.0026970626786351,0.0028623472899198,0.0025826371274888,10,{}
attack_corridor_base_8,1,pos_yawl_spoof,56104,0.0011461584363132,0.0009513688273727,-0.0902649387717247,-35.3632621,149.1652375,-0.006,-0.01,0.01,0.0,-9.942168253473938e-05,9.444926399737597e-05,0.0,1000,1000,1000,1000,12600,0,0.0027681624051183,0.0028675596695393,0.0030393858905881,10,{}
attack_corridor_base_8,1,pos_yawl_spoof,56354,0.0011502844281494,0.0009554664720781,-0.0903862565755844,-35.3632621,149.1652375,-0.006,-0.01,0.01,0.0,-9.942167525878176e-05,9.444924216950312e-05,0.0,1000,1000,1000,1000,12600,0,0.0027056431863456,0.0029029136057943,0.0030944880563765,10,{}
attack_corridor_base_8,1,pos_yawl_spoof,56602,0.0011527383467182,0.0009618115727789,-0.0905045345425605,-35.3632621,149.1652375,-0.006,-0.01,0.01,0.0,-9.94216970866546e-05,9.44492785492912e-05,0.0,1000,1000,1000,1000,12600,0,0.0027580154128372,0.0026294719427824,0.0027786518912762,10,{}
attack_corridor_base_8,1,pos_yawl_spoof,56852,0.0011381834046915,0.0009591942653059,-0.0905950516462326,-35.3632621,149.1652375,-0.006,-0.01,0.01,0.0,-9.942175529431552e-05,9.444930765312164e-05,0.0,1000,1000,1000,1000,12600,0,0.0028881374746561,0.0027613772545009,0.0027724271640181,10,{}
attack_corridor_base_8,1,pos_yawl_spoof,57102,0.0011330320267006,0.0009540771134197,-0.0907068997621536,-35.3632621,149.1652375,-0.006,-0.01,0.01,0.0,-9.942178439814596e-05,9.444930037716404e-05,0.0,1000,1000,1000,1000,12600,0,0.0027850053738802,0.0029907100833952,0.0028259379323571,10,{}
attack_corridor_base_8,1,pos_yawl_spoof,57352,0.0011409764410927,0.0009569668327458,-0.0908282175660133,-35.3632621,149.1652375,-0.006,-0.01,0.01,0.0,-9.942182805389166e-05,9.444933675695212e-05,0.0,1000,1000,1000,1000,12600,0,0.0028156011831015,0.0029023857787251,0.0027748784050345,10,{}
attack_corridor_base_8,1,pos_yawl_spoof,57604,0.0011460911482572,0.0009644821984693,-0.0909413918852806,-35.3632622,149.1652375,-0.006,-0.01,0.01,0.0,-9.942182805389166e-05,9.444937313674018e-05,0.0,1000,1000,1000,1000,12600,0,0.0026873731985688,0.0026435637846589,0.0024666949175298,10,{}
attack_corridor_base_8,1,pos_yawl_spoof,57854,0.0011466119904071,0.0009625084348954,-0.0910528376698494,-35.3632621,149.1652375,-0.006,-0.01,0.01,0.0,-9.942181350197644e-05,9.444936586078256e-05,0.0,1000,1000,1000,1000,12600,0,0.0026802695356309,0.0025301838759332,0.0026132501661777,10,{}
attack_corridor_base_8,1,pos_yawl_spoof,58104,0.001150238327682,0.0009602914215065,-0.0911595895886421,-35.3632621,149.1652375,-0.006,-0.01,0.01,0.0,-9.942185715772212e-05,9.444939496461302e-05,0.0,1000,1000,1000,1000,12600,0,0.0026224867906421,0.0027788155712187,0.0025710419286042,10,{}
attack_corridor_base_8,1,pos_yawl_spoof,58354,0.0011542538413777,0.0009660207433626,-0.0912773832678794,-35.3632621,149.1652375,-0.006,-0.01,0.01,0.0,-9.942185715772212e-05,9.44493804126978e-05,0.0,1000,1000,1000,1000,12600,0,0.0030612251721322,0.0027113177347928,0.0027572161052376,10,{}
attack_corridor_base_8,1,pos_yawl_spoof,58604,0.0011546610621735,0.0009717983193695,-0.0913808494806289,-35.3632622,149.1652375,-0.006,-0.01,0.01,0.0,-9.942191536538304e-05,9.444943134440108e-05,0.0,1000,1000,1000,1000,12600,0,0.0031334203667938,0.0030815294012427,0.0028623209800571,10,{}
attack_corridor_base_8,1,pos_yawl_spoof,58852,0.0011538100661709,0.0009683509124442,-0.0914966091513633,-35.3632621,149.1652375,-0.006,-0.01,0.01,0.0,-9.942192991729826e-05,9.44494386203587e-05,0.0,1000,1000,1000,1000,12600,0,0.0029170187190175,0.002799586392939,0.0025556487962603,10,{}
attack_corridor_base_8,1,pos_yawl_spoof,59102,0.0011551947100088,0.0009697854402475,-0.0916008278727531,-35.3632621,149.1652375,-0.006,-0.01,0.01,0.0,-9.942192991729826e-05,9.444942406844348e-05,0.0,1000,1000,1000,1000,12600,0,0.0026698396541178,0.0026876684278249,0.0025346761103719,10,{}
attack_corridor_base_8,1,pos_yawl_spoof,59352,0.0011575749376788,0.0009746067225933,-0.0917069315910339,-35.3632621,149.1652375,-0.006,-0.01,0.01,0.0,-9.942192991729826e-05,9.44493804126978e-05,0.0,1000,1000,1000,1000,12600,0,0.0029575512744486,0.0025698083918541,0.0026848041452467,10,{}
attack_corridor_base_8,1,pos_yawl_spoof,59604,0.0011625707847997,0.0009805090958252,-0.0918111354112625,-35.3632622,149.1652375,-0.006,-0.01,0.01,0.0,-9.942194446921349e-05,9.444936586078256e-05,0.0,1000,1000,1000,1000,12600,0,0.0030077449046075,0.0027688895352184,0.0027435037773102,10,{}
attack_corridor_base_8,1,pos_yawl_spoof,59854,0.0011516455560922,0.0009753592894412,-0.0919136852025985,-35.3632621,149.1652375,-0.006,-0.01,0.01,0.0,-9.942198812495916e-05,9.444939496461302e-05,0.0,1000,1000,1000,1000,12600,0,0.0026662040036171,0.0028036059811711,0.002736208261922,10,{}
attack_corridor_base_8,1,pos_yawl_spoof,60104,0.0011504569556564,0.0009703016839921,-0.0920111387968063,-35.3632621,149.1652375,-0.006,-0.01,0.01,0.0,-9.94219954009168e-05,9.444936586078256e-05,0.0,1000,1000,1000,1000,12600,0,0.0030158718582242,0.0027474574744701,0.002700456418097,10,{}
attack_corridor_base_8,1,pos_yawl_spoof,60354,0.0011522154090926,0.0009683694806881,-0.0921169221401214,-35.3632622,149.1652375,-0.006,-0.01,0.01,0.0,-9.942202450474724e-05,9.444936586078256e-05,0.0,1000,1000,1000,1000,12600,0,0.0026820385828614,0.0027765049599111,0.0027320347726345,10,{}
attack_corridor_base_8,1,pos_yawl_spoof,60604,0.0011581178987398,0.0009714451734907,-0.0922129899263382,-35.3632622,149.1652375,-0.006,-0.01,0.01,0.0,-9.942203905666248e-05,9.444936586078256e-05,0.0,1000,1000,1000,1000,12600,0,0.0027134283445775,0.0028823455795645,0.002858642488718,10,{}
attack_corridor_base_8,1,pos_yawl_spoof,60852,0.0011499288957566,0.0009583971113897,-0.0923200994729995,-35.3632621,149.1652375,-0.006,-0.01,0.01,0.0,-9.942202450474724e-05,9.444935858482496e-05,0.0,1000,1000,1000,1000,12600,0,0.002807357115671,0.0027939474675804,0.0025490240659564,10,{}
attack_corridor_base_8,1,pos_yawl_spoof,61102,0.0011544747976586,0.0009527129586786,-0.0924167707562446,-35.3632622,149.1652375,-0.006,-0.01,0.01,0.0,-9.94220536085777e-05,9.44493804126978e-05,0.0,1000,1000,1000,1000,12600,0,0.0025106337852776,0.0029175973031669,0.0027395230717957,10,{}
attack_corridor_base_8,1,pos_yawl_spoof,61352,0.0011564003070816,0.0009571516420692,-0.0925113782286644,-35.3632622,149.1652375,-0.006,-0.01,0.01,0.0,-9.942203905666248e-05,9.444936586078256e-05,0.0,1000,1000,1000,1000,12600,0,0.0030031965579837,0.0030564833432435,0.0029761821497231,10,{}
attack_corridor_base_8,1,pos_yawl_spoof,61602,0.0011645826743915,0.0009608317050151,-0.0926024466753006,-35.3632622,149.1652375,-0.006,-0.01,0.01,0.0,-9.942208271240816e-05,9.444936586078256e-05,0.0,1000,1000,1000,1000,12600,0,0.0027469261549413,0.0028226263821125,0.0029256776906549,10,{}
attack_corridor_base_8,1,pos_yawl_spoof,61854,0.0011553490767255,0.0009530881070531,-0.0926798060536384,-35.3632622,149.1652375,-0.006,-0.01,0.01,0.0,-9.942209726432338e-05,9.444940951652824e-05,0.0,1000,1000,1000,1000,12600,0,0.0029032113961875,0.0028136840555816,0.0030312021262943,10,{}
attack_corridor_base_8,1,pos_yawl_spoof,62104,0.0011572584044188,0.0009556295699439,-0.0927682295441627,-35.3632621,149.1652375,-0.006,-0.01,0.01,0.0,-9.942209726432338e-05,9.444942406844348e-05,0.0,1000,1000,1000,1000,12600,0,0.0025297517422586,0.0028320522978901,0.0028145094402134,10,{}
attack_corridor_base_8,1,pos_yawl_spoof,62354,0.0011614286340773,0.0009541811887174,-0.0928641632199287,-35.3632622,149.1652375,-0.006,-0.01,0.01,0.0,-9.942213364411144e-05,9.444946044823156e-05,0.0,1000,1000,1000,1000,12600,0,0.0026750296819955,0.002683610888198,0.0026348787359893,10,{}
attack_corridor_base_8,1,pos_yawl_spoof,62604,0.0011635102564468,0.000963757163845,-0.0929483622312545,-35.3632622,149.1652375,-0.006,-0.01,0.01,0.0,-9.942212636815384e-05,9.444947500014678e-05,0.0,1000,1000,1000,1000,12600,0,0.0026495237834751,0.0029550199396908,0.0028511269483715,10,{}
attack_corridor_base_8,1,pos_yawl_spoof,62852,0.0011607281630858,0.0009621633216738,-0.0930438265204429,-35.3632621,149.1652375,-0.006,-0.01,0.01,0.0,-9.942213364411144e-05,9.4449489552062e-05,0.0,1000,1000,1000,1000,12600,0,0.0026120177935808,0.0031740327831357,0.0026498541701585,10,{}
attack_corridor_base_8,1,pos_yawl_spoof,63102,0.0011599001009017,0.0009674552711658,-0.0931378230452537,-35.3632621,149.1652375,-0.006,-0.01,0.01,0.0,-9.94221118162386e-05,9.44494386203587e-05,0.0,1000,1000,1000,1000,12600,0,0.0029320276807993,0.0028574655298143,0.002698762807995,10,{}
attack_corridor_base_8,1,pos_yawl_spoof,63352,0.0011587125482037,0.0009649535641074,-0.0932362824678421,-35.3632622,149.1652375,-0.006,-0.01,0.01,0.0,-9.9422104540281e-05,9.444940951652824e-05,0.0,1000,1000,1000,1000,12600,0,0.0027855681255459,0.0026213510427623,0.0028815087862312,10,{}
attack_corridor_base_8,1,pos_yawl_spoof,63602,0.001161738182418,0.0009743143455125,-0.0933159589767456,-35.3632622,149.1652375,-0.006,-0.01,0.01,0.0,-9.9422104540281e-05,9.44493804126978e-05,0.0,1000,1000,1000,1000,12600,0,0.0029318092856556,0.0025605331175029,0.0025548480916768,10,{}
attack_corridor_base_8,1,pos_yawl_spoof,63854,0.0011584690073505,0.0009707882418297,-0.0934023857116699,-35.3632622,149.1652375,-0.006,-0.01,0.01,0.0,-9.942209726432338e-05,9.444941679248586e-05,0.0,1000,1000,1000,1000,12600,0,0.0029751271940767,0.002937352284789,0.0029288255609571,10,{}
attack_corridor_base_8,1,pos_yawl_spoof,64104,0.0011628748616203,0.0009624826489016,-0.0934859365224838,-35.3632622,149.1652375,-0.006,-0.01,0.01,0.0,-9.942211909219624e-05,9.444942406844348e-05,0.0,1000,1000,1000,1000,12600,0,0.0027495338581502,0.00301188766025,0.0031028869561851,10,{}
attack_corridor_base_8,1,pos_yawl_spoof,64354,0.0011642989702522,0.0009641905198805,-0.09357450902462,-35.3632622,149.1652375,-0.006,-0.01,0.01,0.0,-9.94221554719843e-05,9.44494386203587e-05,0.0,1000,1000,1000,1000,12600,0,0.0029476762283593,0.0028871356043964,0.0028524741064757,10,{}
attack_corridor_base_8,1,pos_yawl_spoof,64604,0.0011741885682567,0.0009669042192399,-0.093657799065113,-35.3632622,149.1652375,-0.006,-0.01,0.01,0.0,-9.942217002389953e-05,9.444946044823156e-05,0.0,1000,1000,1000,1000,12600,0,0.0028981291688978,0.0029549153987318,0.002889412920922,10,{}
attack_corridor_base_8,1,pos_yawl_spoof,64854,0.0011717686429619,0.0009591298294253,-0.0937452092766761,-35.3632622,149.1652375,-0.006,-0.01,0.01,0.0,-9.94222064036876e-05,9.444946044823156e-05,0.0,1000,1000,1000,1000,12600,0,0.0028465164359658,0.0029433602467179,0.0028426800854504,10,{}
attack_corridor_base_8,1,pos_yawl_spoof,65102,0.0011641990859061,0.0009521534666419,-0.0938275754451751,-35.3632621,149.1652375,-0.006,-0.01,0.01,0.0,-9.942217729985714e-05,9.444944589631632e-05,0.0,1000,1000,1000,1000,12600,0,0.0029171127825975,0.0030844872817397,0.0027274095918983,10,{}
attack_corridor_base_8,1,pos_yawl_spoof,65352,0.0011632529785856,0.0009587622480466,-0.093912698328495,-35.3632622,149.1652375,-0.006,-0.01,0.01,0.0,-9.942219912772998e-05,9.444947500014678e-05,0.0,1000,1000,1000,1000,12600,0,0.0028165739495307,0.0026213927194476,0.0029441467486321,10,{}
attack_corridor_base_8,1,pos_yawl_spoof,65602,0.0011653007240965,0.0009651315049268,-0.0939952954649925,-35.3632622,149.1652375,-0.006,-0.01,0.01,0.0,-9.942222095560282e-05,9.444951137993483e-05,0.0,1000,1000,1000,1000,12600,0,0.0027411801274865,0.0025626991409808,0.0027700325008481,10,{}
attack_corridor_base_8,1,pos_yawl_spoof,65854,0.0011631697416305,0.0009609948610886,-0.0940816402435302,-35.3632621,149.1652375,-0.006,-0.01,0.01,0.0,-9.942218457581475e-05,9.4449489552062e-05,0.0,1000,1000,1000,1000,12600,0,0.0027194644790142,0.0029938512016087,0.0026798939798027,10,{}
attack_corridor_base_8,1,pos_yawl_spoof,66104,0.0011659893207252,0.0009625441743992,-0.0941591933369636,-35.3632621,149.1652375,-0.006,-0.01,0.01,0.0,-9.942219912772998e-05,9.4449489552062e-05,0.0,1000,1000,1000,1000,12600,0,0.0026407046243548,0.0029035003390163,0.0028565218672156,10,{}
attack_corridor_base_8,1,pos_yawl_spoof,66354,0.0011718731839209,0.0009609108092263,-0.0942363440990448,-35.3632621,149.1652375,-0.006,-0.01,0.01,0.0,-9.942219912772998e-05,9.444950410397725e-05,0.0,1000,1000,1000,1000,12600,0,0.0027958459686487,0.0028630448505282,0.0027418937534093,10,{}
attack_corridor_base_8,1,pos_yawl_spoof,66604,0.0011726110242307,0.0009753918275237,-0.09431953728199,-35.3632621,149.1652375,-0.006,-0.01,0.01,0.0,-9.942219912772998e-05,9.444949682801962e-05,0.0,1000,1000,1000,1000,12600,0,0.0029651187360286,0.0026440012734383,0.0026662480086088,10,{}
attack_corridor_base_8,1,pos_yawl_spoof,66854,0.0011725417571142,0.0009709883597679,-0.094390332698822,-35.3632621,149.1652375,-0.006,-0.01,0.01,0.0,-9.94221554719843e-05,9.44494822761044e-05,0.0,1000,1000,1000,1000,12600,0,0.0024607828818261,0.0028213772457093,0.0029791288543492,10,{}
attack_corridor_base_8,1,pos_yawl_spoof,67102,0.0011723568895831,0.0009706027340143,-0.0944502353668212,-35.3632621,149.1652375,-0.006,-0.01,0.01,0.0,-9.942216274794192e-05,9.444951137993483e-05,0.0,1000,1000,1000,1000,12600,0,0.0029867633711546,0.0026000149082392,0.003120390465483,10,{}
attack_corridor_base_8,1,pos_yawl_spoof,67352,0.0011733210412785,0.00097326078685,-0.0945143178105354,-35.3632621,149.1652375,-0.006,-0.01,0.01,0.0,-9.94221554719843e-05,9.4449489552062e-05,0.0,1000,1000,1000,1000,12600,0,0.0029602232389152,0.0028745732270181,0.0029355392325669,10,{}
attack_corridor_base_8,1,pos_yawl_spoof,67602,0.0011776604223996,0.0009827303001657,-0.0945861861109733,-35.3632622,149.1652375,-0.006,-0.01,0.01,0.0,-9.942222095560282e-05,9.4449489552062e-05,0.0,1000,1000,1000,1000,12600,0,0.0025624104309827,0.0029712449759244,0.0027293353341519,10,{}
attack_corridor_base_8,1,pos_yawl_spoof,67852,0.001176556572318,0.0009819908300414,-0.094666451215744,-35.3632621,149.1652375,-0.006,-0.01,0.01,0.0,-9.942214092006908e-05,9.444947500014678e-05,0.0,1000,1000,1000,1000,12600,0,0.002663783263415,0.002971030306071,0.002750034444034,10,{}
attack_corridor_base_8,1,pos_yawl_spoof,68104,0.0011775109451264,0.0009816321544349,-0.0947329103946685,-35.3632621,149.1652375,-0.006,-0.01,0.01,0.0,-9.942214092006908e-05,9.444949682801962e-05,0.0,1000,1000,1000,1000,12600,0,0.0031104327645152,0.0026905469130724,0.002464392222464,10,{}
attack_corridor_base_8,1,pos_yawl_spoof,68354,0.0011824790854007,0.0009904473554342,-0.0948094353079795,-35.3632622,149.1652375,-0.006,-0.01,0.01,0.0,-9.942217002389953e-05,9.44494822761044e-05,0.0,1000,1000,1000,1000,12600,0,0.0030359053052961,0.002787479199469,0.0028328639455139,10,{}
attack_corridor_base_8,1,pos_yawl_spoof,68604,0.0011907374719157,0.0009965590434148,-0.0948782339692115,-35.3632622,149.1652375,-0.006,-0.01,0.01,0.0,-9.942212636815384e-05,9.44494386203587e-05,0.0,1000,1000,1000,1000,12600,0,0.0028010692913085,0.0031360036227852,0.0030197782907634,10,{}
attack_corridor_base_8,1,pos_yawl_spoof,68854,0.0011893288465216,0.0009868517518043,-0.0949513912200927,-35.3632621,149.1652375,0.003,-0.01,0.01,0.0,-9.942212636815384e-05,9.444939496461302e-05,0.0,1000,1000,1000,1000,12600,0,0.0027713514864444,0.0026820129714906,0.0027829583268612,10,{}
attack_corridor_base_8,1,pos_yawl_spoof,69102,0.001193240052089,0.0009880393045023,-0.0950200855731964,-35.3632621,149.1652375,0.003,-0.01,0.01,0.0,-9.445305477129295e-05,8.972886280389503e-05,0.0,1000,1000,1000,1000,12600,2,0.0027856668457388,0.0026549294125288,0.0025459681637585,10,{}
attack_corridor_base_8,1,pos_yawl_spoof,69352,0.0012118605663999,0.0010015367297455,-0.0950949862599372,-35.3632621,149.1652375,0.003,-0.01,0.01,0.0,-9.445306204725056e-05,8.972888463176787e-05,0.0,1000,1000,1000,1000,12600,0,0.0029327464289963,0.002788464538753,0.0028055456932634,10,{}
attack_corridor_base_8,1,pos_yawl_spoof,69602,0.001237190212123,0.0010293738450855,-0.0951644256711006,-35.3632621,149.1652375,0.003,0.0,0.01,0.0,-9.445306204725056e-05,8.972886280389503e-05,0.0,1000,1000,1000,1000,12600,0,0.0031144137028604,0.003056276589632,0.002839314751327,10,{}
attack_corridor_base_8,1,pos_yawl_spoof,69852,0.001277977367863,0.0010750520741567,-0.0952358320355415,-35.3632621,149.1652375,0.003,0.0,0.0,0.0,-9.445306204725056e-05,8.972884097602218e-05,0.0,1000,1000,1000,1000,12600,0,0.0026676971465349,0.0029931874014437,0.0029967813752591,10,{}
attack_corridor_base_8,1,pos_yawl_spoof,70104,0.001332456129603,0.0011297994060441,-0.0952825099229812,-35.3632621,149.1652375,0.003,0.0,0.0,0.0,-9.445303294342013e-05,8.972884097602218e-05,0.0,1000,1000,1000,1000,12600,0,0.0026382678188383,0.0026975576765835,0.0027242819778621,10,{}
attack_corridor_base_8,1,pos_yawl_spoof,70354,0.0013956283219158,0.0011870046146214,-0.0953669473528862,-35.3632621,149.1652375,0.003,0.0,0.0,0.0,-9.44530256674625e-05,8.972881914814934e-05,0.0,1000,1000,1000,1000,12600,0,0.0028938932809978,0.0027414935175329,0.0027137075085192,10,{}
attack_corridor_base_8,1,pos_yawl_spoof,70604,0.0014610649086534,0.0012582152849063,-0.0954357832670211,-35.3632621,149.1652375,0.003,0.0,0.0,0.0,-9.445303294342013e-05,8.972883370006457e-05,0.0,1000,1000,1000,1000,12600,0,0.0026867515407502,0.0026574579533189,0.0029061026871204,10,{}
attack_corridor_base_8,1,pos_yawl_spoof,70854,0.0015347697772085,0.0013284689048305,-0.0955249890685081,-35.3632621,149.1652375,0.003,0.0,0.0,0.0,-9.44530256674625e-05,8.972877549240366e-05,0.0,1000,1000,1000,1000,12600,0,0.0027269904967397,0.0025620204396545,0.0030829808674752,10,{}
