flight_id,label,attack_type,timestamp,att_roll,att_pitch,att_yaw,pos_lat,pos_lon,pos_alt_rel,pos_vx,pos_vy,pos_vz,nav_roll,nav_pitch,nav_alt_error,servo1_raw,servo2_raw,servo3_raw,servo4_raw,sys_voltage_battery,sys_load,vib_x,vib_y,vib_z,gps_sats_visible,attack_params_json
attack_corridor_base_5,1,pos_spoof,10131,0.000190783801372163,-4.1254192183259875e-05,-0.3456103503704071,-35.3632621,149.1652374,0.0,0.0,0.0,-0.03,-9.942168253473938e-05,9.444944589631632e-05,0.0,1000,1000,1000,1000,12600,0,0.002850537421181798,0.002702622674405575,0.0027267306577414274,10,{}
attack_corridor_base_5,1,pos_spoof,10464,0.00019860046450048685,-2.92604963760823e-05,-0.31150880455970764,-35.3632621,149.1652374,0.0,0.0,0.0,-0.03,-9.942168253473938e-05,9.444944589631632e-05,0.0,1000,1000,1000,1000,12600,0,0.002840889384970069,0.0029403960797935724,0.0028745271265506744,10,{}
attack_corridor_base_5,1,pos_spoof,10797,0.00020068485173396766,-2.0981273337383755e-05,-0.2820831835269928,-35.3632621,149.1652374,0.0,0.0,0.0,-0.03,-9.942171163856983e-05,9.444939496461302e-05,0.0,1000,1000,1000,1000,12600,0,0.0028479115571826696,0.0026463516987860203,0.0028871886897832155,10,{}
attack_corridor_base_5,1,pos_spoof,11129,0.00020406930707395077,-1.4119773368292954e-05,-0.2563699185848236,-35.3632621,149.1652374,0.0,0.0,0.0,-0.03,-9.942161705112085e-05,9.444937313674018e-05,0.0,1000,1000,1000,1000,12600,0,0.0026509808376431465,0.002560526365414262,0.002795702777802944,10,{}
attack_corridor_base_5,1,pos_spoof,11462,0.0002100595593219623,-2.101921609209967e-06,-0.22469112277030945,-35.3632621,149.1652374,0.0,0.0,0.0,-0.03,-9.942161705112085e-05,9.444937313674018e-05,0.0,1000,1000,1000,1000,12600,0,0.0029241256415843964,0.0026797272730618715,0.0029683923348784447,10,{}
attack_corridor_base_5,1,pos_spoof,11796,0.00021624645160045475,1.4143118960419088e-06,-0.2034676969051361,-35.3632621,149.1652374,0.0,0.0,0.0,-0.03,-9.942160249920562e-05,9.444940951652825e-05,0.0,1000,1000,1000,1000,12600,0,0.002958551747724414,0.0027040925342589617,0.002456624759361148,10,{}
attack_corridor_base_5,1,pos_spoof,12129,0.0002212340186815709,1.5443463780684397e-05,-0.18461133539676666,-35.3632621,149.1652374,0.0,0.0,0.0,-0.02,-9.942162432707846e-05,9.44493876886554e-05,0.0,1000,1000,1000,1000,12600,0,0.0029507866129279137,0.0029635317623615265,0.0029467155691236258,10,{}
attack_corridor_base_5,1,pos_spoof,12461,0.00023138026881497353,2.360602047701832e-05,-0.16256381571292877,-35.3632621,149.1652374,0.0,0.0,0.0,-0.02,-9.942162432707846e-05,9.44493876886554e-05,0.0,1000,1000,1000,1000,12600,0,0.0027979575097560883,0.0030823396518826485,0.0027866146992892027,10,{}
attack_corridor_base_5,1,pos_spoof,12794,0.00023581244749948382,3.4510972909629345e-05,-0.14812089502811432,-35.3632621,149.1652374,0.0,0.0,0.0,-0.02,-9.942168253473938e-05,9.444937313674018e-05,0.0,1000,1000,1000,1000,12600,0,0.00300795235671103,0.002780160866677761,0.0029166138265281916,10,{}
attack_corridor_base_5,1,pos_spoof,13127,0.00024649911210872233,3.608068436733447e-05,-0.1353055089712143,-35.3632621,149.1652374,0.0,0.0,0.0,-0.02,-9.942163887899369e-05,9.444938041269779e-05,0.0,1000,1000,1000,1000,12600,0,0.0028919060714542866,0.002654594136402011,0.002815959742292762,10,{}
attack_corridor_base_5,1,pos_spoof,13462,0.000259306252701208,4.596794315148145e-05,-0.12060821801424026,-35.3632621,149.1652374,0.0,0.0,0.0,-0.01,-9.942163887899369e-05,9.444938041269779e-05,0.0,1000,1000,1000,1000,12600,0,0.002544989576563239,0.0026058927178382874,0.0027861434500664473,10,{}
attack_corridor_base_5,1,pos_spoof,13794,0.00026686632190831006,5.6463693908881396e-05,-0.11113427579402924,-35.3632621,149.1652374,0.0,0.0,0.0,-0.01,-9.942161705112085e-05,9.444940224057063e-05,0.0,1000,1000,1000,1000,12600,0,0.002702118828892708,0.002676385687664151,0.0025440664030611515,10,{}
attack_corridor_base_5,1,pos_spoof,14126,0.000276422593742609,6.451611261582002e-05,-0.1028292328119278,-35.3632621,149.1652374,0.0,0.0,0.0,-0.01,-9.942151518771425e-05,9.444933675695211e-05,0.0,1000,1000,1000,1000,12600,0,0.0026966058649122715,0.0026083693373948336,0.0029208336491137743,10,{}
attack_corridor_base_5,1,pos_spoof,14459,0.0002858150692190975,7.791647658450529e-05,-0.09336380660533905,-35.3632621,149.1652374,0.0,0.0,0.0,-0.01,-9.942151518771425e-05,9.444933675695211e-05,0.0,1000,1000,1000,1000,12600,0,0.0028426784556359053,0.002963791834190488,0.002461099997162819,10,{}
attack_corridor_base_5,1,pos_spoof,14794,0.0002999539428856224,8.934307697927579e-05,-0.08729028701782227,-35.3632621,149.1652374,0.0,0.0,0.0,-0.01,-9.942152973962948e-05,9.444934403290972e-05,0.0,1000,1000,1000,1000,12600,0,0.002754112472757697,0.002664405619725585,0.0027573753613978624,10,{}
attack_corridor_base_5,1,pos_spoof,15357,0.0003206520341336727,0.00010651929187588394,-0.07719778269529343,-35.3632621,149.1652374,0.0,0.0,0.0,-0.01,-9.942152973962948e-05,9.444938041269779e-05,0.0,1000,1000,1000,1000,12600,0,0.0027196910232305527,0.002688135951757431,0.0028395731933414936,10,{}
attack_corridor_base_5,1,pos_spoof,15607,0.00033108144998550415,0.00011128994083264843,-0.0738343894481659,-35.3632621,149.1652374,0.0,0.0,0.0,-0.01,-9.942150063579902e-05,9.444935130886734e-05,0.0,1000,1000,1000,1000,12600,0,0.00278563448227942,0.002713376423344016,0.0026358345057815313,10,{}
attack_corridor_base_5,1,pos_spoof,15859,0.0003363890282344073,0.00012000498827546835,-0.07087501883506775,-35.3632621,149.1652374,0.0,0.0,0.0,0.0,-9.942148608388379e-05,9.444936586078256e-05,0.0,1000,1000,1000,1000,12600,0,0.00278563448227942,0.002713376423344016,0.0026358345057815313,10,{}
attack_corridor_base_5,1,pos_spoof,16109,0.00034575845347717404,0.00012983879423700273,-0.06822995096445084,-35.3632621,149.1652374,0.0,0.0,0.0,0.0,-9.942147153196856e-05,9.444935858482495e-05,0.0,1000,1000,1000,1000,12600,0,0.0028080714400857687,0.0026114170905202627,0.002837930805981159,10,{}
attack_corridor_base_5,1,pos_spoof,16359,0.00035378028405830264,0.0001375292195007205,-0.06591206789016724,-35.3632621,149.1652374,0.0,0.0,0.0,0.0,-9.942150791175663e-05,9.444938041269779e-05,0.0,1000,1000,1000,1000,12600,0,0.003005676669999957,0.0025283293798565865,0.0028903698548674583,10,{}
attack_corridor_base_5,1,pos_spoof,16609,0.00036622723564505577,0.0001452677242923528,-0.06388644129037857,-35.3632621,149.1652374,0.0,0.0,0.0,0.0,-9.942150791175663e-05,9.444938041269779e-05,0.0,1000,1000,1000,1000,12600,0,0.0030400105752050877,0.002717197174206376,0.0027263560332357883,10,{}
attack_corridor_base_5,1,pos_spoof,16859,0.0003762731794267893,0.00015426664322149009,-0.062099505215883255,-35.3632621,149.1652374,0.0,0.0,0.0,0.0,-9.942150791175663e-05,9.444940951652825e-05,0.0,1000,1000,1000,1000,12600,0,0.0030400105752050877,0.002717197174206376,0.0027263560332357883,10,{}
attack_corridor_base_5,1,pos_spoof,17107,0.0003876704431604594,0.00015917117707431316,-0.06052391231060028,-35.3632621,149.1652374,0.0,0.0,0.0,0.0,-9.942150791175663e-05,9.444940951652825e-05,0.0,1000,1000,1000,1000,12600,0,0.002957254182547331,0.002739134943112731,0.0027730863075703382,10,{}
attack_corridor_base_5,1,pos_spoof,17592,0.00039584419573657215,0.00016780977603048086,-0.059199802577495575,-35.3632621,149.1652374,0.0,0.0,0.0,0.0,-9.942155884345993e-05,9.444939496461302e-05,0.0,1000,1000,1000,1000,12600,0,0.002934748539701104,0.0029549708124250174,0.002999847522005439,10,{}
attack_corridor_base_5,1,pos_spoof,17924,0.0004185313009656966,0.0001905870158225298,-0.0567781925201416,-35.3632621,149.1652374,0.0,0.0,0.0,0.0,-9.942162432707846e-05,9.444935130886734e-05,0.0,1000,1000,1000,1000,12600,0,0.002768112113699317,0.0028232138138264418,0.0025726144667714834,10,{}
attack_corridor_base_5,1,pos_spoof,18256,0.0004282088193576783,0.00020395382307469845,-0.05577225610613823,-35.3632621,149.1652374,0.0,0.0,0.0,0.0,-9.942162432707846e-05,9.444935130886734e-05,0.0,1000,1000,1000,1000,12600,0,0.0027693535666912794,0.0029354537837207317,0.0028844233602285385,10,{}
attack_corridor_base_5,1,pos_spoof,18589,0.0004406204679980874,0.00021591880067717284,-0.054938483983278275,-35.3632621,149.1652374,0.0,0.0,0.0,0.0,-9.942168981069699e-05,9.444934403290972e-05,0.0,1000,1000,1000,1000,12600,0,0.002762380987405777,0.003128542099148035,0.002929963171482086,10,{}
attack_corridor_base_5,1,pos_spoof,18924,0.0004611262120306492,0.00023472579778172076,-0.05410345643758774,-35.3632621,149.1652374,0.0,0.0,0.0,0.0,-9.942162432707846e-05,9.444929310120642e-05,0.0,1000,1000,1000,1000,12600,0,0.0030024913139641285,0.0028258629608899355,0.0028730572666972876,10,{}
attack_corridor_base_5,1,pos_spoof,19257,0.00047932396410033107,0.0002489401667844504,-0.05366608500480652,-35.3632621,149.1652374,0.0,0.0,0.0,0.0,-9.942162432707846e-05,9.444929310120642e-05,0.0,1000,1000,1000,1000,12600,0,0.002679915400221944,0.0030346442945301533,0.0026607734616845846,10,{}
attack_corridor_base_5,1,pos_spoof,19589,0.0004884033696725965,0.00025902834022417665,-0.05329373851418495,-35.3632621,149.1652374,0.0,0.0,0.0,0.0,-9.942161705112085e-05,9.444935858482495e-05,0.0,1000,1000,1000,1000,12600,0,0.0027454476803541183,0.002804393181577325,0.0027729978319257498,10,{}
attack_corridor_base_5,1,pos_spoof,19922,0.0005143260932527483,0.0002775028406176716,-0.05286508798599243,-35.3632621,149.1652374,0.0,0.0,0.0,0.0,-9.942168253473938e-05,9.444936586078256e-05,0.0,1000,1000,1000,1000,12600,0,0.0029708531219512224,0.0027593544218689203,0.002827826188877225,10,{}
attack_corridor_base_5,1,pos_spoof,20254,0.0005297760362736881,0.0002998405252583325,-0.052586641162633896,-35.3632621,149.1652374,-0.006,0.0,0.0,0.0,-9.942168253473938e-05,9.444936586078256e-05,0.0,1000,1000,1000,1000,12600,0,0.0028423776384443045,0.0029304232448339462,0.00270438683219254,10,{}
attack_corridor_base_5,1,pos_spoof,20589,0.0005456805229187012,0.00031359936110675335,-0.05256342887878418,-35.3632621,149.1652374,-0.008,0.0,0.0,0.0,-9.942172619048506e-05,9.444936586078256e-05,0.0,1000,1000,1000,1000,12600,0,0.002685528015717864,0.0028182161040604115,0.00255887140519917,10,{}
attack_corridor_base_5,1,pos_spoof,20921,0.000566767412237823,0.0003337626694701612,-0.05265827476978302,-35.3632621,149.1652374,-0.007,0.0,0.0,0.0,-9.94217480183579e-05,9.444939496461302e-05,0.0,1000,1000,1000,1000,12600,0,0.002884169341996312,0.002804918447509408,0.003030151128768921,10,{}
attack_corridor_base_5,1,pos_spoof,21254,0.0005799077916890383,0.00034744993899948895,-0.052779536694288254,-35.3632621,149.1652374,-0.005,0.0,0.0,0.0,-9.94217480183579e-05,9.444939496461302e-05,0.0,1000,1000,1000,1000,12600,0,0.002984108868986368,0.0028558687772601843,0.0028187616262584925,10,{}
attack_corridor_base_5,1,pos_spoof,21587,0.0005964208394289017,0.0003659991198219359,-0.05298348888754845,-35.3632621,149.1652374,-0.004,0.0,0.0,0.0,-9.942176257027313e-05,9.444935858482495e-05,0.0,1000,1000,1000,1000,12600,0,0.002728792140260339,0.002968920860439539,0.002734505571424961,10,{}
attack_corridor_base_5,1,pos_spoof,21919,0.00062373565742746,0.00038190162740647793,-0.05327653884887695,-35.3632621,149.1652374,-0.002,0.0,0.0,0.0,-9.942179167410359e-05,9.444935130886734e-05,0.0,1000,1000,1000,1000,12600,0,0.0029967743903398514,0.002866404363885522,0.0027804633136838675,10,{}
attack_corridor_base_5,1,pos_spoof,22254,0.0006418157136067748,0.00040100677870213985,-0.053559768944978714,-35.3632621,149.1652374,-0.001,0.0,0.01,0.0,-9.942179167410359e-05,9.444935130886734e-05,0.0,1000,1000,1000,1000,12600,0,0.0027492486406117678,0.0025744338054209948,0.0027762826066464186,10,{}
attack_corridor_base_5,1,pos_spoof,22586,0.0006588071119040251,0.0004209057951811701,-0.05386153608560562,-35.3632621,149.1652374,0.0,0.0,0.01,0.0,-9.942186443367973e-05,9.444946044823155e-05,0.0,1000,1000,1000,1000,12600,0,0.002793998457491398,0.0027653402648866177,0.002815972315147519,10,{}
attack_corridor_base_5,1,pos_spoof,22919,0.0006834995001554489,0.0004490604333113879,-0.05433324724435806,-35.3632621,149.1652374,0.0,0.0,0.01,0.0,-9.942196629708633e-05,9.444946772418916e-05,0.0,1000,1000,1000,1000,12600,0,0.0026931664906442165,0.002420287812128663,0.0030422683339565992,10,{}
attack_corridor_base_5,1,pos_spoof,23251,0.0006985394866205752,0.000464209500933066,-0.054712336510419846,-35.3632621,149.1652374,0.001,-0.01,0.01,0.0,-9.942196629708633e-05,9.444946772418916e-05,0.0,1000,1000,1000,1000,12600,0,0.003146903123706579,0.0028325808234512806,0.0028595621697604656,10,{}
attack_corridor_base_5,1,pos_spoof,23584,0.0007134691695682704,0.00048542203148826957,-0.05514650046825409,-35.3632621,149.1652374,0.001,-0.01,0.01,0.0,-9.942188626155257e-05,9.444942406844348e-05,0.0,1000,1000,1000,1000,12600,0,0.0027548158541321754,0.002888974966481328,0.002582152606919408,10,{}
attack_corridor_base_5,1,pos_spoof,23917,0.000735149544198066,0.0005050941836088896,-0.05566631257534027,-35.3632621,149.1652374,0.002,-0.01,0.01,0.0,-9.942182805389166e-05,9.444938041269779e-05,0.0,1000,1000,1000,1000,12600,0,0.002455350011587143,0.002601204439997673,0.0027429747860878706,10,{}
attack_corridor_base_5,1,pos_spoof,24251,0.0007476513274013996,0.0005233004339970648,-0.05612790957093239,-35.3632621,149.1652374,0.002,-0.01,0.01,0.0,-9.942182805389166e-05,9.444938041269779e-05,0.0,1000,1000,1000,1000,12600,0,0.0026684689801186323,0.002819199115037918,0.0024563015904277563,10,{}
attack_corridor_base_5,1,pos_spoof,24584,0.0007596831419505179,0.0005351462168619037,-0.056553877890110016,-35.3632621,149.1652374,0.002,-0.01,0.01,0.0,-9.942185715772212e-05,9.444940224057063e-05,0.0,1000,1000,1000,1000,12600,0,0.0028083936776965857,0.0028098253533244133,0.0028216326609253883,10,{}
attack_corridor_base_5,1,pos_spoof,24916,0.0007823490886949003,0.0005572710069827735,-0.057149436324834824,-35.3632621,149.1652374,0.003,-0.01,0.01,0.0,-9.942193719325587e-05,9.444950410397723e-05,0.0,1000,1000,1000,1000,12600,0,0.00279228575527668,0.0030148569494485855,0.00272438395768404,10,{}
attack_corridor_base_5,1,pos_spoof,25249,0.0007935090688988566,0.0005747907562181354,-0.05760485306382179,-35.3632621,149.1652374,0.003,-0.01,0.01,0.0,-9.942193719325587e-05,9.444950410397723e-05,0.0,1000,1000,1000,1000,12600,0,0.002758425660431385,0.0027933530509471893,0.0028231360483914614,10,{}
attack_corridor_base_5,1,pos_spoof,25582,0.0008093693759292364,0.0005859402008354664,-0.05801237002015114,-35.3632621,149.1652374,0.003,-0.01,0.01,0.0,-9.94219008134678e-05,9.444952593185008e-05,0.0,1000,1000,1000,1000,12600,0,0.002758559538051486,0.0028113729786127806,0.002854354213923216,10,{}
attack_corridor_base_5,1,pos_spoof,25917,0.0008283781353384256,0.000613001873716712,-0.05852717533707619,-35.3632621,149.1652374,0.002,-0.01,0.01,0.0,-9.94219008134678e-05,9.444951137993485e-05,0.0,1000,1000,1000,1000,12600,0,0.0027043407317250967,0.003051617881283164,0.0028577090706676245,10,{}
attack_corridor_base_5,1,pos_spoof,26249,0.0008466204744763672,0.0006195071619004011,-0.0590214803814888,-35.3632621,149.1652374,0.002,-0.01,0.01,0.0,-9.94219008134678e-05,9.444951137993485e-05,0.0,1000,1000,1000,1000,12600,0,0.0030284083914011717,0.0026167433243244886,0.003058419795706868,10,{}
attack_corridor_base_5,1,pos_spoof,26581,0.0008579042041674256,0.0006244072574190795,-0.059515442699193954,-35.3632621,149.1652374,0.002,-0.01,0.01,0.0,-9.942190808942541e-05,9.444946772418916e-05,0.0,1000,1000,1000,1000,12600,0,0.0025585652329027653,0.002659744583070278,0.0028449087403714657,10,{}
attack_corridor_base_5,1,pos_spoof,26914,0.0008741816272959113,0.0006401919526979327,-0.060173675417900085,-35.3632621,149.1652374,0.002,-0.01,0.01,0.0,-9.942192991729826e-05,9.444945317227393e-05,0.0,1000,1000,1000,1000,12600,0,0.0026461188681423664,0.002694802125915885,0.0025861889589577913,10,{}
attack_corridor_base_5,1,pos_spoof,27249,0.0008875476196408272,0.0006525821518152952,-0.0606749951839447,-35.3632621,149.1652374,0.002,-0.01,0.01,0.0,-9.942192991729826e-05,9.444945317227393e-05,0.0,1000,1000,1000,1000,12600,0,0.00283984187990427,0.0030745102558285,0.0028308085165917873,10,{}
attack_corridor_base_5,1,pos_spoof,27582,0.0008954921504482627,0.0006557117449119687,-0.061207398772239685,-35.3632621,149.1652374,0.001,-0.01,0.01,0.0,-9.94219517451711e-05,9.444950410397723e-05,0.0,1000,1000,1000,1000,12600,0,0.0026686557102948427,0.002837867010384798,0.0026198974810540676,10,{}
attack_corridor_base_5,1,pos_spoof,27914,0.0009143383940681815,0.0006733618793077767,-0.061857856810092926,-35.3632621,149.1652374,0.001,-0.01,0.01,0.0,-9.942198812495917e-05,9.444951137993485e-05,0.0,1000,1000,1000,1000,12600,0,0.002757114125415683,0.0027519266586750746,0.0029075017664581537,10,{}
attack_corridor_base_5,1,pos_spoof,28247,0.0009223960223607719,0.0006876722327433527,-0.062362074851989746,-35.3632621,149.1652374,0.001,-0.01,0.01,0.0,-9.942198812495917e-05,9.444951137993485e-05,0.0,1000,1000,1000,1000,12600,0,0.0027502954471856356,0.002974575851112604,0.002751812571659684,10,{}
attack_corridor_base_5,1,pos_spoof,28579,0.0009348079329356551,0.0006972369737923145,-0.06286366283893585,-35.3632621,149.1652374,0.0,-0.01,0.01,0.0,-9.942202450474724e-05,9.444955503568053e-05,0.0,1000,1000,1000,1000,12600,0,0.0025685825385153294,0.002634669654071331,0.002943586092442274,10,{}
attack_corridor_base_5,1,pos_spoof,28914,0.0009483653702773154,0.0007164367125369608,-0.06349680572748184,-35.3632621,149.1652374,0.0,-0.01,0.01,0.0,-9.942211181623861e-05,9.444962779525667e-05,0.0,1000,1000,1000,1000,12600,0,0.0029554967768490314,0.0028679808601737022,0.0025689834728837013,10,{}
attack_corridor_base_5,1,pos_spoof,29246,0.0009612035355530679,0.0007353330147452652,-0.0639798566699028,-35.3632621,149.1652374,0.0,-0.01,0.01,0.0,-9.942211181623861e-05,9.444962779525667e-05,0.0,1000,1000,1000,1000,12600,0,0.002884514397010207,0.0025264860596507788,0.002697059651836753,10,{}
attack_corridor_base_5,1,pos_spoof,29579,0.0009743761620484293,0.000739801034796983,-0.06444615870714188,-35.3632621,149.1652374,0.0,-0.01,0.01,0.0,-9.942227188730612e-05,9.444970055483282e-05,0.0,1000,1000,1000,1000,12600,0,0.002896506804972887,0.0027416441589593887,0.0027806381694972515,10,{}
attack_corridor_base_5,1,pos_spoof,29912,0.0009891490917652845,0.0007569842273369431,-0.06509549170732498,-35.3632621,149.1652374,0.0,-0.01,0.02,0.0,-9.942231554305181e-05,9.444970055483282e-05,0.0,1000,1000,1000,1000,12600,0,0.002711149863898754,0.002808827208355069,0.0029977187514305115,10,{}
attack_corridor_base_5,1,pos_spoof,30357,0.0009989721002057195,0.0007763414760120213,-0.06582410633563995,-35.3632621,149.1652374,-0.001,-0.01,0.02,0.0,-9.942231554305181e-05,9.444970055483282e-05,0.0,1000,1000,1000,1000,12600,0,0.002635422395542264,0.002997786272317171,0.002771866274997592,10,{}
attack_corridor_base_5,1,pos_spoof,30609,0.0010032141581177711,0.000782694376539439,-0.06622231006622314,-35.3632621,149.1652374,-0.001,-0.01,0.02,0.0,-9.942231554305181e-05,9.444970055483282e-05,0.0,1000,1000,1000,1000,12600,0,0.002635422395542264,0.002997786272317171,0.002771866274997592,10,{}
attack_corridor_base_5,1,pos_spoof,30859,0.0010150817688554525,0.000789501762483269,-0.06658732891082764,-35.3632621,149.1652374,-0.001,-0.01,0.02,0.0,-9.942246833816171e-05,9.444986062590033e-05,0.0,1000,1000,1000,1000,12600,0,0.0027452956419438124,0.0027041237335652113,0.0029417253099381924,10,{}
attack_corridor_base_5,1,pos_spoof,31109,0.0010174473281949759,0.0007945855031721294,-0.066986083984375,-35.3632621,149.1652374,-0.002,-0.01,0.02,0.0,-9.942246833816171e-05,9.444986062590033e-05,0.0,1000,1000,1000,1000,12600,0,0.0025769108906388283,0.0027669810224324465,0.0030055949464440346,10,{}
attack_corridor_base_5,1,pos_spoof,31594,0.0010302014416083694,0.0008001132518984377,-0.06734599173069,-35.3632621,149.1652374,-0.002,-0.01,0.02,0.0,-9.942253382178023e-05,9.44499479373917e-05,0.0,1000,1000,1000,1000,12600,0,0.0028622495010495186,0.002820268040522933,0.002973902504891157,10,{}
attack_corridor_base_5,1,pos_spoof,31927,0.0010411771945655346,0.0008090458577498794,-0.0680774599313736,-35.3632621,149.1652374,-0.003,-0.01,0.02,0.0,-9.942249016603455e-05,9.444988972973078e-05,0.0,1000,1000,1000,1000,12600,0,0.0027411088813096285,0.0029415511526167393,0.0027524519246071577,10,{}
attack_corridor_base_5,1,pos_spoof,32262,0.001051811734214425,0.0008167504565790296,-0.06851857155561447,-35.3632621,149.1652374,-0.003,-0.01,0.02,0.0,-9.942247561411932e-05,9.444995521334931e-05,0.0,1000,1000,1000,1000,12600,0,0.002918933518230915,0.002855700673535466,0.002673976356163621,10,{}
attack_corridor_base_5,1,pos_spoof,32594,0.0010619329987093806,0.0008248612284660339,-0.0689835473895073,-35.3632621,149.1652374,-0.003,-0.01,0.02,0.0,-9.942247561411932e-05,9.444995521334931e-05,0.0,1000,1000,1000,1000,12600,0,0.0030758753418922424,0.002673085080459714,0.0028119629714637995,10,{}
attack_corridor_base_5,1,pos_spoof,32926,0.00106913095805794,0.0008436340722255409,-0.06955143809318542,-35.3632621,149.1652374,-0.004,-0.01,0.02,0.0,-9.9422519269865e-05,9.444996248930693e-05,0.0,1000,1000,1000,1000,12600,0,0.0026606256142258644,0.002632409567013383,0.0029203230515122414,10,{}
attack_corridor_base_5,1,pos_spoof,33259,0.001081483089365065,0.0008532270439900458,-0.06998641788959503,-35.3632621,149.1652374,-0.004,-0.01,0.02,0.0,-9.942255564965308e-05,9.444992610951886e-05,0.0,1000,1000,1000,1000,12600,0,0.002831686520949006,0.002938441466540098,0.002649532165378332,10,{}
attack_corridor_base_5,1,pos_spoof,33594,0.0010963947279378772,0.0008633217657916248,-0.07041088491678238,-35.3632621,149.1652374,-0.004,-0.01,0.02,0.0,-9.942255564965308e-05,9.444992610951886e-05,0.0,1000,1000,1000,1000,12600,0,0.0028698353562504053,0.0030279583297669888,0.0028983578085899353,10,{}
attack_corridor_base_5,1,pos_spoof,33927,0.001112920232117176,0.0008768925326876342,-0.07097995281219482,-35.3632621,149.1652374,-0.004,-0.02,0.02,0.0,-9.942254837369546e-05,9.444997704122216e-05,0.0,1000,1000,1000,1000,12600,0,0.0026353567373007536,0.00289809238165617,0.002754728076979518,10,{}
attack_corridor_base_5,1,pos_spoof,34259,0.0011180307483300567,0.0008823166717775166,-0.07138734310865402,-35.3632621,149.1652374,-0.005,-0.02,0.02,0.0,-9.942248289007694e-05,9.445000614505261e-05,0.0,1000,1000,1000,1000,12600,0,0.0031406981870532036,0.0025338747072964907,0.002961641177535057,10,{}
attack_corridor_base_5,1,pos_spoof,34591,0.0011293322313576937,0.0008995511452667415,-0.07178836315870285,-35.3632621,149.1652374,-0.005,-0.02,0.02,0.0,-9.942248289007694e-05,9.445000614505261e-05,0.0,1000,1000,1000,1000,12600,0,0.002609657822176814,0.0029474806506186724,0.00288842199370265,10,{}
attack_corridor_base_5,1,pos_spoof,34924,0.0011439145309850574,0.0009165738592855632,-0.07232347875833511,-35.3632621,149.1652374,-0.005,-0.02,0.02,0.0,-9.942239557858557e-05,9.444998431717977e-05,0.0,1000,1000,1000,1000,12600,0,0.002544432645663619,0.002862154273316264,0.0026830551214516163,10,{}
attack_corridor_base_5,1,pos_spoof,35259,0.0011484483256936073,0.0009242455125786364,-0.0727207362651825,-35.3632621,149.1652374,-0.005,-0.02,0.02,0.0,-9.942233009496704e-05,9.444995521334931e-05,0.0,1000,1000,1000,1000,12600,0,0.002985815517604351,0.002832435304298997,0.002831596415489912,10,{}
attack_corridor_base_5,1,pos_spoof,35591,0.0011572930961847305,0.0009309591841883957,-0.07311342656612396,-35.3632621,149.1652374,-0.005,-0.02,0.02,0.0,-9.942233009496704e-05,9.444995521334931e-05,0.0,1000,1000,1000,1000,12600,0,0.0028472032863646746,0.0027636170852929354,0.0027347214054316282,10,{}
attack_corridor_base_5,1,pos_spoof,35924,0.00116404565051198,0.0009336579823866487,-0.07360481470823288,-35.3632621,149.1652374,-0.005,-0.02,0.02,0.0,-9.94223591987975e-05,9.444991883356124e-05,0.0,1000,1000,1000,1000,12600,0,0.0027484395541250706,0.002842946210876107,0.0029020924121141434,10,{}
attack_corridor_base_5,1,pos_spoof,36257,0.001170528121292591,0.0009464701870456338,-0.07391981780529022,-35.3632621,149.1652374,-0.005,-0.02,0.02,0.0,-9.94223591987975e-05,9.444991883356124e-05,0.0,1000,1000,1000,1000,12600,0,0.0029583966825157404,0.002796267857775092,0.0028721634298563004,10,{}
attack_corridor_base_5,1,pos_spoof,36589,0.0011802423978224397,0.0009602865902706981,-0.07430725544691086,-35.3632621,149.1652374,-0.005,-0.02,0.02,0.0,-9.942230099113658e-05,9.444992610951886e-05,0.0,1000,1000,1000,1000,12600,0,0.0029512164182960987,0.002706736559048295,0.0026404589880257845,10,{}
attack_corridor_base_5,1,pos_spoof,36924,0.001190892537124455,0.0009795039659366012,-0.07480288296937943,-35.3632621,149.1652374,-0.005,-0.02,0.02,0.0,-9.942230099113658e-05,9.444988972973078e-05,0.0,1000,1000,1000,1000,12600,0,0.0026009147986769676,0.0027553346008062363,0.0026420545764267445,10,{}
attack_corridor_base_5,1,pos_spoof,37256,0.0012002853909507394,0.0009930649539455771,-0.07516741007566452,-35.3632621,149.1652374,-0.005,-0.02,0.02,0.0,-9.942230099113658e-05,9.444988972973078e-05,0.0,1000,1000,1000,1000,12600,0,0.0028895738068968058,0.0028290103655308485,0.0029459805227816105,10,{}
attack_corridor_base_5,1,pos_spoof,37589,0.0012069232761859894,0.00100244814530015,-0.07553436607122421,-35.3632621,149.1652374,-0.005,-0.02,0.02,0.0,-9.942232281900942e-05,9.444986790185794e-05,0.0,1000,1000,1000,1000,12600,0,0.002632144605740905,0.0025894115678966045,0.002607640577480197,10,{}
attack_corridor_base_5,1,pos_spoof,37922,0.0012120612664148211,0.0010213989298790693,-0.07600623369216919,-35.3632621,149.1652374,-0.006,-0.02,0.02,0.0,-9.942234464688227e-05,9.444988972973078e-05,0.0,1000,1000,1000,1000,12600,0,0.0028087333776056767,0.0027611691039055586,0.0027737789787352085,10,{}
attack_corridor_base_5,1,pos_spoof,38254,0.0012243296951055527,0.0010368941584601998,-0.07636692374944687,-35.3632621,149.1652374,-0.006,-0.02,0.02,0.0,-9.942234464688227e-05,9.444988972973078e-05,0.0,1000,1000,1000,1000,12600,0,0.0026835722383111715,0.0026787861716002226,0.002905668690800667,10,{}
attack_corridor_base_5,1,pos_spoof,38587,0.0012321793474256992,0.001041569048538804,-0.076711505651474,-35.3632621,149.1652374,-0.006,-0.02,0.02,0.0,-9.942233737092465e-05,9.444986062590033e-05,0.0,1000,1000,1000,1000,12600,0,0.0027837937232106924,0.0029599135741591454,0.0027037449181079865,10,{}
attack_corridor_base_5,1,pos_spoof,38921,0.0012467809719964862,0.001056250766851008,-0.07718399912118912,-35.3632621,149.1652374,-0.006,-0.02,0.02,0.0,-9.942230099113658e-05,9.444987517781556e-05,0.0,1000,1000,1000,1000,12600,0,0.0027271280996501446,0.0029255386907607317,0.0027752993628382683,10,{}
attack_corridor_base_5,1,pos_spoof,39254,0.001251018955372274,0.0010669087059795856,-0.07752355933189392,-35.3632621,149.1652374,-0.006,-0.02,0.02,0.0,-9.942230099113658e-05,9.444987517781556e-05,0.0,1000,1000,1000,1000,12600,0,0.0028425094205886126,0.002787289908155799,0.003030219115316868,10,{}
attack_corridor_base_5,1,pos_spoof,39586,0.0012483095051720738,0.0010719659039750695,-0.07786239683628082,-35.3632621,149.1652374,-0.006,-0.02,0.02,0.0,-9.942225005943328e-05,9.444986062590033e-05,0.0,1000,1000,1000,1000,12600,0,0.002717746654525399,0.002838259330019355,0.0028295041993260384,10,{}
attack_corridor_base_5,1,pos_spoof,39919,0.0012581981718540192,0.0010775495320558548,-0.07829821854829788,-35.3632621,149.1652374,-0.006,-0.02,0.02,0.0,-9.94222573353909e-05,9.444988972973078e-05,0.0,1000,1000,1000,1000,12600,0,0.002713310532271862,0.002793877152726054,0.0025300420820713043,10,{}
attack_corridor_base_5,1,pos_spoof,40252,0.001266474719159305,0.0010839018505066633,-0.07862132042646408,-35.3632621,149.1652374,-0.006,-0.02,0.02,0.0,-9.94222573353909e-05,9.444988972973078e-05,0.0,1000,1000,1000,1000,12600,0,0.0028098865877836943,0.003022504970431328,0.003203833242878318,10,{}
attack_corridor_base_5,1,pos_spoof,40587,0.001275261864066124,0.0010924915550276637,-0.07893265783786774,-35.3632621,149.1652374,-0.006,-0.02,0.02,0.0,-9.94222573353909e-05,9.444991883356124e-05,0.0,1000,1000,1000,1000,12600,0,0.0027751722373068333,0.002961724530905485,0.002850636839866638,10,{}
attack_corridor_base_5,1,pos_spoof,40919,0.001284198835492134,0.0010967415291815996,-0.07930289208889008,-35.3632621,149.1652374,-0.006,-0.02,0.02,0.0,-9.94222573353909e-05,9.444992610951886e-05,0.0,1000,1000,1000,1000,12600,0,0.0024716733023524284,0.0026685409247875214,0.0026753440033644438,10,{}
attack_corridor_base_5,1,pos_spoof,41251,0.0012893620878458023,0.0011096495436504483,-0.07959197461605072,-35.3632621,149.1652374,-0.006,-0.02,0.02,0.0,-9.94222573353909e-05,9.444992610951886e-05,0.0,1000,1000,1000,1000,12600,0,0.002797899069264531,0.0030762439128011465,0.0027828088495880365,10,{}
attack_corridor_base_5,1,pos_spoof,41584,0.0012978478334844112,0.0011165151372551918,-0.0799042358994484,-35.3632621,149.1652374,-0.006,-0.02,0.02,0.0,-9.942227916326374e-05,9.444992610951886e-05,0.0,1000,1000,1000,1000,12600,0,0.0028602892998605967,0.002823794959113002,0.0026886698324233294,10,{}
attack_corridor_base_5,1,pos_spoof,41919,0.0013474143343046308,0.0011693208944052458,-0.08030250668525696,-35.3632621,149.1652374,-0.006,0.0,0.0,0.0,-9.94223082670942e-05,9.444991883356124e-05,0.0,1000,1000,1000,1000,12600,0,0.002996882889419794,0.002802937524393201,0.0028141203802078962,10,{}
attack_corridor_base_5,1,pos_spoof,42252,0.0014273561537265778,0.0012490579392760992,-0.08061246573925018,-35.3632621,149.1652374,-0.006,0.0,0.0,0.0,-9.94223082670942e-05,9.444991883356124e-05,0.0,1000,1000,1000,1000,12600,0,0.002737566828727722,0.002747412072494626,0.0027677046600729227,10,{}
attack_corridor_base_5,1,pos_spoof,42584,0.0014927689917385578,0.0013144504046067595,-0.08091738075017929,-35.3632621,149.1652374,-0.006,0.0,0.0,0.0,-9.942230099113658e-05,9.444992610951886e-05,0.0,1000,1000,1000,1000,12600,0,0.003022141056135297,0.0027746420819312334,0.002649862552061677,10,{}
attack_corridor_base_5,1,pos_spoof,42916,0.0015736034838482738,0.0013949210988357663,-0.08132001757621765,-35.3632621,149.1652374,-0.006,0.0,0.01,0.0,-9.942231554305181e-05,9.444993338547647e-05,0.0,1000,1000,1000,1000,12600,0,0.0027679952327162027,0.0026623273734003305,0.002625819528475404,10,{}
attack_corridor_base_5,1,pos_spoof,43249,0.001625368488021195,0.0014443688560277224,-0.08163236826658249,-35.3632621,149.1652374,-0.006,-0.01,0.01,0.0,-9.942231554305181e-05,9.444993338547647e-05,0.0,1000,1000,1000,1000,12600,0,0.003090053331106901,0.00285616097971797,0.002810007892549038,10,{}
attack_corridor_base_5,1,pos_spoof,43584,0.001647784374654293,0.0014652385143563151,-0.08194084465503693,-35.3632621,149.1652374,-0.006,-0.01,0.01,0.0,-9.942233009496704e-05,9.444988972973078e-05,0.0,1000,1000,1000,1000,12600,0,0.002802126808091998,0.0029101420659571886,0.002819395624101162,10,{}
attack_corridor_base_5,1,pos_spoof,43916,0.0016577019123360515,0.001475161756388843,-0.08234555274248123,-35.3632621,149.1652374,-0.006,-0.01,0.01,0.0,-9.942236647475511e-05,9.444988972973078e-05,0.0,1000,1000,1000,1000,12600,0,0.002833896316587925,0.0031057929154485464,0.002454139990732074,10,{}
attack_corridor_base_5,1,pos_spoof,44249,0.0016491065034642816,0.001468662521801889,-0.08265255391597748,-35.3632621,149.1652374,-0.006,-0.01,0.01,0.0,-9.942236647475511e-05,9.444988972973078e-05,0.0,1000,1000,1000,1000,12600,0,0.002715511480346322,0.002848504576832056,0.0029890406876802444,10,{}
attack_corridor_base_5,1,pos_spoof,44582,0.001617803005501628,0.0014299278846010566,-0.08294081687927246,-35.3632621,149.1652375,-0.006,-0.01,0.02,0.0,-9.942240285454318e-05,9.444990428164601e-05,0.0,1000,1000,1000,1000,12600,0,0.0029108014423400164,0.0028595891781151295,0.002562270499765873,10,{}
attack_corridor_base_5,1,pos_spoof,44914,0.0015574085991829634,0.0013748082565143704,-0.08331286907196045,-35.3632621,149.1652375,-0.006,-0.01,0.02,0.0,-9.942233009496704e-05,9.444986062590033e-05,0.0,1000,1000,1000,1000,12600,0,0.0027786344289779663,0.0029022886883467436,0.0026807463727891445,10,{}
attack_corridor_base_5,1,pos_spoof,45359,0.001479779719375074,0.0012987024383619428,-0.08371084183454514,-35.3632622,149.1652375,-0.006,-0.01,0.02,0.0,-9.942233009496704e-05,9.444986062590033e-05,0.0,1000,1000,1000,1000,12600,0,0.002859895583242178,0.0028408956713974476,0.002645139815285802,10,{}
attack_corridor_base_5,1,pos_spoof,45609,0.0014392905868589878,0.0012611208949238062,-0.08392900973558426,-35.3632622,149.1652375,-0.006,-0.01,0.02,0.0,-9.942233737092465e-05,9.444988972973078e-05,0.0,1000,1000,1000,1000,12600,0,0.002859895583242178,0.0028408956713974476,0.002645139815285802,10,{}
attack_corridor_base_5,1,pos_spoof,45859,0.0013833766570314765,0.0012024238239973783,-0.0841258093714714,-35.3632622,149.1652375,-0.006,-0.01,0.02,0.0,-9.942232281900942e-05,9.444988245377317e-05,0.0,1000,1000,1000,1000,12600,0,0.0030986382625997066,0.0027661113999783993,0.0028485991060733795,10,{}
attack_corridor_base_5,1,pos_spoof,46109,0.0013420513132587075,0.001157171092927456,-0.0843360424041748,-35.3632622,149.1652375,-0.006,-0.01,0.01,0.0,-9.942230099113658e-05,9.444987517781556e-05,0.0,1000,1000,1000,1000,12600,0,0.002964441664516926,0.0029269512742757797,0.002818138338625431,10,{}
attack_corridor_base_5,1,pos_spoof,46357,0.001302325981669128,0.0011121886782348156,-0.0845024436712265,-35.3632622,149.1652375,-0.006,-0.01,0.01,0.0,-9.942227916326374e-05,9.444988245377317e-05,0.0,1000,1000,1000,1000,12600,0,0.0026376990135759115,0.0026923753321170807,0.002795394277200103,10,{}
attack_corridor_base_5,1,pos_spoof,46607,0.0012755653588101268,0.0010910893324762583,-0.08466821908950806,-35.3632622,149.1652375,-0.006,-0.01,0.01,0.0,-9.942231554305181e-05,9.444991883356124e-05,0.0,1000,1000,1000,1000,12600,0,0.0025980600621551275,0.002760016592219472,0.002596876583993435,10,{}
attack_corridor_base_5,1,pos_spoof,46857,0.0012299279915168881,0.0010512996232137084,-0.08486584573984146,-35.3632622,149.1652375,-0.006,-0.01,0.01,0.0,-9.942226461134851e-05,9.444991155760363e-05,0.0,1000,1000,1000,1000,12600,0,0.0029620593413710594,0.0027733377646654844,0.002418660558760166,10,{}
attack_corridor_base_5,1,pos_spoof,47109,0.001197610516101122,0.001022752607241273,-0.08504755795001984,-35.3632621,149.1652375,-0.006,-0.01,0.01,0.0,-9.942224278347567e-05,9.444992610951886e-05,0.0,1000,1000,1000,1000,12600,0,0.0028424265328794718,0.0027120981831103563,0.0024378583766520023,10,{}
attack_corridor_base_5,1,pos_spoof,47359,0.0011716082226485014,0.0010006602387875319,-0.08523144572973251,-35.3632621,149.1652375,-0.006,-0.01,0.01,0.0,-9.942222095560282e-05,9.444990428164601e-05,0.0,1000,1000,1000,1000,12600,0,0.002942302729934454,0.00285010295920074,0.0027276657056063414,10,{}
attack_corridor_base_5,1,pos_spoof,47609,0.0011574157979339361,0.0009868261404335499,-0.08540232479572296,-35.3632621,149.1652375,-0.006,-0.01,0.01,0.0,-9.942217729985714e-05,9.444986790185794e-05,0.0,1000,1000,1000,1000,12600,0,0.0027303090319037437,0.0027330066077411175,0.002782264491543174,10,{}
attack_corridor_base_5,1,pos_spoof,47859,0.0011315657757222652,0.0009639391209930182,-0.08558480441570282,-35.3632621,149.1652375,-0.006,-0.01,0.01,0.0,-9.942214819602668e-05,9.444982424611226e-05,0.0,1000,1000,1000,1000,12600,0,0.002810887759551406,0.002708232030272484,0.002716965042054653,10,{}
attack_corridor_base_5,1,pos_spoof,48109,0.0011161502916365862,0.0009478863212279975,-0.08574502170085907,-35.3632621,149.1652375,-0.006,-0.01,0.01,0.0,-9.942212636815384e-05,9.444983152206987e-05,0.0,1000,1000,1000,1000,12600,0,0.0030491205397993326,0.002733191242441535,0.002740527968853712,10,{}
attack_corridor_base_5,1,pos_spoof,48357,0.001106012612581253,0.00093677086988464,-0.08592470735311508,-35.3632621,149.1652375,-0.006,-0.01,0.01,0.0,-9.9422104540281e-05,9.444981697015464e-05,0.0,1000,1000,1000,1000,12600,0,0.0027207722887396812,0.0029172629583626986,0.0028043659403920174,10,{}
attack_corridor_base_5,1,pos_spoof,48607,0.0010997147765010595,0.0009313396876677871,-0.08608714491128922,-35.3632621,149.1652375,-0.006,-0.01,0.01,0.0,-9.942207543645054e-05,9.444981697015464e-05,0.0,1000,1000,1000,1000,12600,0,0.002890377538278699,0.0026794741861522198,0.0029869847930967808,10,{}
attack_corridor_base_5,1,pos_spoof,48857,0.0010899577755481005,0.00092239526566118,-0.08624351769685745,-35.3632621,149.1652375,-0.006,-0.01,0.01,0.0,-9.942206816049293e-05,9.444978786632419e-05,0.0,1000,1000,1000,1000,12600,0,0.002804914489388466,0.003062453819438815,0.002783847041428089,10,{}
attack_corridor_base_5,1,pos_spoof,49107,0.0010843358468264341,0.0009157821768894792,-0.08641350269317627,-35.3632621,149.1652375,-0.006,-0.01,0.01,0.0,-9.942201722878963e-05,9.444976603845134e-05,0.0,1000,1000,1000,1000,12600,0,0.0029323778580874205,0.0030525163747370243,0.0026932063046842813,10,{}
attack_corridor_base_5,1,pos_spoof,49359,0.0010836297878995538,0.0009114728891290724,-0.0865660011768341,-35.3632621,149.1652375,-0.006,-0.01,0.01,0.0,-9.942196629708633e-05,9.444973693462089e-05,0.0,1000,1000,1000,1000,12600,0,0.002685017418116331,0.002609838033095002,0.002766446676105261,10,{}
attack_corridor_base_5,1,pos_spoof,49609,0.001083314185962081,0.0009116774308495224,-0.08672421425580978,-35.3632621,149.1652375,-0.006,-0.01,0.01,0.0,-9.942197357304394e-05,9.444972965866327e-05,0.0,1000,1000,1000,1000,12600,0,0.0027467922773212194,0.0029318167362362146,0.0026389684062451124,10,{}
attack_corridor_base_5,1,pos_spoof,49859,0.0010767091298475862,0.0009133914718404412,-0.08688103407621384,-35.3632621,149.1652375,-0.006,-0.01,0.01,0.0,-9.942198812495917e-05,9.444971510674804e-05,0.0,1000,1000,1000,1000,12600,0,0.0026736531872302294,0.0027801760006695986,0.0026876882184296846,10,{}
attack_corridor_base_5,1,pos_spoof,50109,0.0010772880632430315,0.0009144202340394258,-0.08704080432653427,-35.3632621,149.1652375,-0.006,-0.01,0.01,0.0,-9.942198812495917e-05,9.444970055483282e-05,0.0,1000,1000,1000,1000,12600,0,0.002833524253219366,0.0027619735337793827,0.0027765596751123667,10,{}
attack_corridor_base_5,1,pos_spoof,50357,0.0010809910017997026,0.0009157849126495421,-0.08718764036893845,-35.3632621,149.1652375,-0.006,-0.01,0.01,0.0,-9.942198084900156e-05,9.444967145100236e-05,0.0,1000,1000,1000,1000,12600,0,0.0024278932251036167,0.0027282009832561016,0.002920859958976507,10,{}
attack_corridor_base_5,1,pos_spoof,50607,0.0010836353758350015,0.0009140715119428933,-0.08734989911317825,-35.3632621,149.1652375,-0.006,-0.01,0.01,0.0,-9.942197357304394e-05,9.444961324334145e-05,0.0,1000,1000,1000,1000,12600,0,0.002853745361790061,0.0029560495167970657,0.0026965592987835407,10,{}
attack_corridor_base_5,1,pos_spoof,50857,0.0010847687954083085,0.0009121404145844281,-0.08749409765005112,-35.3632621,149.1652375,-0.006,-0.01,0.01,0.0,-9.942192991729826e-05,9.444955503568053e-05,0.0,1000,1000,1000,1000,12600,0,0.0027642769273370504,0.0030450865160673857,0.002888584043830633,10,{}
attack_corridor_base_5,1,pos_spoof,51107,0.0010859727626666427,0.0009131425758823752,-0.08764319121837616,-35.3632621,149.1652375,-0.006,-0.01,0.01,0.0,-9.942192264134064e-05,9.444954775972292e-05,0.0,1000,1000,1000,1000,12600,0,0.002756689442321658,0.002719373442232609,0.0027006652671843767,10,{}
attack_corridor_base_5,1,pos_spoof,51359,0.0010868506506085396,0.0009175626910291612,-0.08778399229049683,-35.3632621,149.1652375,-0.006,-0.01,0.01,0.0,-9.942188626155257e-05,9.444952593185008e-05,0.0,1000,1000,1000,1000,12600,0,0.002846841234713793,0.0027739584911614656,0.002557207830250263,10,{}
attack_corridor_base_5,1,pos_spoof,51609,0.0010907595278695226,0.0009178295731544495,-0.08793086558580399,-35.3632621,149.1652375,-0.006,-0.01,0.01,0.0,-9.942188626155257e-05,9.444949682801962e-05,0.0,1000,1000,1000,1000,12600,0,0.0028616972267627716,0.0030034955125302076,0.002972721355035901,10,{}
attack_corridor_base_5,1,pos_spoof,51859,0.0010945609537884593,0.0009136635926552117,-0.08806651085615158,-35.3632621,149.1652375,-0.006,-0.01,0.01,0.0,-9.94219008134678e-05,9.444951137993485e-05,0.0,1000,1000,1000,1000,12600,0,0.002981453202664852,0.0026728399097919464,0.0029063106048852205,10,{}
attack_corridor_base_5,1,pos_spoof,52109,0.001098877633921802,0.0009065615013241768,-0.08821754157543182,-35.3632621,149.1652375,-0.006,-0.01,0.01,0.0,-9.94219008134678e-05,9.4449489552062e-05,0.0,1000,1000,1000,1000,12600,0,0.002923040883615613,0.0024742335081100464,0.0028510168194770813,10,{}
attack_corridor_base_5,1,pos_spoof,52359,0.0011044458951801062,0.0009058786672540009,-0.08834592998027802,-35.3632621,149.1652375,-0.006,-0.01,0.01,0.0,-9.942188626155257e-05,9.444948227610439e-05,0.0,1000,1000,1000,1000,12600,0,0.002700075274333358,0.0028381752781569958,0.0027657821774482727,10,{}
attack_corridor_base_5,1,pos_spoof,52607,0.001109062577597797,0.0009166827076114714,-0.08845909684896469,-35.3632621,149.1652375,-0.006,-0.01,0.01,0.0,-9.942186443367973e-05,9.444945317227393e-05,0.0,1000,1000,1000,1000,12600,0,0.0030767873395234346,0.0026920665986835957,0.0027921046130359173,10,{}
attack_corridor_base_5,1,pos_spoof,52857,0.0011100494302809238,0.0009182153735309839,-0.08859853446483612,-35.3632621,149.1652375,-0.006,-0.01,0.01,0.0,-9.942182077793404e-05,9.444941679248586e-05,0.0,1000,1000,1000,1000,12600,0,0.002857872284948826,0.0030428499449044466,0.002914107870310545,10,{}
attack_corridor_base_5,1,pos_spoof,53107,0.0011102529242634773,0.000914226402528584,-0.08872886747121811,-35.3632621,149.1652375,-0.006,-0.01,0.01,0.0,-9.942186443367973e-05,9.44494386203587e-05,0.0,1000,1000,1000,1000,12600,0,0.0026771798729896545,0.0028078118339180946,0.002763086697086692,10,{}
attack_corridor_base_5,1,pos_spoof,53359,0.0011165087344124913,0.0009218102204613388,-0.08887452632188797,-35.3632621,149.1652375,-0.006,-0.01,0.01,0.0,-9.942187170963734e-05,9.444946044823155e-05,0.0,1000,1000,1000,1000,12600,0,0.0027506540063768625,0.0026006281841546297,0.002626319183036685,10,{}
attack_corridor_base_5,1,pos_spoof,53609,0.001130168791860342,0.0009308191947638988,-0.0890049859881401,-35.3632621,149.1652375,-0.006,-0.01,0.01,0.0,-9.942181350197643e-05,9.444940951652825e-05,0.0,1000,1000,1000,1000,12600,0,0.002713617868721485,0.00301196682266891,0.0027076255064457655,10,{}
attack_corridor_base_5,1,pos_spoof,53859,0.0011319947661831975,0.0009267268469557166,-0.08913467079401016,-35.3632621,149.1652375,-0.006,-0.01,0.01,0.0,-9.942180622601882e-05,9.444942406844348e-05,0.0,1000,1000,1000,1000,12600,0,0.002530421130359173,0.0027555502019822598,0.002873047022148967,10,{}
attack_corridor_base_5,1,pos_spoof,54109,0.0011332229478284717,0.000935083138756454,-0.08926977217197418,-35.3632621,149.1652375,-0.006,-0.01,0.01,0.0,-9.942177712218836e-05,9.444941679248586e-05,0.0,1000,1000,1000,1000,12600,0,0.0029445025138556957,0.0027861802373081446,0.0029055504128336906,10,{}
attack_corridor_base_5,1,pos_spoof,54359,0.0011347508989274502,0.0009401349816471338,-0.08939773589372635,-35.3632621,149.1652375,-0.006,-0.01,0.01,0.0,-9.942174074240029e-05,9.444936586078256e-05,0.0,1000,1000,1000,1000,12600,0,0.0029112566262483597,0.0028869768138974905,0.0029184368904680014,10,{}
attack_corridor_base_5,1,pos_spoof,54607,0.001145786838606,0.0009493388934060931,-0.08952122181653976,-35.3632621,149.1652375,-0.006,-0.01,0.01,0.0,-9.942173346644267e-05,9.444938041269779e-05,0.0,1000,1000,1000,1000,12600,0,0.002589056733995676,0.0028299414552748203,0.0026409763377159834,10,{}
attack_corridor_base_5,1,pos_spoof,54857,0.001144826295785606,0.000947308202739805,-0.08964657038450241,-35.3632621,149.1652375,-0.006,-0.01,0.01,0.0,-9.942174074240029e-05,9.444933675695211e-05,0.0,1000,1000,1000,1000,12600,0,0.0031821478623896837,0.0028687571175396442,0.0029707627836614847,10,{}
attack_corridor_base_5,1,pos_spoof,55107,0.001146528753452003,0.0009491603705100715,-0.08977216482162476,-35.3632621,149.1652375,-0.006,-0.01,0.01,0.0,-9.942173346644267e-05,9.444929310120642e-05,0.0,1000,1000,1000,1000,12600,0,0.0027446968015283346,0.0028260392136871815,0.002674097428098321,10,{}
attack_corridor_base_5,1,pos_spoof,55357,0.0011458054650574923,0.0009519106242805719,-0.08989275246858597,-35.3632621,149.1652375,-0.006,-0.01,0.01,0.0,-9.942174074240029e-05,9.444929310120642e-05,0.0,1000,1000,1000,1000,12600,0,0.002567561808973551,0.002525416435673833,0.0025980344507843256,10,{}
attack_corridor_base_5,1,pos_spoof,55609,0.0011497512459754944,0.0009569270769134164,-0.09002306312322617,-35.3632621,149.1652375,-0.006,-0.01,0.01,0.0,-9.942171891452745e-05,9.44492785492912e-05,0.0,1000,1000,1000,1000,12600,0,0.002695290371775627,0.0031588468700647354,0.0026334859430789948,10,{}
attack_corridor_base_5,1,pos_spoof,55859,0.001146637019701302,0.0009505224879831076,-0.0901414081454277,-35.3632621,149.1652375,-0.006,-0.01,0.01,0.0,-9.942170436261222e-05,9.444929310120642e-05,0.0,1000,1000,1000,1000,12600,0,0.0026250488590449095,0.0027982108294963837,0.0025702097918838263,10,{}
attack_corridor_base_5,1,pos_spoof,56109,0.0011456083739176393,0.0009517219150438905,-0.09026864171028137,-35.3632621,149.1652375,-0.006,-0.01,0.01,0.0,-9.942168253473938e-05,9.444927127333358e-05,0.0,1000,1000,1000,1000,12600,0,0.0027849364560097456,0.002856514183804393,0.003040461568161845,10,{}
attack_corridor_base_5,1,pos_spoof,56359,0.001150742289610207,0.0009558619349263608,-0.09038730710744858,-35.3632621,149.1652375,-0.006,-0.01,0.01,0.0,-9.942167525878176e-05,9.444924216950312e-05,0.0,1000,1000,1000,1000,12600,0,0.0027203415520489216,0.002890425967052579,0.003163292771205306,10,{}
attack_corridor_base_5,1,pos_spoof,56607,0.001152109820395708,0.0009611812420189381,-0.09050841629505157,-35.3632621,149.1652375,-0.006,-0.01,0.01,0.0,-9.94216970866546e-05,9.444927127333358e-05,0.0,1000,1000,1000,1000,12600,0,0.0027449512854218483,0.0026981437113136053,0.0027362967375665903,10,{}
attack_corridor_base_5,1,pos_spoof,56857,0.0011377293849363923,0.0009589620749466121,-0.09059562534093857,-35.3632621,149.1652375,-0.006,-0.01,0.01,0.0,-9.942174074240029e-05,9.444930037716404e-05,0.0,1000,1000,1000,1000,12600,0,0.0028524380177259445,0.002723886864259839,0.002717749448493123,10,{}
attack_corridor_base_5,1,pos_spoof,57107,0.0011325697414577007,0.0009548433008603752,-0.09071137011051178,-35.3632621,149.1652375,-0.006,-0.01,0.01,0.0,-9.942178439814597e-05,9.444930037716404e-05,0.0,1000,1000,1000,1000,12600,0,0.0027467580512166023,0.002944682026281953,0.0027957407291978598,10,{}
attack_corridor_base_5,1,pos_spoof,57357,0.0011408913414925337,0.0009567330125719309,-0.09083002805709839,-35.3632621,149.1652375,-0.006,-0.01,0.01,0.0,-9.942182077793404e-05,9.444934403290972e-05,0.0,1000,1000,1000,1000,12600,0,0.002813530620187521,0.00291701452806592,0.0027251604478806257,10,{}
attack_corridor_base_5,1,pos_spoof,57609,0.0011471644975245,0.0009653907036408782,-0.09094556421041489,-35.3632622,149.1652375,-0.006,-0.01,0.01,0.0,-9.942180622601882e-05,9.444935130886734e-05,0.0,1000,1000,1000,1000,12600,0,0.0026687553618103266,0.002612673444673419,0.002502416493371129,10,{}
attack_corridor_base_5,1,pos_spoof,57859,0.0011461941758170724,0.0009619080810807645,-0.09105420857667923,-35.3632622,149.1652375,-0.006,-0.01,0.01,0.0,-9.942182805389166e-05,9.444936586078256e-05,0.0,1000,1000,1000,1000,12600,0,0.0026686876080930233,0.0025595328770577908,0.002613175194710493,10,{}
attack_corridor_base_5,1,pos_spoof,58109,0.0011505525326356292,0.0009610041161067784,-0.09116332978010178,-35.3632621,149.1652375,-0.006,-0.01,0.01,0.0,-9.942185715772212e-05,9.444940224057063e-05,0.0,1000,1000,1000,1000,12600,0,0.0025921626947820187,0.002722289878875017,0.0025753893423825502,10,{}
attack_corridor_base_5,1,pos_spoof,58359,0.001154232071712613,0.000966985709965229,-0.09127876162528992,-35.3632622,149.1652375,-0.006,-0.01,0.01,0.0,-9.94218498817645e-05,9.444938041269779e-05,0.0,1000,1000,1000,1000,12600,0,0.003136976854875684,0.00285535492002964,0.002741058124229312,10,{}
attack_corridor_base_5,1,pos_spoof,58609,0.0011553011136129498,0.0009718756773509085,-0.09138531237840652,-35.3632622,149.1652375,-0.006,-0.01,0.01,0.0,-9.942191536538303e-05,9.444943134440109e-05,0.0,1000,1000,1000,1000,12600,0,0.0033145740162581205,0.0030581026803702116,0.0028399054426699877,10,{}
attack_corridor_base_5,1,pos_spoof,58857,0.0011541019193828106,0.0009683457319624722,-0.09149757027626038,-35.3632622,149.1652375,-0.006,-0.01,0.01,0.0,-9.94219517451711e-05,9.444946772418916e-05,0.0,1000,1000,1000,1000,12600,0,0.002873932244256139,0.002750982763245702,0.002643563784658909,10,{}
attack_corridor_base_5,1,pos_spoof,59107,0.0011552872601896524,0.0009689393336884677,-0.09160509705543518,-35.3632621,149.1652375,-0.006,-0.01,0.01,0.0,-9.942193719325587e-05,9.444942406844348e-05,0.0,1000,1000,1000,1000,12600,0,0.0027203550562262535,0.0027573516126722097,0.0026316349394619465,10,{}
attack_corridor_base_5,1,pos_spoof,59357,0.001157941878773272,0.00097500323317945,-0.0917072743177414,-35.3632622,149.1652375,-0.006,-0.01,0.01,0.0,-9.942193719325587e-05,9.444938041269779e-05,0.0,1000,1000,1000,1000,12600,0,0.002996547147631645,0.002563196700066328,0.0026640347205102444,10,{}
attack_corridor_base_5,1,pos_spoof,59609,0.0011633834801614285,0.0009801442502066493,-0.09181450307369232,-35.3632622,149.1652375,-0.006,-0.01,0.01,0.0,-9.942194446921349e-05,9.444936586078256e-05,0.0,1000,1000,1000,1000,12600,0,0.002974344417452812,0.0027255008462816477,0.002718479372560978,10,{}
attack_corridor_base_5,1,pos_spoof,59859,0.001150948228314519,0.0009753514314070344,-0.09191413968801498,-35.3632621,149.1652375,-0.006,-0.01,0.01,0.0,-9.942197357304394e-05,9.44493876886554e-05,0.0,1000,1000,1000,1000,12600,0,0.002691302914172411,0.0028327982872724533,0.002781176706776023,10,{}
attack_corridor_base_5,1,pos_spoof,60109,0.001150992582552135,0.0009697595960460603,-0.0920155718922615,-35.3632621,149.1652375,-0.006,-0.01,0.01,0.0,-9.942198812495917e-05,9.444936586078256e-05,0.0,1000,1000,1000,1000,12600,0,0.0030766644049435854,0.0027686390094459057,0.0027320855297148228,10,{}
attack_corridor_base_5,1,pos_spoof,60359,0.001152415294200182,0.0009686223929747939,-0.0921175554394722,-35.3632621,149.1652375,-0.006,-0.01,0.01,0.0,-9.942203178070486e-05,9.444936586078256e-05,0.0,1000,1000,1000,1000,12600,0,0.00264367600902915,0.0028392449021339417,0.0027064899913966656,10,{}
attack_corridor_base_5,1,pos_spoof,60609,0.0011598190758377314,0.0009716156055219471,-0.09221701323986053,-35.3632622,149.1652375,-0.006,-0.01,0.01,0.0,-9.942204633262008e-05,9.444936586078256e-05,0.0,1000,1000,1000,1000,12600,0,0.0027707696426659822,0.002933873562142253,0.0028347743209451437,10,{}
attack_corridor_base_5,1,pos_spoof,60857,0.0011504931608214974,0.0009576431475579739,-0.09232048690319061,-35.3632621,149.1652375,-0.006,-0.01,0.01,0.0,-9.942202450474724e-05,9.444936586078256e-05,0.0,1000,1000,1000,1000,12600,0,0.002845232840627432,0.0027584449853748083,0.00260436930693686,10,{}
attack_corridor_base_5,1,pos_spoof,61107,0.0011541639687493443,0.0009533643024042249,-0.09242001920938492,-35.3632621,149.1652375,-0.006,-0.01,0.01,0.0,-9.94220536085777e-05,9.444938041269779e-05,0.0,1000,1000,1000,1000,12600,0,0.002500199945643544,0.0029055047780275345,0.002839866327121854,10,{}
attack_corridor_base_5,1,pos_spoof,61357,0.0011569516500458121,0.0009570189868099988,-0.09251154214143753,-35.3632622,149.1652375,-0.006,-0.01,0.01,0.0,-9.942203905666247e-05,9.444936586078256e-05,0.0,1000,1000,1000,1000,12600,0,0.0030743605457246304,0.003097902750596404,0.0030541466549038887,10,{}
attack_corridor_base_5,1,pos_spoof,61607,0.0011638278374448419,0.0009604333317838609,-0.0926051139831543,-35.3632622,149.1652375,-0.006,-0.01,0.01,0.0,-9.942208271240816e-05,9.444936586078256e-05,0.0,1000,1000,1000,1000,12600,0,0.002756094792857766,0.0028211004100739956,0.0029993485659360886,10,{}
attack_corridor_base_5,1,pos_spoof,61859,0.0011544275330379605,0.0009527966612949967,-0.09268105775117874,-35.3632622,149.1652375,-0.006,-0.01,0.01,0.0,-9.942209726432338e-05,9.444940951652825e-05,0.0,1000,1000,1000,1000,12600,0,0.002897427650168538,0.0027740972582250834,0.0030336007475852966,10,{}
attack_corridor_base_5,1,pos_spoof,62109,0.0011569677153602242,0.0009554944699630141,-0.09277230501174927,-35.3632622,149.1652375,-0.006,-0.01,0.01,0.0,-9.9422104540281e-05,9.444942406844348e-05,0.0,1000,1000,1000,1000,12600,0,0.002576263854280114,0.0028237842489033937,0.00281587615609169,10,{}
attack_corridor_base_5,1,pos_spoof,62359,0.001162378117442131,0.0009543164051137865,-0.09286495298147202,-35.3632622,149.1652375,-0.006,-0.01,0.01,0.0,-9.942212636815384e-05,9.444945317227393e-05,0.0,1000,1000,1000,1000,12600,0,0.0026123153511434793,0.0026703509502112865,0.0027822148986160755,10,{}
attack_corridor_base_5,1,pos_spoof,62609,0.0011630640365183353,0.0009633832378312945,-0.09295174479484558,-35.3632622,149.1652375,-0.006,-0.01,0.01,0.0,-9.942212636815384e-05,9.444947500014678e-05,0.0,1000,1000,1000,1000,12600,0,0.002607963513582945,0.00300018722191453,0.0027914310339838266,10,{}
attack_corridor_base_5,1,pos_spoof,62857,0.001160485320724547,0.0009621976059861481,-0.09304482489824295,-35.3632621,149.1652375,-0.006,-0.01,0.01,0.0,-9.942214092006907e-05,9.4449489552062e-05,0.0,1000,1000,1000,1000,12600,0,0.002651479560881853,0.003121313638985157,0.0026552302297204733,10,{}
attack_corridor_base_5,1,pos_spoof,63107,0.0011597730917856097,0.0009676816989667714,-0.09314043819904327,-35.3632622,149.1652375,-0.006,-0.01,0.01,0.0,-9.942209726432338e-05,9.444941679248586e-05,0.0,1000,1000,1000,1000,12600,0,0.0029293911065906286,0.0028691685292869806,0.0026994990184903145,10,{}
attack_corridor_base_5,1,pos_spoof,63357,0.0011584697058424354,0.0009658655035309494,-0.0932370126247406,-35.3632622,149.1652375,-0.006,-0.01,0.01,0.0,-9.942211181623861e-05,9.444940951652825e-05,0.0,1000,1000,1000,1000,12600,0,0.0027864265721291304,0.0026744119822978973,0.002895828802138567,10,{}
attack_corridor_base_5,1,pos_spoof,63607,0.0011627428466454148,0.0009755063219927251,-0.0933191254734993,-35.3632622,149.1652375,-0.006,-0.01,0.01,0.0,-9.942211181623861e-05,9.44493876886554e-05,0.0,1000,1000,1000,1000,12600,0,0.002906401641666889,0.00250183860771358,0.0027420709375292063,10,{}
attack_corridor_base_5,1,pos_spoof,63859,0.0011575233656913042,0.0009708762518130243,-0.09340231865644455,-35.3632622,149.1652375,-0.006,-0.01,0.01,0.0,-9.942211181623861e-05,9.444943134440109e-05,0.0,1000,1000,1000,1000,12600,0,0.002907722955569625,0.0029737127479165792,0.0028477597516030073,10,{}
attack_corridor_base_5,1,pos_spoof,64109,0.0011629948858171701,0.0009625497623346746,-0.09349004924297333,-35.3632622,149.1652375,-0.006,-0.01,0.01,0.0,-9.942211909219623e-05,9.444942406844348e-05,0.0,1000,1000,1000,1000,12600,0,0.0027221243362873793,0.003016339847818017,0.0031026387587189674,10,{}
attack_corridor_base_5,1,pos_spoof,64359,0.0011643841862678528,0.0009647234110161662,-0.0935746431350708,-35.3632622,149.1652375,-0.006,-0.01,0.01,0.0,-9.942214819602668e-05,9.444943134440109e-05,0.0,1000,1000,1000,1000,12600,0,0.0028825874906033278,0.00287686032243073,0.002806844422593713,10,{}
attack_corridor_base_5,1,pos_spoof,64609,0.0011742374626919627,0.0009671474690549076,-0.09366049617528915,-35.3632622,149.1652375,-0.006,-0.01,0.01,0.0,-9.942217002389953e-05,9.444946044823155e-05,0.0,1000,1000,1000,1000,12600,0,0.002824182389304042,0.0028840594459325075,0.0029115660581737757,10,{}
attack_corridor_base_5,1,pos_spoof,64859,0.0011716042645275593,0.0009586861706338823,-0.09374558180570602,-35.3632621,149.1652375,-0.006,-0.01,0.01,0.0,-9.942219912772998e-05,9.444946772418916e-05,0.0,1000,1000,1000,1000,12600,0,0.0028020250611007214,0.0029560797847807407,0.0029144000727683306,10,{}
attack_corridor_base_5,1,pos_spoof,65107,0.0011646389029920101,0.0009524457273073494,-0.0938311368227005,-35.3632621,149.1652375,-0.006,-0.01,0.01,0.0,-9.942217729985714e-05,9.444945317227393e-05,0.0,1000,1000,1000,1000,12600,0,0.002846860559657216,0.0030448264442384243,0.0027191070839762688,10,{}
attack_corridor_base_5,1,pos_spoof,65357,0.0011628345819190145,0.0009588719112798572,-0.09391337633132935,-35.3632621,149.1652375,-0.006,-0.01,0.01,0.0,-9.942219185177237e-05,9.444947500014678e-05,0.0,1000,1000,1000,1000,12600,0,0.0027609574608504772,0.0027785159181803465,0.0029155134689062834,10,{}
attack_corridor_base_5,1,pos_spoof,65607,0.0011659776791930199,0.0009660838986746967,-0.09399935603141785,-35.3632622,149.1652375,-0.006,-0.01,0.01,0.0,-9.942222095560282e-05,9.444951137993485e-05,0.0,1000,1000,1000,1000,12600,0,0.0027030259370803833,0.002563867950811982,0.0027166062500327826,10,{}
attack_corridor_base_5,1,pos_spoof,65859,0.0011626722989603877,0.0009607851970940828,-0.09408099204301834,-35.3632621,149.1652375,-0.006,-0.01,0.01,0.0,-9.942219912772998e-05,9.4449489552062e-05,0.0,1000,1000,1000,1000,12600,0,0.0026965041179209948,0.002991631394252181,0.002652183873578906,10,{}
attack_corridor_base_5,1,pos_spoof,66109,0.0011652786051854491,0.0009615044109523296,-0.09416186809539795,-35.3632621,149.1652375,-0.006,-0.01,0.01,0.0,-9.942219185177237e-05,9.4449489552062e-05,0.0,1000,1000,1000,1000,12600,0,0.002651833463460207,0.002939603989943862,0.002944599138572812,10,{}
attack_corridor_base_5,1,pos_spoof,66359,0.0011716493172571063,0.0009616982424631715,-0.0942365825176239,-35.3632621,149.1652375,-0.006,-0.01,0.01,0.0,-9.942219912772998e-05,9.444951137993485e-05,0.0,1000,1000,1000,1000,12600,0,0.0028581684455275536,0.002851201221346855,0.0026736941654235125,10,{}
attack_corridor_base_5,1,pos_spoof,66609,0.0011715091532096267,0.0009742812835611403,-0.09432173520326614,-35.3632622,149.1652375,-0.006,-0.01,0.01,0.0,-9.942217729985714e-05,9.444947500014678e-05,0.0,1000,1000,1000,1000,12600,0,0.0029005699325352907,0.0027807378210127354,0.002708904445171356,10,{}
attack_corridor_base_5,1,pos_spoof,66859,0.001172133139334619,0.0009718957007862628,-0.09439142793416977,-35.3632621,149.1652375,-0.006,-0.01,0.01,0.0,-9.942214819602668e-05,9.444947500014678e-05,0.0,1000,1000,1000,1000,12600,0,0.0024763979017734528,0.0028172589372843504,0.002990212058648467,10,{}
attack_corridor_base_5,1,pos_spoof,67107,0.0011719756294041872,0.0009704708936624229,-0.0944526419043541,-35.3632621,149.1652375,-0.006,-0.01,0.01,0.0,-9.94221554719843e-05,9.444950410397723e-05,0.0,1000,1000,1000,1000,12600,0,0.0029315960127860308,0.002608770038932562,0.0031276470981538296,10,{}
attack_corridor_base_5,1,pos_spoof,67357,0.0011737729655578732,0.0009735629428178072,-0.09451471269130707,-35.3632621,149.1652375,-0.006,-0.01,0.01,0.0,-9.942214819602668e-05,9.4449489552062e-05,0.0,1000,1000,1000,1000,12600,0,0.0029668936040252447,0.002841623267158866,0.0028961992356926203,10,{}
attack_corridor_base_5,1,pos_spoof,67607,0.001176408608444035,0.0009820432169362903,-0.09458958357572556,-35.3632622,149.1652375,-0.006,-0.01,0.01,0.0,-9.942221367964521e-05,9.444949682801962e-05,0.0,1000,1000,1000,1000,12600,0,0.0026007136330008507,0.0029933638870716095,0.002721191616728902,10,{}
attack_corridor_base_5,1,pos_spoof,67857,0.0011767096584662795,0.0009822479914873838,-0.09466615319252014,-35.3632621,149.1652375,-0.006,-0.01,0.01,0.0,-9.942214092006907e-05,9.444947500014678e-05,0.0,1000,1000,1000,1000,12600,0,0.002686419291421771,0.0029666952323168516,0.0027812058106064796,10,{}
attack_corridor_base_5,1,pos_spoof,68109,0.0011777249164879322,0.0009811946656554937,-0.09473525732755661,-35.3632622,149.1652375,-0.006,-0.01,0.01,0.0,-9.942217002389953e-05,9.444952593185008e-05,0.0,1000,1000,1000,1000,12600,0,0.0030995316337794065,0.002659887308254838,0.0024362201802432537,10,{}
attack_corridor_base_5,1,pos_spoof,68359,0.0011827886337414384,0.0009911633096635342,-0.09480980038642883,-35.3632622,149.1652375,-0.006,-0.01,0.01,0.0,-9.942214092006907e-05,9.444946044823155e-05,0.0,1000,1000,1000,1000,12600,0,0.002987128449603915,0.002749452367424965,0.002868725685402751,10,{}
