flight_id,label,attack_type,timestamp,att_roll,att_pitch,att_yaw,pos_lat,pos_lon,pos_alt_rel,pos_vx,pos_vy,pos_vz,nav_roll,nav_pitch,nav_alt_error,servo1_raw,servo2_raw,servo3_raw,servo4_raw,sys_voltage_battery,sys_load,vib_x,vib_y,vib_z,gps_sats_visible,attack_params_json
attack_corridor_base_14,1,pos_yawl_alt_spoof,10154,0.0001924292155308649,-3.969237150158733e-05,-0.34187281131744385,-35.3632621,149.1652374,0.0,0.0,0.0,-0.03,-9.942170436261222e-05,9.444944589631632e-05,0.0,1000,1000,1000,1000,12600,0,0.00281540653668344,0.0025451895780861378,0.0026924132835119963,10,{}
attack_corridor_base_14,1,pos_yawl_alt_spoof,10486,0.00019809644436463714,-2.9194372473284602e-05,-0.3119935989379883,-35.3632621,149.1652374,0.0,0.0,0.0,-0.03,-9.942170436261222e-05,9.444944589631632e-05,0.0,1000,1000,1000,1000,12600,0,0.0025974083691835403,0.002812467748299241,0.0028824438340961933,10,{}
attack_corridor_base_14,1,pos_yawl_alt_spoof,10819,0.0002006328577408567,-2.1613426724798046e-05,-0.2825010120868683,-35.3632621,149.1652374,0.0,0.0,0.0,-0.03,-9.94216970866546e-05,9.444939496461302e-05,0.0,1000,1000,1000,1000,12600,0,0.002784739714115858,0.0026583734434098005,0.0029368815012276173,10,{}
attack_corridor_base_14,1,pos_yawl_alt_spoof,11152,0.00020586996106430888,-1.0365460184402764e-05,-0.24846325814723969,-35.3632621,149.1652374,0.0,0.0,0.0,-0.03,-9.942158067133278e-05,9.444936586078256e-05,0.0,1000,1000,1000,1000,12600,0,0.002809077501296997,0.002772880718111992,0.0027801988180726767,10,{}
attack_corridor_base_14,1,pos_yawl_alt_spoof,11484,0.00020981980196665972,-1.6250724002020434e-06,-0.22503681480884552,-35.3632621,149.1652374,0.0,0.0,0.0,-0.03,-9.942158067133278e-05,9.444936586078256e-05,0.0,1000,1000,1000,1000,12600,0,0.0030387446749955416,0.0027863504365086555,0.0029478720389306545,10,{}
attack_corridor_base_14,1,pos_yawl_alt_spoof,11819,0.00021604239009320736,8.102737751869427e-07,-0.20378275215625763,-35.3632621,149.1652374,0.0,0.0,0.0,-0.03,-9.9421595223248e-05,9.444940951652825e-05,0.0,1000,1000,1000,1000,12600,0,0.0029528336599469185,0.00264117494225502,0.0025458179879933596,10,{}
attack_corridor_base_14,1,pos_yawl_alt_spoof,12151,0.00022371220984496176,1.9607532522059046e-05,-0.17904621362686157,-35.3632621,149.1652374,0.0,0.0,0.0,-0.02,-9.942165343090892e-05,9.444939496461302e-05,0.0,1000,1000,1000,1000,12600,0,0.0027662531938403845,0.0029370118863880634,0.0030441635753959417,10,{}
attack_corridor_base_14,1,pos_yawl_alt_spoof,12484,0.00023085983411874622,2.3507138394052163e-05,-0.16280920803546906,-35.3632621,149.1652374,0.0,0.0,0.0,-0.02,-9.942165343090892e-05,9.444939496461302e-05,0.0,1000,1000,1000,1000,12600,0,0.0028346185572445393,0.0029460727237164974,0.0028305361047387123,10,{}
attack_corridor_base_14,1,pos_yawl_alt_spoof,12816,0.0002360053767915815,3.5005079553229734e-05,-0.14834077656269073,-35.3632621,149.1652374,0.0,0.0,0.0,-0.02,-9.942168253473938e-05,9.444938041269779e-05,0.0,1000,1000,1000,1000,12600,0,0.002783471019938588,0.0028083070646971464,0.0030141582246869802,10,{}
attack_corridor_base_14,1,pos_yawl_alt_spoof,13149,0.0002466656733304262,3.68787077604793e-05,-0.13550269603729248,-35.3632621,149.1652374,0.0,0.0,0.0,-0.02,-9.942162432707846e-05,9.444936586078256e-05,0.0,1000,1000,1000,1000,12600,0,0.0028114363085478544,0.002680888632312417,0.002781861461699009,10,{}
attack_corridor_base_14,1,pos_yawl_alt_spoof,13482,0.00025898386957123876,4.5346077968133613e-05,-0.12077652662992477,-35.3632621,149.1652374,0.0,0.0,0.0,-0.01,-9.942162432707846e-05,9.444936586078256e-05,0.0,1000,1000,1000,1000,12600,0,0.0027176805306226015,0.0025745804887264967,0.002944318111985922,10,{}
attack_corridor_base_14,1,pos_yawl_alt_spoof,13816,0.0002666323271114379,5.645579949487001e-05,-0.11128395050764084,-35.3632621,149.1652374,0.0,0.0,0.0,-0.01,-9.942161705112085e-05,9.44493876886554e-05,0.0,1000,1000,1000,1000,12600,0,0.0027892175130546093,0.0025492189452052116,0.0024960744194686413,10,{}
attack_corridor_base_14,1,pos_yawl_alt_spoof,14149,0.000276896171271801,6.376627425197512e-05,-0.10296333581209183,-35.3632621,149.1652374,0.0,0.0,0.0,-0.01,-9.942152973962948e-05,9.444936586078256e-05,0.0,1000,1000,1000,1000,12600,0,0.002562240231782198,0.002644794527441263,0.002801112597808242,10,{}
attack_corridor_base_14,1,pos_yawl_alt_spoof,14481,0.0002855179482139647,7.829364767530933e-05,-0.0934772789478302,-35.3632621,149.1652374,0.0,0.0,0.0,-0.01,-9.942152973962948e-05,9.444936586078256e-05,0.0,1000,1000,1000,1000,12600,0,0.0026755293365567923,0.0029739669989794493,0.0023685703054070473,10,{}
attack_corridor_base_14,1,pos_yawl_alt_spoof,14814,0.00029960935353301466,8.871151658240706e-05,-0.08739122003316879,-35.3632621,149.1652374,0.0,0.0,0.0,-0.01,-9.942150063579902e-05,9.444931492907926e-05,0.0,1000,1000,1000,1000,12600,0,0.002969329943880439,0.0027812086045742035,0.002690560184419155,10,{}
attack_corridor_base_14,1,pos_yawl_alt_spoof,15354,0.00032044018735177815,0.00010651403135852888,-0.07721276581287384,-35.3632621,149.1652374,0.0,0.0,0.0,-0.01,-9.942150791175663e-05,9.444936586078256e-05,0.0,1000,1000,1000,1000,12600,0,0.0026549508329480886,0.002587608527392149,0.0027251902502030134,10,{}
attack_corridor_base_14,1,pos_yawl_alt_spoof,15604,0.0003307894803583622,0.00011132283543702215,-0.0738353282213211,-35.3632621,149.1652374,0.0,0.0,0.0,-0.01,-9.942150063579902e-05,9.444934403290972e-05,0.0,1000,1000,1000,1000,12600,0,0.002653527772054076,0.002774166176095605,0.002812858670949936,10,{}
attack_corridor_base_14,1,pos_yawl_alt_spoof,15854,0.0003366611781530082,0.00012025694741168991,-0.07094002515077591,-35.3632621,149.1652374,0.0,0.0,0.0,0.0,-9.94214933598414e-05,9.444936586078256e-05,0.0,1000,1000,1000,1000,12600,0,0.002653527772054076,0.002774166176095605,0.002812858670949936,10,{}
attack_corridor_base_14,1,pos_yawl_alt_spoof,16104,0.0003452042583376169,0.00012997495650779456,-0.06826519221067429,-35.3632621,149.1652374,0.0,0.0,0.0,0.0,-9.94214933598414e-05,9.444938041269779e-05,0.0,1000,1000,1000,1000,12600,0,0.002689564600586891,0.0027778451330959797,0.0026310335379093885,10,{}
attack_corridor_base_14,1,pos_yawl_alt_spoof,16354,0.0003532669215928763,0.00013789819786325097,-0.06596497446298599,-35.3632621,149.1652374,0.0,0.0,0.0,0.0,-9.942147880792618e-05,9.444936586078256e-05,0.0,1000,1000,1000,1000,12600,0,0.0031124455854296684,0.002577061764895916,0.002881899941712618,10,{}
attack_corridor_base_14,1,pos_yawl_alt_spoof,16604,0.00036598052247427404,0.00014508528693113476,-0.06390956789255142,-35.3632621,149.1652374,0.0,0.0,0.0,0.0,-9.942147880792618e-05,9.444936586078256e-05,0.0,1000,1000,1000,1000,12600,0,0.003138972446322441,0.0027225748635828495,0.0025814620312303305,10,{}
attack_corridor_base_14,1,pos_yawl_alt_spoof,16854,0.00037629168946295977,0.00015352379705291241,-0.06214262917637825,-35.3632621,149.1652374,0.0,0.0,0.0,0.0,-9.942151518771425e-05,9.44493876886554e-05,0.0,1000,1000,1000,1000,12600,0,0.003138972446322441,0.0027225748635828495,0.0025814620312303305,10,{}
attack_corridor_base_14,1,pos_yawl_alt_spoof,17104,0.00038718560244888067,0.0001591964828548953,-0.060529809445142746,-35.3632621,149.1652374,0.0,0.0,0.0,0.0,-9.942151518771425e-05,9.44493876886554e-05,0.0,1000,1000,1000,1000,12600,0,0.002952189650386572,0.0028077492024749517,0.002759661292657256,10,{}
attack_corridor_base_14,1,pos_yawl_alt_spoof,17559,0.0003955228894483298,0.00016777533164713532,-0.05919777229428291,-35.3632621,149.1652374,0.0,0.0,0.0,0.0,-9.942151518771425e-05,9.444937313674018e-05,0.0,1000,1000,1000,1000,12600,0,0.002766632940620184,0.0028331121429800987,0.0029151025228202343,10,{}
attack_corridor_base_14,1,pos_yawl_alt_spoof,17892,0.00041747657814994454,0.00019016119767911732,-0.056771427392959595,-35.3632621,149.1652374,0.0,0.0,0.0,0.0,-9.942160977516323e-05,9.444936586078256e-05,0.0,1000,1000,1000,1000,12600,0,0.0027272331062704325,0.00284578581340611,0.0026277501601725817,10,{}
attack_corridor_base_14,1,pos_yawl_alt_spoof,18224,0.00042809962178580463,0.00020407747069839388,-0.055764004588127136,-35.3632621,149.1652374,0.0,0.0,0.0,0.0,-9.942168981069699e-05,9.444936586078256e-05,0.0,1000,1000,1000,1000,12600,0,0.0028591409791260958,0.0029123129788786173,0.0030343206599354744,10,{}
attack_corridor_base_14,1,pos_yawl_alt_spoof,18559,0.00044118889491073787,0.00021569521049968898,-0.05492705851793289,-35.3632621,149.1652374,0.0,0.0,0.0,0.0,-9.942168981069699e-05,9.444936586078256e-05,0.0,1000,1000,1000,1000,12600,0,0.0028845849446952343,0.0029461232479661703,0.002932948525995016,10,{}
attack_corridor_base_14,1,pos_yawl_alt_spoof,18891,0.000461984658613801,0.00023515979410149157,-0.05408961698412895,-35.3632621,149.1652374,0.0,0.0,0.0,0.0,-9.942160249920562e-05,9.444928582524881e-05,0.0,1000,1000,1000,1000,12600,0,0.0028612297028303146,0.0029114217031747103,0.002907120855525136,10,{}
attack_corridor_base_14,1,pos_yawl_alt_spoof,19224,0.00047835419536568224,0.00024917590781114995,-0.05364297702908516,-35.3632621,149.1652374,0.0,0.0,0.0,0.0,-9.942161705112085e-05,9.444933675695211e-05,0.0,1000,1000,1000,1000,12600,0,0.0026805992238223553,0.002946915104985237,0.0027428774628788233,10,{}
attack_corridor_base_14,1,pos_yawl_alt_spoof,19557,0.00048801489174366,0.000258880463661626,-0.05328844115138054,-35.3632621,149.1652374,0.0,0.0,0.0,0.0,-9.942161705112085e-05,9.444933675695211e-05,0.0,1000,1000,1000,1000,12600,0,0.0029031008016318083,0.002810877747833729,0.0028906730003654957,10,{}
attack_corridor_base_14,1,pos_yawl_alt_spoof,19889,0.0005136911640875041,0.0002777095069177449,-0.052863914519548416,-35.3632621,149.1652374,0.0,0.0,0.0,0.0,-9.942166070686653e-05,9.444935130886734e-05,0.0,1000,1000,1000,1000,12600,0,0.0030229350086301565,0.0026099688839167356,0.0029131637420505285,10,{}
attack_corridor_base_14,1,pos_yawl_alt_spoof,20224,0.0005295935552567244,0.0002987991611007601,-0.0525665320456028,-35.3632621,149.1652374,-0.006,0.0,0.0,0.0,-9.942177712218836e-05,9.444940951652825e-05,0.0,1000,1000,1000,1000,12600,0,0.00298679294064641,0.002840561093762517,0.002660234458744526,10,{}
attack_corridor_base_14,1,pos_yawl_alt_spoof,20556,0.000545663177035749,0.0003135380975436419,-0.05254160985350609,-35.3632621,149.1652374,-0.008,0.0,0.0,0.0,-9.942177712218836e-05,9.444940951652825e-05,0.0,1000,1000,1000,1000,12600,0,0.0027744031976908445,0.0028975147288292646,0.00263377302326262,10,{}
attack_corridor_base_14,1,pos_yawl_alt_spoof,20889,0.0005661126924678683,0.0003329580940771848,-0.052635252475738525,-35.3632621,149.1652374,-0.007,0.0,0.0,0.0,-9.942174074240029e-05,9.444940224057063e-05,0.0,1000,1000,1000,1000,12600,0,0.002955690259113908,0.002877734135836363,0.003148723393678665,10,{}
attack_corridor_base_14,1,pos_yawl_alt_spoof,21222,0.0005800982471555471,0.0003484768676571548,-0.05274207144975662,-35.3632621,149.1652374,-0.005,0.0,0.0,0.0,-9.942175529431552e-05,9.444935858482495e-05,0.0,1000,1000,1000,1000,12600,0,0.0029109553433954716,0.0026133530773222446,0.002849075710400939,10,{}
attack_corridor_base_14,1,pos_yawl_alt_spoof,21554,0.0005956951063126326,0.00036551585071720183,-0.052949320524930954,-35.3632621,149.1652374,-0.004,0.0,0.0,0.0,-9.942175529431552e-05,9.444935858482495e-05,0.0,1000,1000,1000,1000,12600,0,0.0027737708296626806,0.002849995158612728,0.002712744055315852,10,{}
attack_corridor_base_14,1,pos_yawl_alt_spoof,21887,0.0006179172778502107,0.00037929369136691093,-0.053168755024671555,-35.3632621,149.1652374,-0.002,0.0,0.0,0.0,-9.942176984623075e-05,9.444932948099449e-05,0.0,1000,1000,1000,1000,12600,0,0.0032282702159136534,0.002871684730052948,0.002825514180585742,10,{}
attack_corridor_base_14,1,pos_yawl_alt_spoof,22221,0.0006415107636712492,0.00040115509182214737,-0.05353569611907005,-35.3632621,149.1652374,-0.001,0.0,0.01,0.0,-9.942186443367973e-05,9.444946772418916e-05,0.0,1000,1000,1000,1000,12600,0,0.0028329610358923674,0.0026435311883687973,0.0027858270332217216,10,{}
attack_corridor_base_14,1,pos_yawl_alt_spoof,22554,0.0006595070008188486,0.0004204609140288085,-0.05383743345737457,-35.3632621,149.1652374,0.0,0.0,0.01,0.0,-9.942186443367973e-05,9.444946772418916e-05,0.0,1000,1000,1000,1000,12600,0,0.0027420944534242153,0.002777697751298547,0.002927236258983612,10,{}
attack_corridor_base_14,1,pos_yawl_alt_spoof,22886,0.0006770432228222489,0.000441737356595695,-0.05419076606631279,-35.3632621,149.1652374,0.0,0.0,0.01,0.0,-9.942194446921349e-05,9.444947500014678e-05,0.0,1000,1000,1000,1000,12600,0,0.0027028804179280996,0.002565516158938408,0.0030662142671644688,10,{}
attack_corridor_base_14,1,pos_yawl_alt_spoof,23219,0.0006985457148402929,0.00046469317749142647,-0.05468554049730301,-35.3632621,149.1652374,0.001,-0.01,0.01,0.0,-9.942190808942541e-05,9.444942406844348e-05,0.0,1000,1000,1000,1000,12600,0,0.003130765398964286,0.0028515944723039865,0.0026968272868543863,10,{}
attack_corridor_base_14,1,pos_yawl_alt_spoof,23552,0.0007122082752175629,0.00048516952665522695,-0.05511142686009407,-35.3632621,149.1652374,0.001,-0.01,0.01,0.0,-9.942190808942541e-05,9.444942406844348e-05,0.0,1000,1000,1000,1000,12600,0,0.0027288245037198067,0.0028246112633496523,0.0027134562842547894,10,{}
attack_corridor_base_14,1,pos_yawl_alt_spoof,23887,0.0007275535608641803,0.0004973769537173212,-0.055504586547613144,-35.3632621,149.1652374,0.002,-0.01,0.01,0.0,-9.942183532984927e-05,9.444941679248586e-05,0.0,1000,1000,1000,1000,12600,0,0.0025656307116150856,0.0026708797086030245,0.0026104396674782038,10,{}
attack_corridor_base_14,1,pos_yawl_alt_spoof,24219,0.0007470929413102567,0.0005231640534475446,-0.05610591173171997,-35.3632621,149.1652374,0.002,-0.01,0.01,0.0,-9.942186443367973e-05,9.444942406844348e-05,0.0,1000,1000,1000,1000,12600,0,0.0025983774103224277,0.0027397708036005497,0.0026117449160665274,10,{}
attack_corridor_base_14,1,pos_yawl_alt_spoof,24551,0.0007596167270094156,0.0005345051758922637,-0.05653258413076401,-35.3632621,149.1652374,0.002,-0.01,0.01,0.0,-9.942186443367973e-05,9.444942406844348e-05,0.0,1000,1000,1000,1000,12600,0,0.0027721684891730547,0.00290002953261137,0.002774927532300353,10,{}
attack_corridor_base_14,1,pos_yawl_alt_spoof,24884,0.0007769368239678442,0.0005536637618206441,-0.05696786940097809,-35.3632621,149.1652374,0.003,-0.01,0.01,0.0,-9.94219008134678e-05,9.444944589631632e-05,0.0,1000,1000,1000,1000,12600,0,0.00275662774220109,0.002995568560436368,0.002754210727289319,10,{}
attack_corridor_base_14,1,pos_yawl_alt_spoof,25219,0.0007935304893180728,0.0005744085647165775,-0.0575844906270504,-35.3632621,149.1652374,0.003,-0.01,0.01,0.0,-9.942192264134064e-05,9.444950410397723e-05,0.0,1000,1000,1000,1000,12600,0,0.002780240261927247,0.0027223569341003895,0.0027118627913296223,10,{}
attack_corridor_base_14,1,pos_yawl_alt_spoof,25552,0.0008089000475592911,0.000586675712838769,-0.05799755081534386,-35.3632621,149.1652374,0.003,-0.01,0.01,0.0,-9.942192264134064e-05,9.444950410397723e-05,0.0,1000,1000,1000,1000,12600,0,0.0027631958946585655,0.00279016955755651,0.0028934853617101908,10,{}
attack_corridor_base_14,1,pos_yawl_alt_spoof,25884,0.0008233243715949357,0.0006068345974199474,-0.058351337909698486,-35.3632621,149.1652374,0.003,-0.01,0.01,0.0,-9.942190808942541e-05,9.444952593185008e-05,0.0,1000,1000,1000,1000,12600,0,0.0026882074307650328,0.0029755656141787767,0.0029557247180491686,10,{}
attack_corridor_base_14,1,pos_yawl_alt_spoof,26217,0.0008468893356621265,0.0006195463356561959,-0.059000853449106216,-35.3632621,149.1652374,0.002,-0.01,0.01,0.0,-9.94219008134678e-05,9.444946772418916e-05,0.0,1000,1000,1000,1000,12600,0,0.0029678104910999537,0.0027577185537666082,0.0031136004254221916,10,{}
attack_corridor_base_14,1,pos_yawl_alt_spoof,26549,0.0008581833099015057,0.0006241112714633346,-0.059492748230695724,-35.3632621,149.1652374,0.002,-0.01,0.01,0.0,-9.94219008134678e-05,9.444946772418916e-05,0.0,1000,1000,1000,1000,12600,0,0.0025339769199490547,0.0026630559004843235,0.002901675645262003,10,{}
attack_corridor_base_14,1,pos_yawl_alt_spoof,26884,0.0008716550655663013,0.0006317855441011488,-0.059985145926475525,-35.3632621,149.1652374,0.002,-0.01,0.01,0.0,-9.942192991729826e-05,9.444944589631632e-05,0.0,1000,1000,1000,1000,12600,0,0.0029184899758547544,0.002806949196383357,0.0026668685022741556,10,{}
attack_corridor_base_14,1,pos_yawl_alt_spoof,27216,0.0008871019817888737,0.0006534327403642237,-0.060653187334537506,-35.3632621,149.1652374,0.002,-0.01,0.01,0.0,-9.942197357304394e-05,9.444951865589246e-05,0.0,1000,1000,1000,1000,12600,0,0.002796586835756898,0.0028207229916006327,0.0028036711737513542,10,{}
attack_corridor_base_14,1,pos_yawl_alt_spoof,27549,0.0008956904639489949,0.0006566187948919833,-0.0611715093255043,-35.3632621,149.1652374,0.001,-0.01,0.01,0.0,-9.942197357304394e-05,9.444951865589246e-05,0.0,1000,1000,1000,1000,12600,0,0.0026850050780922174,0.0028045596554875374,0.0027041358407586813,10,{}
attack_corridor_base_14,1,pos_yawl_alt_spoof,27882,0.0009094902197830379,0.0006718568620271981,-0.06167596951127052,-35.3632621,149.1652374,0.001,-0.01,0.01,0.0,-9.94219517451711e-05,9.444949682801962e-05,0.0,1000,1000,1000,1000,12600,0,0.0028168114367872477,0.002691481029614806,0.0027383449487388134,10,{}
attack_corridor_base_14,1,pos_yawl_alt_spoof,28214,0.000923072686418891,0.0006869049393571913,-0.06232788413763046,-35.3632621,149.1652374,0.001,-0.01,0.01,0.0,-9.942204633262008e-05,9.44495914154686e-05,0.0,1000,1000,1000,1000,12600,0,0.002750694751739502,0.0029411122668534517,0.0027162102051079273,10,{}
attack_corridor_base_14,1,pos_yawl_alt_spoof,28549,0.000935144315008074,0.0006972557166591287,-0.06284362822771072,-35.3632621,149.1652374,0.0,-0.01,0.01,0.0,-9.942204633262008e-05,9.44495914154686e-05,0.0,1000,1000,1000,1000,12600,0,0.0025790215004235506,0.0027285765390843153,0.002889178693294525,10,{}
attack_corridor_base_14,1,pos_yawl_alt_spoof,28881,0.000944318191614002,0.0007134880870580673,-0.06331870704889297,-35.3632621,149.1652374,0.0,-0.01,0.01,0.0,-9.942211181623861e-05,9.444962779525667e-05,0.0,1000,1000,1000,1000,12600,0,0.0029956339858472347,0.002897883066907525,0.002730786567553878,10,{}
attack_corridor_base_14,1,pos_yawl_alt_spoof,29214,0.0009615157032385468,0.0007353175897151232,-0.06396039575338364,-35.3632621,149.1652374,0.0,-0.01,0.01,0.0,-9.942223550751805e-05,9.444968600291759e-05,0.0,1000,1000,1000,1000,12600,0,0.002900704275816679,0.0025379047729074955,0.002477323869243264,10,{}
attack_corridor_base_14,1,pos_yawl_alt_spoof,29547,0.000974628608673811,0.0007398008019663393,-0.06442677229642868,-35.3632621,149.1652374,0.0,-0.01,0.01,0.0,-9.942223550751805e-05,9.444968600291759e-05,0.0,1000,1000,1000,1000,12600,0,0.0027595246210694313,0.002739750547334552,0.002787898061797023,10,{}
attack_corridor_base_14,1,pos_yawl_alt_spoof,29879,0.0009828275069594383,0.0007538357749581337,-0.06491436809301376,-35.3632621,149.1652374,0.0,-0.01,0.02,0.0,-9.942230099113658e-05,9.444970055483282e-05,0.0,1000,1000,1000,1000,12600,0,0.0027563562616705894,0.002970574190840125,0.0028584960382431746,10,{}
attack_corridor_base_14,1,pos_yawl_alt_spoof,30354,0.000998976523987949,0.0007765424088574946,-0.06582401692867279,-35.3632621,149.1652374,-0.001,-0.01,0.02,0.0,-9.942230099113658e-05,9.444970055483282e-05,0.0,1000,1000,1000,1000,12600,0,0.002927282592281699,0.00270459963940084,0.002718627220019698,10,{}
attack_corridor_base_14,1,pos_yawl_alt_spoof,30604,0.0010026745731011033,0.0007829213282093406,-0.06621085107326508,-35.3632621,149.1652374,-0.001,-0.01,0.02,0.0,-9.942230099113658e-05,9.444970055483282e-05,0.0,1000,1000,1000,1000,12600,0,0.002927282592281699,0.00270459963940084,0.002718627220019698,10,{}
attack_corridor_base_14,1,pos_yawl_alt_spoof,30854,0.001014680601656437,0.0007896236493252218,-0.06658640503883362,-35.3632621,149.1652374,-0.001,-0.01,0.02,0.0,-9.942247561411932e-05,9.444986790185794e-05,0.0,1000,1000,1000,1000,12600,0,0.002649520756676793,0.002705460647121072,0.0029449232388287783,10,{}
attack_corridor_base_14,1,pos_yawl_alt_spoof,31104,0.0010177631629630923,0.0007951052393764257,-0.0669742152094841,-35.3632621,149.1652374,-0.002,-0.01,0.02,0.0,-9.942247561411932e-05,9.444986790185794e-05,0.0,1000,1000,1000,1000,12600,0,0.0026380515191704035,0.0026918735820800066,0.0029353960417211056,10,{}
attack_corridor_base_14,1,pos_yawl_alt_spoof,31564,0.0010303289163857698,0.0007989954319782555,-0.06734567135572433,-35.3632621,149.1652374,-0.002,-0.01,0.02,0.0,-9.942254109773785e-05,9.44499479373917e-05,0.0,1000,1000,1000,1000,12600,0,0.002871585311368108,0.002759430557489395,0.002892202464863658,10,{}
attack_corridor_base_14,1,pos_yawl_alt_spoof,31897,0.0010418774327263236,0.0008084059809334576,-0.06801380962133408,-35.3632621,149.1652374,-0.003,-0.01,0.02,0.0,-9.942250471794978e-05,9.444991155760363e-05,0.0,1000,1000,1000,1000,12600,0,0.0026984631549566984,0.002922730753198266,0.002783539704978466,10,{}
attack_corridor_base_14,1,pos_yawl_alt_spoof,32229,0.0010526175610721111,0.0008172173984348774,-0.06845620274543762,-35.3632621,149.1652374,-0.003,-0.01,0.02,0.0,-9.942246833816171e-05,9.444996976526454e-05,0.0,1000,1000,1000,1000,12600,0,0.002937933197245002,0.002877194434404373,0.002677073935046792,10,{}
attack_corridor_base_14,1,pos_yawl_alt_spoof,32561,0.0010610006283968687,0.0008249238017015159,-0.06892155110836029,-35.3632621,149.1652374,-0.003,-0.01,0.02,0.0,-9.942246833816171e-05,9.444996976526454e-05,0.0,1000,1000,1000,1000,12600,0,0.0030995041597634554,0.002709648571908474,0.0028001698665320873,10,{}
attack_corridor_base_14,1,pos_yawl_alt_spoof,32894,0.0010688315378502011,0.0008449205779470503,-0.06949161738157272,-35.3632621,149.1652374,-0.004,-0.01,0.02,0.0,-9.942254109773785e-05,9.444997704122216e-05,0.0,1000,1000,1000,1000,12600,0,0.002646987559273839,0.002667822875082493,0.002976579824462533,10,{}
attack_corridor_base_14,1,pos_yawl_alt_spoof,33229,0.0010816798312589526,0.0008544589509256184,-0.0699271485209465,-35.3632621,149.1652374,-0.004,-0.01,0.02,0.0,-9.942254837369546e-05,9.444993338547647e-05,0.0,1000,1000,1000,1000,12600,0,0.0028562876395881176,0.002843425842002034,0.002838193904608488,10,{}
attack_corridor_base_14,1,pos_yawl_alt_spoof,33561,0.0010957142803817987,0.0008657012949697673,-0.0703541710972786,-35.3632621,149.1652374,-0.004,-0.01,0.02,0.0,-9.942254837369546e-05,9.444993338547647e-05,0.0,1000,1000,1000,1000,12600,0,0.002779295900836587,0.0028370432555675507,0.00269269454292953,10,{}
attack_corridor_base_14,1,pos_yawl_alt_spoof,33894,0.0011126878671348095,0.0008767626713961363,-0.07093016803264618,-35.3632621,149.1652374,-0.004,-0.01,0.02,0.0,-9.942254837369546e-05,9.444997704122216e-05,0.0,1000,1000,1000,1000,12600,0,0.0027921809814870358,0.0029136722441762686,0.0028593873139470816,10,{}
attack_corridor_base_14,1,pos_yawl_alt_spoof,34227,0.0011176522821187973,0.0008824842516332865,-0.07133402675390244,-35.3632621,149.1652374,-0.005,-0.02,0.02,0.0,-9.942247561411932e-05,9.444998431717977e-05,0.0,1000,1000,1000,1000,12600,0,0.0032814948353916407,0.0024947109632194042,0.0027318985667079687,10,{}
attack_corridor_base_14,1,pos_yawl_alt_spoof,34559,0.001128799864090979,0.0008983018924482167,-0.07174009829759598,-35.3632621,149.1652374,-0.005,-0.02,0.02,0.0,-9.942247561411932e-05,9.444998431717977e-05,0.0,1000,1000,1000,1000,12600,0,0.0027297455817461014,0.0029519496019929647,0.0028980534989386797,10,{}
attack_corridor_base_14,1,pos_yawl_alt_spoof,34894,0.0011428899597376585,0.000915486307349056,-0.07227416336536407,-35.3632621,149.1652374,-0.005,-0.02,0.02,0.0,-9.94224101305008e-05,9.444998431717977e-05,0.0,1000,1000,1000,1000,12600,0,0.0025054910220205784,0.002874532015994191,0.0028768754564225674,10,{}
attack_corridor_base_14,1,pos_yawl_alt_spoof,35226,0.0011489292373880744,0.000923744635656476,-0.0726700872182846,-35.3632621,149.1652374,-0.005,-0.02,0.02,0.0,-9.942230099113658e-05,9.444993338547647e-05,0.0,1000,1000,1000,1000,12600,0,0.0030352759640663862,0.0028649689629673958,0.0025384980253875256,10,{}
attack_corridor_base_14,1,pos_yawl_alt_spoof,35559,0.001156963873654604,0.0009315219940617681,-0.07306474447250366,-35.3632621,149.1652374,-0.005,-0.02,0.02,0.0,-9.942230099113658e-05,9.444993338547647e-05,0.0,1000,1000,1000,1000,12600,0,0.002541997702792287,0.0028218969237059355,0.002664721803739667,10,{}
attack_corridor_base_14,1,pos_yawl_alt_spoof,35892,0.0011641628807410598,0.0009332394110970199,-0.07356568425893784,-35.3632621,149.1652374,-0.005,-0.02,0.02,0.0,-9.942235192283988e-05,9.444991155760363e-05,0.0,1000,1000,1000,1000,12600,0,0.002708600601181388,0.00278037553653121,0.002884162124246359,10,{}
attack_corridor_base_14,1,pos_yawl_alt_spoof,36224,0.0011696172878146172,0.0009462599991820753,-0.0738685205578804,-35.3632621,149.1652374,-0.005,-0.02,0.02,0.0,-9.942229371517897e-05,9.444992610951886e-05,0.0,1000,1000,1000,1000,12600,0,0.0030257119797170162,0.0027613218408077955,0.002823470626026392,10,{}
attack_corridor_base_14,1,pos_yawl_alt_spoof,36557,0.001179106649942696,0.0009590226109139621,-0.07425902783870697,-35.3632621,149.1652374,-0.005,-0.02,0.02,0.0,-9.942229371517897e-05,9.444992610951886e-05,0.0,1000,1000,1000,1000,12600,0,0.0029454748146235943,0.002530390629544854,0.0027416988741606474,10,{}
attack_corridor_base_14,1,pos_yawl_alt_spoof,36891,0.001191356685012579,0.0009806053712964058,-0.07475560158491135,-35.3632621,149.1652374,-0.005,-0.02,0.02,0.0,-9.942232281900942e-05,9.444991883356124e-05,0.0,1000,1000,1000,1000,12600,0,0.002516076434403658,0.002690778113901615,0.002558968961238861,10,{}
attack_corridor_base_14,1,pos_yawl_alt_spoof,37224,0.0011992267100140452,0.0009932273533195257,-0.07511848956346512,-35.3632621,149.1652374,-0.005,-0.02,0.02,0.0,-9.942234464688227e-05,9.444988972973078e-05,0.0,1000,1000,1000,1000,12600,0,0.003060134593397379,0.002844472648575902,0.0026899955701082945,10,{}
attack_corridor_base_14,1,pos_yawl_alt_spoof,37556,0.0012097603175789118,0.0010020443005487323,-0.07548502087593079,-35.3632621,149.1652374,-0.005,-0.02,0.02,0.0,-9.942234464688227e-05,9.444988972973078e-05,0.0,1000,1000,1000,1000,12600,0,0.0028293852228671312,0.0024745564442127943,0.002642150269821286,10,{}
attack_corridor_base_14,1,pos_yawl_alt_spoof,37889,0.0012134795542806387,0.0010142477694898844,-0.07583627104759216,-35.3632621,149.1652374,-0.006,-0.02,0.02,0.0,-9.942231554305181e-05,9.444986062590033e-05,0.0,1000,1000,1000,1000,12600,0,0.002669735811650753,0.0026798422913998365,0.00278818910010159,10,{}
attack_corridor_base_14,1,pos_yawl_alt_spoof,38222,0.0012250393629074097,0.001036826171912253,-0.07632233202457428,-35.3632621,149.1652374,-0.006,-0.02,0.02,0.0,-9.942233737092465e-05,9.444986062590033e-05,0.0,1000,1000,1000,1000,12600,0,0.0028612297028303146,0.0027907206676900387,0.002673342591151595,10,{}
attack_corridor_base_14,1,pos_yawl_alt_spoof,38557,0.0012329797027632594,0.001040867529809475,-0.07666778564453125,-35.3632621,149.1652374,-0.006,-0.02,0.02,0.0,-9.942233737092465e-05,9.444986062590033e-05,0.0,1000,1000,1000,1000,12600,0,0.003018281888216734,0.0030696368776261806,0.00281439907848835,10,{}
attack_corridor_base_14,1,pos_yawl_alt_spoof,38889,0.0012434112140908837,0.0010483943624421954,-0.07702179253101349,-35.3632621,149.1652374,-0.006,-0.02,0.02,0.0,-9.942229371517897e-05,9.444986062590033e-05,0.0,1000,1000,1000,1000,12600,0,0.002754160203039646,0.0028950562700629234,0.0029108538292348385,10,{}
attack_corridor_base_14,1,pos_yawl_alt_spoof,39221,0.0012509310618042946,0.001067229313775897,-0.0774788185954094,-35.3632621,149.1652374,-0.006,-0.02,0.02,0.0,-9.942226461134851e-05,9.444988245377317e-05,0.0,1000,1000,1000,1000,12600,0,0.0026869219727814198,0.0028156102634966373,0.002773179206997156,10,{}
attack_corridor_base_14,1,pos_yawl_alt_spoof,39554,0.0012480112491175532,0.0010727312183007598,-0.07781906425952911,-35.3632621,149.1652374,-0.006,-0.02,0.02,0.0,-9.942226461134851e-05,9.444988245377317e-05,0.0,1000,1000,1000,1000,12600,0,0.002696624491363764,0.0027607351075857878,0.0028254850767552853,10,{}
attack_corridor_base_14,1,pos_yawl_alt_spoof,39889,0.001257312367670238,0.0010779363801702857,-0.07814323902130127,-35.3632621,149.1652374,-0.006,-0.02,0.02,0.0,-9.94222573353909e-05,9.444991883356124e-05,0.0,1000,1000,1000,1000,12600,0,0.002856813371181488,0.0030006892047822475,0.002566347364336252,10,{}
attack_corridor_base_14,1,pos_yawl_alt_spoof,40222,0.001265833037905395,0.0010844683274626732,-0.07858869433403015,-35.3632621,149.1652374,-0.006,-0.02,0.02,0.0,-9.942228643922135e-05,9.444993338547647e-05,0.0,1000,1000,1000,1000,12600,0,0.002778333146125078,0.0032163141295313835,0.002970297820866108,10,{}
attack_corridor_base_14,1,pos_yawl_alt_spoof,40554,0.0012749930610880256,0.001094470382668078,-0.07889565825462341,-35.3632621,149.1652374,-0.006,-0.02,0.02,0.0,-9.942228643922135e-05,9.444993338547647e-05,0.0,1000,1000,1000,1000,12600,0,0.002642206149175763,0.002900110324844718,0.0027211690321564674,10,{}
attack_corridor_base_14,1,pos_yawl_alt_spoof,40886,0.0012818947434425354,0.0010958609636873007,-0.07919090986251831,-35.3632621,149.1652374,-0.006,-0.02,0.02,0.0,-9.942223550751805e-05,9.444990428164601e-05,0.0,1000,1000,1000,1000,12600,0,0.0027323917020112276,0.0028187741991132498,0.002539609093219042,10,{}
attack_corridor_base_14,1,pos_yawl_alt_spoof,41219,0.0012900868896394968,0.0011086368467658758,-0.07955040037631989,-35.3632621,149.1652374,-0.006,-0.02,0.02,0.0,-9.942229371517897e-05,9.444994066143408e-05,0.0,1000,1000,1000,1000,12600,0,0.00283869169652462,0.0030389539897441864,0.002862795488908887,10,{}
attack_corridor_base_14,1,pos_yawl_alt_spoof,41554,0.0012985521461814642,0.0011168541386723518,-0.07986173033714294,-35.3632621,149.1652374,-0.006,-0.02,0.02,0.0,-9.942229371517897e-05,9.444994066143408e-05,0.0,1000,1000,1000,1000,12600,0,0.003028340172022581,0.003050975501537323,0.002721346216276288,10,{}
attack_corridor_base_14,1,pos_yawl_alt_spoof,41886,0.0013190626632422209,0.001142443623393774,-0.08016535639762878,-35.3632621,149.1652374,-0.006,0.0,0.0,0.0,-9.942232281900942e-05,9.444991155760363e-05,0.0,1000,1000,1000,1000,12600,0,0.0028793432284146547,0.002690957859158516,0.0030625094659626484,10,{}
attack_corridor_base_14,1,pos_yawl_alt_spoof,42219,0.0014236929127946496,0.0012450041249394417,-0.08057807385921478,-35.3632621,149.1652374,-0.006,0.0,0.0,0.0,-9.942231554305181e-05,9.444993338547647e-05,0.0,1000,1000,1000,1000,12600,0,0.0027128690853714943,0.0025999697390943766,0.002750973915681243,10,{}
attack_corridor_base_14,1,pos_yawl_alt_spoof,42552,0.0014888086589053273,0.0013102164957672358,-0.08087770640850067,-35.3632621,149.1652374,-0.006,0.0,0.0,0.0,-9.942231554305181e-05,9.444993338547647e-05,0.0,1000,1000,1000,1000,12600,0,0.002989140572026372,0.0028299561236053705,0.0027315139304846525,10,{}
attack_corridor_base_14,1,pos_yawl_alt_spoof,42884,0.001549530541524291,0.0013732630759477615,-0.08117899298667908,-35.3632621,149.1652374,-0.006,0.0,0.01,0.0,-9.942230099113658e-05,9.444992610951886e-05,0.0,1000,1000,1000,1000,12600,0,0.0026448259595781565,0.0026562348939478397,0.002697392599657178,10,{}
attack_corridor_base_14,1,pos_yawl_alt_spoof,43219,0.0016208488959819078,0.0014412106247618794,-0.08159206062555313,-35.3632621,149.1652374,-0.006,-0.01,0.01,0.0,-9.942232281900942e-05,9.444991155760363e-05,0.0,1000,1000,1000,1000,12600,0,0.0029772657435387373,0.002658145036548376,0.0026924533303827047,10,{}
attack_corridor_base_14,1,pos_yawl_alt_spoof,43551,0.001648467849008739,0.0014640463050454855,-0.08190040290355682,-35.3632621,149.1652374,-0.006,-0.01,0.01,0.0,-9.942232281900942e-05,9.444991155760363e-05,0.0,1000,1000,1000,1000,12600,0,0.002718358999118209,0.0030255524907261133,0.0027178581804037094,10,{}
attack_corridor_base_14,1,pos_yawl_alt_spoof,43884,0.0016620508395135403,0.0014777512988075614,-0.08220711350440979,-35.3632621,149.1652374,-0.006,-0.01,0.01,0.0,-9.94223591987975e-05,9.444986790185794e-05,0.0,1000,1000,1000,1000,12600,0,0.0029475141782313585,0.0029171109199523926,0.0025344667956233025,10,{}
attack_corridor_base_14,1,pos_yawl_alt_spoof,44217,0.001647216035053134,0.0014670786913484335,-0.08262131363153458,-35.3632621,149.1652374,-0.006,-0.01,0.01,0.0,-9.942238102667034e-05,9.44498970056884e-05,0.0,1000,1000,1000,1000,12600,0,0.0027303649112582207,0.002833425533026457,0.0030765694100409746,10,{}
attack_corridor_base_14,1,pos_yawl_alt_spoof,44549,0.001619444228708744,0.001432375400327146,-0.08290622383356094,-35.3632621,149.1652375,-0.006,-0.01,0.02,0.0,-9.942238102667034e-05,9.44498970056884e-05,0.0,1000,1000,1000,1000,12600,0,0.0028386698104441166,0.0028467457741498947,0.0026146559976041317,10,{}
attack_corridor_base_14,1,pos_yawl_alt_spoof,44882,0.0015858113765716553,0.0014008339494466782,-0.08318233489990234,-35.3632621,149.1652375,-0.006,-0.01,0.02,0.0,-9.942234464688227e-05,9.444986790185794e-05,0.0,1000,1000,1000,1000,12600,0,0.0024637847673147917,0.0028509993571788073,0.002582488115876913,10,{}
attack_corridor_base_14,1,pos_yawl_alt_spoof,45354,0.0014804797247052193,0.0012993920827284455,-0.08371040970087051,-35.3632621,149.1652375,-0.006,-0.01,0.02,0.0,-9.942234464688227e-05,9.444986790185794e-05,0.0,1000,1000,1000,1000,12600,0,0.0027506924234330654,0.0028902252670377493,0.0025581042282283306,10,{}
attack_corridor_base_14,1,pos_yawl_alt_spoof,45604,0.0014411400770768523,0.0012627006508409977,-0.0839231014251709,-35.3632622,149.1652375,-0.006,-0.01,0.02,0.0,-9.942233737092465e-05,9.444988972973078e-05,0.0,1000,1000,1000,1000,12600,0,0.0027506924234330654,0.0028902252670377493,0.0025581042282283306,10,{}
attack_corridor_base_14,1,pos_yawl_alt_spoof,45854,0.0013846403453499079,0.0012035705149173737,-0.08412586897611618,-35.3632622,149.1652375,-0.006,-0.01,0.02,0.0,-9.942232281900942e-05,9.444987517781556e-05,0.0,1000,1000,1000,1000,12600,0,0.0030863878782838583,0.0027566668577492237,0.002908692229539156,10,{}
attack_corridor_base_14,1,pos_yawl_alt_spoof,46104,0.0013428085949271917,0.001158235245384276,-0.08433030545711517,-35.3632622,149.1652375,-0.006,-0.01,0.01,0.0,-9.942230099113658e-05,9.444988245377317e-05,0.0,1000,1000,1000,1000,12600,0,0.002984887221828103,0.0028086963575333357,0.0028126961551606655,10,{}
attack_corridor_base_14,1,pos_yawl_alt_spoof,46354,0.0013024138752371073,0.0011126159224659204,-0.08450206369161606,-35.3632622,149.1652375,-0.006,-0.01,0.01,0.0,-9.942228643922135e-05,9.444988245377317e-05,0.0,1000,1000,1000,1000,12600,0,0.00257099443115294,0.002707461826503277,0.0028636532370001078,10,{}
attack_corridor_base_14,1,pos_yawl_alt_spoof,46604,0.0012766898144036531,0.0010916851460933685,-0.08466178178787231,-35.3632622,149.1652375,-0.006,-0.01,0.01,0.0,-9.942231554305181e-05,9.444991883356124e-05,0.0,1000,1000,1000,1000,12600,0,0.002620919141918421,0.002777625108137727,0.002617625752463937,10,{}
attack_corridor_base_14,1,pos_yawl_alt_spoof,46854,0.001230591326020658,0.001052033738233149,-0.08486263453960419,-35.3632622,149.1652375,-0.006,-0.01,0.01,0.0,-9.942226461134851e-05,9.444991155760363e-05,0.0,1000,1000,1000,1000,12600,0,0.002952817128971219,0.0026925774291157722,0.0024197085294872522,10,{}
attack_corridor_base_14,1,pos_yawl_alt_spoof,47104,0.0011975904926657677,0.001022713491693139,-0.08504047244787216,-35.3632621,149.1652375,-0.006,-0.01,0.01,0.0,-9.942224278347567e-05,9.444992610951886e-05,0.0,1000,1000,1000,1000,12600,0,0.0028693967033177614,0.0027131151873618364,0.002412908710539341,10,{}
attack_corridor_base_14,1,pos_yawl_alt_spoof,47354,0.0011719116009771824,0.001000384334474802,-0.08522963523864746,-35.3632621,149.1652375,-0.006,-0.01,0.01,0.0,-9.942221367964521e-05,9.44498970056884e-05,0.0,1000,1000,1000,1000,12600,0,0.00298507884144783,0.0028518245089799166,0.0027925963513553143,10,{}
attack_corridor_base_14,1,pos_yawl_alt_spoof,47604,0.0011588070774450898,0.000987262581475079,-0.08539555966854095,-35.3632621,149.1652375,-0.006,-0.01,0.01,0.0,-9.942217729985714e-05,9.444986062590033e-05,0.0,1000,1000,1000,1000,12600,0,0.0027651889249682426,0.00278066867031157,0.002833001781255007,10,{}
attack_corridor_base_14,1,pos_yawl_alt_spoof,47854,0.001132429693825543,0.0009647379629313946,-0.08558318018913269,-35.3632621,149.1652375,-0.006,-0.01,0.01,0.0,-9.942214819602668e-05,9.444982424611226e-05,0.0,1000,1000,1000,1000,12600,0,0.0028726437594741583,0.002711338922381401,0.0027382494881749153,10,{}
attack_corridor_base_14,1,pos_yawl_alt_spoof,48104,0.0011169440113008022,0.0009482037858106196,-0.08573798090219498,-35.3632621,149.1652375,-0.006,-0.01,0.01,0.0,-9.942211909219623e-05,9.444982424611226e-05,0.0,1000,1000,1000,1000,12600,0,0.0030948978383094072,0.0027696487959474325,0.002795629668980837,10,{}
attack_corridor_base_14,1,pos_yawl_alt_spoof,48354,0.0011058682575821877,0.0009368909522891045,-0.08592379093170166,-35.3632621,149.1652375,-0.006,-0.01,0.01,0.0,-9.9422104540281e-05,9.444980969419703e-05,0.0,1000,1000,1000,1000,12600,0,0.0026993537321686745,0.0029867307748645544,0.002863135654479265,10,{}
attack_corridor_base_14,1,pos_yawl_alt_spoof,48604,0.0010995513293892145,0.0009312676847912371,-0.08608142286539078,-35.3632621,149.1652375,-0.006,-0.01,0.01,0.0,-9.942207543645054e-05,9.444980969419703e-05,0.0,1000,1000,1000,1000,12600,0,0.002893059281632304,0.0027123545296490192,0.0029777023009955883,10,{}
attack_corridor_base_14,1,pos_yawl_alt_spoof,48854,0.0010902679059654474,0.0009226369438692927,-0.086240254342556,-35.3632621,149.1652375,-0.006,-0.01,0.01,0.0,-9.942206816049293e-05,9.444978786632419e-05,0.0,1000,1000,1000,1000,12600,0,0.0028329838532954454,0.0030252898577600718,0.0027380716055631638,10,{}
attack_corridor_base_14,1,pos_yawl_alt_spoof,49104,0.0010844389908015728,0.0009157435270026326,-0.08641047775745392,-35.3632621,149.1652375,-0.006,-0.01,0.01,0.0,-9.942201722878963e-05,9.444976603845134e-05,0.0,1000,1000,1000,1000,12600,0,0.0029291175305843353,0.003083036979660392,0.0026995802763849497,10,{}
attack_corridor_base_14,1,pos_yawl_alt_spoof,49354,0.0010827458463609219,0.0009113935520872474,-0.08656544238328934,-35.3632621,149.1652375,-0.006,-0.01,0.01,0.0,-9.942198812495917e-05,9.444975876249373e-05,0.0,1000,1000,1000,1000,12600,0,0.002702003810554743,0.002649150090292096,0.0028011698741465807,10,{}
attack_corridor_base_14,1,pos_yawl_alt_spoof,49604,0.001083318260498345,0.0009119200403802097,-0.08671832084655762,-35.3632621,149.1652375,-0.006,-0.01,0.01,0.0,-9.942197357304394e-05,9.444972238270566e-05,0.0,1000,1000,1000,1000,12600,0,0.002705017104744911,0.0028584597166627645,0.002694720169529319,10,{}
attack_corridor_base_14,1,pos_yawl_alt_spoof,49854,0.0010778730502352118,0.0009135783184319735,-0.08688031882047653,-35.3632621,149.1652375,-0.006,-0.01,0.01,0.0,-9.942198812495917e-05,9.444972238270566e-05,0.0,1000,1000,1000,1000,12600,0,0.0026668154168874025,0.002837886568158865,0.002634619129821658,10,{}
attack_corridor_base_14,1,pos_yawl_alt_spoof,50104,0.001077523222193122,0.0009146906668320298,-0.08703603595495224,-35.3632621,149.1652375,-0.006,-0.01,0.01,0.0,-9.942198812495917e-05,9.444970055483282e-05,0.0,1000,1000,1000,1000,12600,0,0.0028905768413096666,0.0027850077021867037,0.0027597155421972275,10,{}
attack_corridor_base_14,1,pos_yawl_alt_spoof,50354,0.001080995425581932,0.0009159547043964267,-0.08718706667423248,-35.3632621,149.1652375,-0.006,-0.01,0.01,0.0,-9.94219517451711e-05,9.444964962312952e-05,0.0,1000,1000,1000,1000,12600,0,0.0024053682573139668,0.002637889701873064,0.002970012603327632,10,{}
attack_corridor_base_14,1,pos_yawl_alt_spoof,50604,0.0010840295581147075,0.0009139911853708327,-0.08734746277332306,-35.3632621,149.1652375,-0.006,-0.01,0.01,0.0,-9.942197357304394e-05,9.444961324334145e-05,0.0,1000,1000,1000,1000,12600,0,0.0028041983023285866,0.002979018958285451,0.0027300340589135885,10,{}
attack_corridor_base_14,1,pos_yawl_alt_spoof,50854,0.0010853197891265154,0.0009125409997068346,-0.08749181777238846,-35.3632621,149.1652375,-0.006,-0.01,0.01,0.0,-9.94219517451711e-05,9.444958413951099e-05,0.0,1000,1000,1000,1000,12600,0,0.0027916368562728167,0.0030360035598278046,0.0029243880417197943,10,{}
attack_corridor_base_14,1,pos_yawl_alt_spoof,51104,0.001085422933101654,0.0009122409392148256,-0.08764086663722992,-35.3632621,149.1652375,-0.006,-0.01,0.01,0.0,-9.942192264134064e-05,9.444954775972292e-05,0.0,1000,1000,1000,1000,12600,0,0.0027790528256446123,0.002731712069362402,0.00267804809845984,10,{}
attack_corridor_base_14,1,pos_yawl_alt_spoof,51354,0.0010858133900910616,0.0009175768354907632,-0.08778438717126846,-35.3632621,149.1652375,-0.006,-0.01,0.01,0.0,-9.942189353751019e-05,9.444952593185008e-05,0.0,1000,1000,1000,1000,12600,0,0.0028894292190670967,0.002777308924123645,0.002556513762101531,10,{}
attack_corridor_base_14,1,pos_yawl_alt_spoof,51604,0.0010916340397670865,0.0009184255613945425,-0.08792717009782791,-35.3632621,149.1652375,-0.006,-0.01,0.01,0.0,-9.942188626155257e-05,9.444950410397723e-05,0.0,1000,1000,1000,1000,12600,0,0.002893341239541769,0.0029222385492175817,0.0029246697667986155,10,{}
attack_corridor_base_14,1,pos_yawl_alt_spoof,51854,0.0010946730617433786,0.0009140240726992488,-0.08806680142879486,-35.3632621,149.1652375,-0.006,-0.01,0.01,0.0,-9.942190808942541e-05,9.444951865589246e-05,0.0,1000,1000,1000,1000,12600,0,0.002978250617161393,0.002636110410094261,0.0029025685507804155,10,{}
attack_corridor_base_14,1,pos_yawl_alt_spoof,52104,0.001099464832805097,0.0009063141187652946,-0.08821365237236023,-35.3632621,149.1652375,-0.006,-0.01,0.01,0.0,-9.94219008134678e-05,9.4449489552062e-05,0.0,1000,1000,1000,1000,12600,0,0.002980356104671955,0.0025234532076865435,0.0028609002474695444,10,{}
attack_corridor_base_14,1,pos_yawl_alt_spoof,52354,0.0011040210956707597,0.0009052871610037982,-0.08834532648324966,-35.3632621,149.1652375,-0.006,-0.01,0.01,0.0,-9.942187898559496e-05,9.4449489552062e-05,0.0,1000,1000,1000,1000,12600,0,0.0027319409418851137,0.002879194915294647,0.0028401061426848173,10,{}
attack_corridor_base_14,1,pos_yawl_alt_spoof,52604,0.0011083127465099096,0.0009164477814920247,-0.08845674991607666,-35.3632621,149.1652375,-0.006,-0.01,0.01,0.0,-9.942186443367973e-05,9.444945317227393e-05,0.0,1000,1000,1000,1000,12600,0,0.003151178127154708,0.0027405773289501667,0.002797189634293318,10,{}
attack_corridor_base_14,1,pos_yawl_alt_spoof,52854,0.001110413228161633,0.0009184700320474803,-0.08859589695930481,-35.3632621,149.1652375,-0.006,-0.01,0.01,0.0,-9.942185715772212e-05,9.44494386203587e-05,0.0,1000,1000,1000,1000,12600,0,0.002894546603783965,0.003078615292906761,0.002956736832857132,10,{}
attack_corridor_base_14,1,pos_yawl_alt_spoof,53104,0.0011105206795036793,0.0009143298375420272,-0.08872396498918533,-35.3632621,149.1652375,-0.006,-0.01,0.01,0.0,-9.942186443367973e-05,9.44494386203587e-05,0.0,1000,1000,1000,1000,12600,0,0.00268617644906044,0.0027981665916740894,0.002734322566539049,10,{}
attack_corridor_base_14,1,pos_yawl_alt_spoof,53354,0.0011169607751071453,0.0009218837949447334,-0.08887330442667007,-35.3632621,149.1652375,-0.006,-0.01,0.01,0.0,-9.942185715772212e-05,9.444944589631632e-05,0.0,1000,1000,1000,1000,12600,0,0.0027527203783392906,0.002606996800750494,0.002653568284586072,10,{}
attack_corridor_base_14,1,pos_yawl_alt_spoof,53604,0.0011289530666545033,0.0009298947406932712,-0.08899985998868942,-35.3632621,149.1652375,-0.006,-0.01,0.01,0.0,-9.942184260580689e-05,9.444943134440109e-05,0.0,1000,1000,1000,1000,12600,0,0.0027636028826236725,0.003063402371481061,0.0027509357314556837,10,{}
attack_corridor_base_14,1,pos_yawl_alt_spoof,53854,0.0011316254967823625,0.0009272624738514423,-0.08913362771272659,-35.3632621,149.1652375,-0.006,-0.01,0.01,0.0,-9.942180622601882e-05,9.444941679248586e-05,0.0,1000,1000,1000,1000,12600,0,0.002527629490941763,0.002687640953809023,0.002939477562904358,10,{}
attack_corridor_base_14,1,pos_yawl_alt_spoof,54104,0.0011331761488690972,0.000935543270315975,-0.08926473557949066,-35.3632621,149.1652375,-0.006,-0.01,0.01,0.0,-9.942177712218836e-05,9.444940951652825e-05,0.0,1000,1000,1000,1000,12600,0,0.003024512203410268,0.0028088903054594994,0.00287444656714797,10,{}
attack_corridor_base_14,1,pos_yawl_alt_spoof,54354,0.0011349148117005825,0.000939006800763309,-0.08939656615257263,-35.3632621,149.1652375,-0.006,-0.01,0.01,0.0,-9.94217480183579e-05,9.444936586078256e-05,0.0,1000,1000,1000,1000,12600,0,0.0028915447182953358,0.00294332392513752,0.0030009583570063114,10,{}
attack_corridor_base_14,1,pos_yawl_alt_spoof,54604,0.0011451811296865344,0.0009487511706538498,-0.08951857686042786,-35.3632621,149.1652375,-0.006,-0.01,0.01,0.0,-9.942172619048506e-05,9.444937313674018e-05,0.0,1000,1000,1000,1000,12600,0,0.00264536845497787,0.0027557071298360825,0.002671495545655489,10,{}
attack_corridor_base_14,1,pos_yawl_alt_spoof,54854,0.0011447860160842538,0.0009474707767367363,-0.08964414894580841,-35.3632621,149.1652375,-0.006,-0.01,0.01,0.0,-9.942174074240029e-05,9.444933675695211e-05,0.0,1000,1000,1000,1000,12600,0,0.0031946594826877117,0.002871209755539894,0.002958940574899316,10,{}
attack_corridor_base_14,1,pos_yawl_alt_spoof,55104,0.0011465268908068538,0.0009494362166151404,-0.08976765722036362,-35.3632621,149.1652375,-0.006,-0.01,0.01,0.0,-9.942172619048506e-05,9.444929310120642e-05,0.0,1000,1000,1000,1000,12600,0,0.0027622513007372618,0.002842006739228964,0.0025625121779739857,10,{}
attack_corridor_base_14,1,pos_yawl_alt_spoof,55354,0.001145709422416985,0.0009513864060863853,-0.08989137411117554,-35.3632621,149.1652375,-0.006,-0.01,0.01,0.0,-9.942171891452745e-05,9.44492785492912e-05,0.0,1000,1000,1000,1000,12600,0,0.0025743211153894663,0.002526539610698819,0.002598595805466175,10,{}
attack_corridor_base_14,1,pos_yawl_alt_spoof,55604,0.0011502888519316912,0.000956373056396842,-0.09001854807138443,-35.3632621,149.1652375,-0.006,-0.01,0.01,0.0,-9.942168981069699e-05,9.444925672141835e-05,0.0,1000,1000,1000,1000,12600,0,0.0027310329023748636,0.0030370140448212624,0.002656299155205488,10,{}
attack_corridor_base_14,1,pos_yawl_alt_spoof,55854,0.0011466194409877062,0.0009505181224085391,-0.09014086425304413,-35.3632621,149.1652375,-0.006,-0.01,0.01,0.0,-9.942168253473938e-05,9.444926399737597e-05,0.0,1000,1000,1000,1000,12600,0,0.0026970626786351204,0.002862347289919853,0.0025826371274888515,10,{}
attack_corridor_base_14,1,pos_yawl_alt_spoof,56104,0.0011461584363132715,0.0009513688273727894,-0.0902649387717247,-35.3632621,149.1652375,-0.006,-0.01,0.01,0.0,-9.942168253473938e-05,9.444926399737597e-05,0.0,1000,1000,1000,1000,12600,0,0.002768162405118346,0.0028675596695393324,0.0030393858905881643,10,{}
attack_corridor_base_14,1,pos_yawl_alt_spoof,56354,0.0011502844281494617,0.0009554664720781147,-0.09038625657558441,-35.3632621,149.1652375,-0.006,-0.01,0.01,0.0,-9.942167525878176e-05,9.444924216950312e-05,0.0,1000,1000,1000,1000,12600,0,0.0027056431863456964,0.0029029136057943106,0.0030944880563765764,10,{}
attack_corridor_base_14,1,pos_yawl_alt_spoof,56604,0.0011520669795572758,0.0009616498136892915,-0.09050621092319489,-35.3632621,149.1652375,-0.006,-0.01,0.01,0.0,-9.94216970866546e-05,9.44492785492912e-05,0.0,1000,1000,1000,1000,12600,0,0.002758015412837267,0.002629471942782402,0.0027786518912762403,10,{}
attack_corridor_base_14,1,pos_yawl_alt_spoof,56854,0.0011378041235730052,0.0009589302353560925,-0.09059517085552216,-35.3632621,149.1652375,-0.006,-0.01,0.01,0.0,-9.94217480183579e-05,9.444930037716404e-05,0.0,1000,1000,1000,1000,12600,0,0.0028746500611305237,0.0027444204315543175,0.0027303637471050024,10,{}
attack_corridor_base_14,1,pos_yawl_alt_spoof,57104,0.0011330507695674896,0.0009548586676828563,-0.09070738404989243,-35.3632621,149.1652375,-0.006,-0.01,0.01,0.0,-9.942180622601882e-05,9.444932220503688e-05,0.0,1000,1000,1000,1000,12600,0,0.0027636894956231117,0.0029823353979736567,0.002821451285853982,10,{}
attack_corridor_base_14,1,pos_yawl_alt_spoof,57354,0.0011411132290959358,0.0009567404049448669,-0.09082932025194168,-35.3632621,149.1652375,-0.006,-0.01,0.01,0.0,-9.942182805389166e-05,9.444934403290972e-05,0.0,1000,1000,1000,1000,12600,0,0.0028101527132093906,0.00288074160926044,0.0027481201104819775,10,{}
attack_corridor_base_14,1,pos_yawl_alt_spoof,57604,0.0011460911482572556,0.0009644821984693408,-0.09094139188528061,-35.3632622,149.1652375,-0.006,-0.01,0.01,0.0,-9.942180622601882e-05,9.444935130886734e-05,0.0,1000,1000,1000,1000,12600,0,0.0026839966885745525,0.002638594014570117,0.0024834731593728065,10,{}
attack_corridor_base_14,1,pos_yawl_alt_spoof,57854,0.0011466119904071093,0.000962508434895426,-0.0910528376698494,-35.3632621,149.1652375,-0.006,-0.01,0.01,0.0,-9.942181350197643e-05,9.444936586078256e-05,0.0,1000,1000,1000,1000,12600,0,0.0026802695356309414,0.0025301838759332895,0.0026132501661777496,10,{}
attack_corridor_base_14,1,pos_yawl_alt_spoof,58104,0.0011502383276820183,0.0009602914215065539,-0.09115958958864212,-35.3632621,149.1652375,-0.006,-0.01,0.01,0.0,-9.942185715772212e-05,9.444939496461302e-05,0.0,1000,1000,1000,1000,12600,0,0.0026224867906421423,0.002778815571218729,0.002571041928604245,10,{}
attack_corridor_base_14,1,pos_yawl_alt_spoof,58354,0.0011542538413777947,0.0009660207433626056,-0.09127738326787949,-35.3632621,149.1652375,-0.006,-0.01,0.01,0.0,-9.942185715772212e-05,9.444938041269779e-05,0.0,1000,1000,1000,1000,12600,0,0.0030612251721322536,0.0027113177347928286,0.002757216105237603,10,{}
attack_corridor_base_14,1,pos_yawl_alt_spoof,58604,0.0011546610621735454,0.0009717983193695545,-0.09138084948062897,-35.3632622,149.1652375,-0.006,-0.01,0.01,0.0,-9.942191536538303e-05,9.444943134440109e-05,0.0,1000,1000,1000,1000,12600,0,0.003133420366793871,0.003081529401242733,0.0028623209800571203,10,{}
attack_corridor_base_14,1,pos_yawl_alt_spoof,58854,0.0011546151945367455,0.0009683403768576682,-0.09149707108736038,-35.3632621,149.1652375,-0.006,-0.01,0.01,0.0,-9.942192991729826e-05,9.44494386203587e-05,0.0,1000,1000,1000,1000,12600,0,0.0029170187190175056,0.0027995863929390907,0.002555648796260357,10,{}
attack_corridor_base_14,1,pos_yawl_alt_spoof,59104,0.0011554536176845431,0.0009693910251371562,-0.09160121530294418,-35.3632621,149.1652375,-0.006,-0.01,0.01,0.0,-9.942192264134064e-05,9.444939496461302e-05,0.0,1000,1000,1000,1000,12600,0,0.002669022884219885,0.0027965314220637083,0.00266708480194211,10,{}
attack_corridor_base_14,1,pos_yawl_alt_spoof,59354,0.0011581500293686986,0.0009752632468007505,-0.09170494228601456,-35.3632621,149.1652375,-0.006,-0.01,0.01,0.0,-9.942192991729826e-05,9.444938041269779e-05,0.0,1000,1000,1000,1000,12600,0,0.0029818303883075714,0.0025442561600357294,0.0026877284981310368,10,{}
attack_corridor_base_14,1,pos_yawl_alt_spoof,59604,0.0011625707847997546,0.000980509095825255,-0.09181113541126251,-35.3632622,149.1652375,-0.006,-0.01,0.01,0.0,-9.942192264134064e-05,9.444933675695211e-05,0.0,1000,1000,1000,1000,12600,0,0.0030010531190782785,0.002750415587797761,0.002713508438318968,10,{}
attack_corridor_base_14,1,pos_yawl_alt_spoof,59854,0.0011516455560922623,0.0009753592894412577,-0.09191368520259857,-35.3632621,149.1652375,-0.006,-0.01,0.01,0.0,-9.942198812495917e-05,9.444939496461302e-05,0.0,1000,1000,1000,1000,12600,0,0.0026662040036171675,0.002803605981171131,0.002736208261922002,10,{}
attack_corridor_base_14,1,pos_yawl_alt_spoof,60104,0.0011504569556564093,0.0009703016839921474,-0.09201113879680634,-35.3632621,149.1652375,-0.006,-0.01,0.01,0.0,-9.942199540091679e-05,9.444936586078256e-05,0.0,1000,1000,1000,1000,12600,0,0.0030158718582242727,0.0027474574744701385,0.002700456418097019,10,{}
attack_corridor_base_14,1,pos_yawl_alt_spoof,60354,0.0011522154090926051,0.0009683694806881249,-0.09211692214012146,-35.3632622,149.1652375,-0.006,-0.01,0.01,0.0,-9.942202450474724e-05,9.444936586078256e-05,0.0,1000,1000,1000,1000,12600,0,0.0026820385828614235,0.002776504959911108,0.0027320347726345062,10,{}
attack_corridor_base_14,1,pos_yawl_alt_spoof,60604,0.0011581178987398744,0.0009714451734907925,-0.0922129899263382,-35.3632622,149.1652375,-0.006,-0.01,0.01,0.0,-9.942203905666247e-05,9.444936586078256e-05,0.0,1000,1000,1000,1000,12600,0,0.002713428344577551,0.0028823455795645714,0.002858642488718033,10,{}
attack_corridor_base_14,1,pos_yawl_alt_spoof,60854,0.001150410738773644,0.0009578220779076219,-0.09232048690319061,-35.3632621,149.1652375,-0.006,-0.01,0.01,0.0,-9.942202450474724e-05,9.444935858482495e-05,0.0,1000,1000,1000,1000,12600,0,0.0028073571156710386,0.0027939474675804377,0.0025490240659564734,10,{}
attack_corridor_base_14,1,pos_yawl_alt_spoof,61104,0.0011544468579813838,0.0009534537675790489,-0.09241681545972824,-35.3632621,149.1652375,-0.006,-0.01,0.01,0.0,-9.94220536085777e-05,9.444938041269779e-05,0.0,1000,1000,1000,1000,12600,0,0.0024771462194621563,0.002921856939792633,0.002871362492442131,10,{}
attack_corridor_base_14,1,pos_yawl_alt_spoof,61354,0.0011568383779376745,0.0009573406423442066,-0.09250973165035248,-35.3632622,149.1652375,-0.006,-0.01,0.01,0.0,-9.942203905666247e-05,9.444936586078256e-05,0.0,1000,1000,1000,1000,12600,0,0.0030547152273356915,0.003092537634074688,0.0030781265813857317,10,{}
attack_corridor_base_14,1,pos_yawl_alt_spoof,61604,0.0011642789468169212,0.0009606921812519431,-0.09260385483503342,-35.3632622,149.1652375,-0.006,-0.01,0.01,0.0,-9.942208998836577e-05,9.444937313674018e-05,0.0,1000,1000,1000,1000,12600,0,0.002779454691335559,0.002832135884091258,0.002989922184497118,10,{}
attack_corridor_base_14,1,pos_yawl_alt_spoof,61854,0.0011553490767255425,0.0009530881070531905,-0.09267980605363846,-35.3632622,149.1652375,-0.006,-0.01,0.01,0.0,-9.942208998836577e-05,9.444940951652825e-05,0.0,1000,1000,1000,1000,12600,0,0.002935419324785471,0.0027865516021847725,0.0030348747968673706,10,{}
attack_corridor_base_14,1,pos_yawl_alt_spoof,62104,0.001157258404418826,0.0009556295699439943,-0.09276822954416275,-35.3632621,149.1652375,-0.006,-0.01,0.01,0.0,-9.942209726432338e-05,9.444942406844348e-05,0.0,1000,1000,1000,1000,12600,0,0.002529751742258668,0.0028320522978901863,0.002814509440213442,10,{}
attack_corridor_base_14,1,pos_yawl_alt_spoof,62354,0.0011614286340773106,0.0009541811887174845,-0.09286416321992874,-35.3632622,149.1652375,-0.006,-0.01,0.01,0.0,-9.942213364411145e-05,9.444946044823155e-05,0.0,1000,1000,1000,1000,12600,0,0.002675029681995511,0.002683610888198018,0.002634878735989332,10,{}
attack_corridor_base_14,1,pos_yawl_alt_spoof,62604,0.001163510256446898,0.0009637571638450027,-0.09294836223125458,-35.3632622,149.1652375,-0.006,-0.01,0.01,0.0,-9.942212636815384e-05,9.444947500014678e-05,0.0,1000,1000,1000,1000,12600,0,0.0026495237834751606,0.0029550199396908283,0.0028511269483715296,10,{}
attack_corridor_base_14,1,pos_yawl_alt_spoof,62854,0.0011605904437601566,0.0009622889338061213,-0.09304437786340714,-35.3632621,149.1652375,-0.006,-0.01,0.01,0.0,-9.942213364411145e-05,9.4449489552062e-05,0.0,1000,1000,1000,1000,12600,0,0.0026120177935808897,0.0031740327831357718,0.0026498541701585054,10,{}
attack_corridor_base_14,1,pos_yawl_alt_spoof,63104,0.0011594954412430525,0.0009676155168563128,-0.09313931316137314,-35.3632621,149.1652375,-0.006,-0.01,0.01,0.0,-9.942211181623861e-05,9.44494386203587e-05,0.0,1000,1000,1000,1000,12600,0,0.0029464049730449915,0.002858156571164727,0.002694616559892893,10,{}
attack_corridor_base_14,1,pos_yawl_alt_spoof,63354,0.0011588280322030187,0.0009658740018494427,-0.09323497116565704,-35.3632622,149.1652375,-0.006,-0.01,0.01,0.0,-9.942212636815384e-05,9.444942406844348e-05,0.0,1000,1000,1000,1000,12600,0,0.0027962704189121723,0.002633239608258009,0.002851770492270589,10,{}
attack_corridor_base_14,1,pos_yawl_alt_spoof,63604,0.001162234926596284,0.0009747346048243344,-0.09331740438938141,-35.3632622,149.1652375,-0.006,-0.01,0.01,0.0,-9.942211181623861e-05,9.44493876886554e-05,0.0,1000,1000,1000,1000,12600,0,0.0028849670197814703,0.002517062472179532,0.002650013891980052,10,{}
attack_corridor_base_14,1,pos_yawl_alt_spoof,63854,0.0011584690073505044,0.0009707882418297231,-0.09340238571166992,-35.3632622,149.1652375,-0.006,-0.01,0.01,0.0,-9.942208998836577e-05,9.444940951652825e-05,0.0,1000,1000,1000,1000,12600,0,0.002952449256554246,0.0029838234186172485,0.002890804084017873,10,{}
attack_corridor_base_14,1,pos_yawl_alt_spoof,64104,0.0011628748616203666,0.0009624826489016414,-0.09348593652248383,-35.3632622,149.1652375,-0.006,-0.01,0.01,0.0,-9.942211909219623e-05,9.444942406844348e-05,0.0,1000,1000,1000,1000,12600,0,0.0027495338581502438,0.0030118876602500677,0.0031028869561851025,10,{}
attack_corridor_base_14,1,pos_yawl_alt_spoof,64354,0.0011642989702522755,0.0009641905198805034,-0.09357450902462006,-35.3632622,149.1652375,-0.006,-0.01,0.01,0.0,-9.94221554719843e-05,9.44494386203587e-05,0.0,1000,1000,1000,1000,12600,0,0.0029476762283593416,0.0028871356043964624,0.002852474106475711,10,{}
attack_corridor_base_14,1,pos_yawl_alt_spoof,64604,0.0011741885682567954,0.0009669042192399502,-0.09365779906511307,-35.3632622,149.1652375,-0.006,-0.01,0.01,0.0,-9.942217002389953e-05,9.444946044823155e-05,0.0,1000,1000,1000,1000,12600,0,0.002898129168897867,0.0029549153987318277,0.002889412920922041,10,{}
attack_corridor_base_14,1,pos_yawl_alt_spoof,64854,0.001171768642961979,0.0009591298294253647,-0.09374520927667618,-35.3632622,149.1652375,-0.006,-0.01,0.01,0.0,-9.94222064036876e-05,9.444946044823155e-05,0.0,1000,1000,1000,1000,12600,0,0.0028465164359658957,0.00294336024671793,0.002842680085450411,10,{}
attack_corridor_base_14,1,pos_yawl_alt_spoof,65104,0.0011643279576674104,0.0009521925821900368,-0.09382952749729156,-35.3632622,149.1652375,-0.006,-0.01,0.01,0.0,-9.942217729985714e-05,9.444944589631632e-05,0.0,1000,1000,1000,1000,12600,0,0.002917112782597542,0.0030844872817397118,0.002727409591898322,10,{}
attack_corridor_base_14,1,pos_yawl_alt_spoof,65354,0.0011631908128038049,0.0009588183602318168,-0.09391146153211594,-35.3632622,149.1652375,-0.006,-0.01,0.01,0.0,-9.942219185177237e-05,9.444948227610439e-05,0.0,1000,1000,1000,1000,12600,0,0.0027859716210514307,0.0027978583239018917,0.0029240730218589306,10,{}
attack_corridor_base_14,1,pos_yawl_alt_spoof,65604,0.0011660548625513911,0.0009660825016908348,-0.09399561583995819,-35.3632622,149.1652375,-0.006,-0.01,0.01,0.0,-9.942219185177237e-05,9.4449489552062e-05,0.0,1000,1000,1000,1000,12600,0,0.0027187808882445097,0.0025703967548906803,0.0027245362289249897,10,{}
attack_corridor_base_14,1,pos_yawl_alt_spoof,65854,0.0011631697416305542,0.0009609948610886931,-0.09408164024353027,-35.3632621,149.1652375,-0.006,-0.01,0.01,0.0,-9.942218457581475e-05,9.4449489552062e-05,0.0,1000,1000,1000,1000,12600,0,0.0027193487621843815,0.003015837399289012,0.00267512584105134,10,{}
attack_corridor_base_14,1,pos_yawl_alt_spoof,66104,0.0011659893207252026,0.0009625441743992269,-0.09415919333696365,-35.3632621,149.1652375,-0.006,-0.01,0.01,0.0,-9.942219912772998e-05,9.4449489552062e-05,0.0,1000,1000,1000,1000,12600,0,0.0026407046243548393,0.0029035003390163183,0.0028565218672156334,10,{}
attack_corridor_base_14,1,pos_yawl_alt_spoof,66354,0.0011718731839209795,0.0009609108092263341,-0.0942363440990448,-35.3632621,149.1652375,-0.006,-0.01,0.01,0.0,-9.942219912772998e-05,9.444950410397723e-05,0.0,1000,1000,1000,1000,12600,0,0.0027958459686487913,0.00286304485052824,0.0027418937534093857,10,{}
attack_corridor_base_14,1,pos_yawl_alt_spoof,66604,0.0011726110242307186,0.0009753918275237083,-0.09431953728199005,-35.3632621,149.1652375,-0.006,-0.01,0.01,0.0,-9.942219912772998e-05,9.444949682801962e-05,0.0,1000,1000,1000,1000,12600,0,0.0029651187360286713,0.0026440012734383345,0.002666248008608818,10,{}
attack_corridor_base_14,1,pos_yawl_alt_spoof,66854,0.0011725417571142316,0.0009709883597679436,-0.09439033269882202,-35.3632621,149.1652375,-0.006,-0.01,0.01,0.0,-9.94221554719843e-05,9.444948227610439e-05,0.0,1000,1000,1000,1000,12600,0,0.0024607828818261623,0.0028213772457093,0.0029791288543492556,10,{}
