flight_id,label,attack_type,timestamp,att_roll,att_pitch,att_yaw,pos_lat,pos_lon,pos_alt_rel,pos_vx,pos_vy,pos_vz,nav_roll,nav_pitch,nav_alt_error,servo1_raw,servo2_raw,servo3_raw,servo4_raw,sys_voltage_battery,sys_load,vib_x,vib_y,vib_z,gps_sats_visible,attack_params_json
attack_corridor_base_4,1,pos_spoof,10011,0.0001943872048286721,-4.504312892095186e-05,-0.34560632705688477,-35.3632621,149.1652374,0.0,0.0,0.0,-0.03,-9.942176257027313e-05,9.444953320780769e-05,0.0,1000,1000,1000,1000,12600,0,0.0029085276182740927,0.0029819030314683914,0.0027614303398877382,0,{}
attack_corridor_base_4,1,pos_spoof,10344,0.00019819653243757784,-3.354344516992569e-05,-0.32459044456481934,-35.3632621,149.1652374,0.0,0.0,0.0,-0.03,-9.942168253473938e-05,9.44494386203587e-05,0.0,1000,1000,1000,1000,12600,0,0.002782875671982765,0.002857207553461194,0.002820652909576893,10,{}
attack_corridor_base_4,1,pos_spoof,10676,0.00019853613048326224,-2.264613431179896e-05,-0.293564110994339,-35.3632621,149.1652374,0.0,0.0,0.0,-0.03,-9.942171163856983e-05,9.444939496461302e-05,0.0,1000,1000,1000,1000,12600,0,0.002598492195829749,0.0028782039880752563,0.0028347596526145935,10,{}
attack_corridor_base_4,1,pos_spoof,11009,0.00020435814803931862,-1.650588819757104e-05,-0.26665347814559937,-35.3632621,149.1652374,0.0,0.0,0.0,-0.03,-9.942171163856983e-05,9.444939496461302e-05,0.0,1000,1000,1000,1000,12600,0,0.002713608555495739,0.0024983768817037344,0.0025296055246144533,10,{}
attack_corridor_base_4,1,pos_spoof,11342,0.00020871130982413888,-7.72869952925248e-06,-0.23392726480960846,-35.3632621,149.1652374,0.0,0.0,0.0,-0.03,-9.942161705112085e-05,9.444938041269779e-05,0.0,1000,1000,1000,1000,12600,0,0.002942313440144062,0.002782278461381793,0.0029848627746105194,10,{}
attack_corridor_base_4,1,pos_spoof,11676,0.00021229781850706786,-1.3656947430717992e-06,-0.21179844439029694,-35.3632621,149.1652374,0.0,0.0,0.0,-0.03,-9.942160249920562e-05,9.444941679248586e-05,0.0,1000,1000,1000,1000,12600,0,0.002923613879829645,0.0026812423020601273,0.002647494664415717,10,{}
attack_corridor_base_4,1,pos_spoof,12009,0.0002219281013822183,9.974645763577428e-06,-0.19201774895191193,-35.3632621,149.1652374,0.0,0.0,0.0,-0.02,-9.942160249920562e-05,9.444941679248586e-05,0.0,1000,1000,1000,1000,12600,0,0.002771303290501237,0.0026703551411628723,0.0028036704752594233,10,{}
attack_corridor_base_4,1,pos_spoof,12341,0.00022581761004403234,1.988935036933981e-05,-0.16891497373580933,-35.3632621,149.1652374,0.0,0.0,0.0,-0.02,-9.942161705112085e-05,9.44493876886554e-05,0.0,1000,1000,1000,1000,12600,0,0.003076082095503807,0.0027024601586163044,0.002916394965723157,10,{}
attack_corridor_base_4,1,pos_spoof,12674,0.0002355896431254223,3.037660280824639e-05,-0.15378142893314362,-35.3632621,149.1652374,0.0,0.0,0.0,-0.02,-9.942168253473938e-05,9.444938041269779e-05,0.0,1000,1000,1000,1000,12600,0,0.0028484526555985212,0.0028675617650151253,0.0029593599028885365,10,{}
attack_corridor_base_4,1,pos_spoof,13007,0.0002429971646051854,3.53156247001607e-05,-0.1403321623802185,-35.3632621,149.1652374,0.0,0.0,0.0,-0.02,-9.942168253473938e-05,9.444938041269779e-05,0.0,1000,1000,1000,1000,12600,0,0.002800724236294627,0.002551289275288582,0.0027235005982220173,10,{}
attack_corridor_base_4,1,pos_spoof,13342,0.000255080230999738,4.2782969103427604e-05,-0.12486813217401505,-35.3632621,149.1652374,0.0,0.0,0.0,-0.01,-9.94216461549513e-05,9.44493876886554e-05,0.0,1000,1000,1000,1000,12600,0,0.0029801176860928535,0.00249769096262753,0.002923406660556793,10,{}
attack_corridor_base_4,1,pos_spoof,13674,0.0002619932929519564,5.407845674199052e-05,-0.11485537141561508,-35.3632621,149.1652374,0.0,0.0,0.0,-0.01,-9.942161705112085e-05,9.444940224057063e-05,0.0,1000,1000,1000,1000,12600,0,0.0026187878102064133,0.0027560119051486254,0.002816355088725686,10,{}
attack_corridor_base_4,1,pos_spoof,14006,0.0002728339459281415,6.0417318309191614e-05,-0.10609900206327438,-35.3632621,149.1652374,0.0,0.0,0.0,-0.01,-9.942161705112085e-05,9.444940224057063e-05,0.0,1000,1000,1000,1000,12600,0,0.0027369437739253044,0.0028633407782763243,0.0028805939946323633,10,{}
attack_corridor_base_4,1,pos_spoof,14339,0.00028134541935287416,7.1329741331283e-05,-0.09608123451471329,-35.3632621,149.1652374,0.0,0.0,0.0,-0.01,-9.942151518771425e-05,9.444934403290972e-05,0.0,1000,1000,1000,1000,12600,0,0.002875858685001731,0.0029516280628740788,0.002643940504640341,10,{}
attack_corridor_base_4,1,pos_spoof,14674,0.00029656829428859055,8.243954653153196e-05,-0.08966189622879028,-35.3632621,149.1652374,0.0,0.0,0.0,-0.01,-9.942152973962948e-05,9.444934403290972e-05,0.0,1000,1000,1000,1000,12600,0,0.0029296998400241137,0.0029683683533221483,0.002906543668359518,10,{}
attack_corridor_base_4,1,pos_spoof,15007,0.0003054481348954141,9.432889055460691e-05,-0.08408825844526291,-35.3632621,149.1652374,0.0,0.0,0.0,-0.01,-9.942152973962948e-05,9.444934403290972e-05,0.0,1000,1000,1000,1000,12600,0,0.0028871933463960886,0.002742716809734702,0.0028029652312397957,10,{}
attack_corridor_base_4,1,pos_spoof,15357,0.0003206520341336727,0.00010651929187588394,-0.07719778269529343,-35.3632621,149.1652374,0.0,0.0,0.0,-0.01,-9.942151518771425e-05,9.444937313674018e-05,0.0,1000,1000,1000,1000,12600,0,0.0028216508217155933,0.002848031697794795,0.0031864005140960217,10,{}
attack_corridor_base_4,1,pos_spoof,15607,0.00033108144998550415,0.00011128994083264843,-0.0738343894481659,-35.3632621,149.1652374,0.0,0.0,0.0,-0.01,-9.942150063579902e-05,9.444935130886734e-05,0.0,1000,1000,1000,1000,12600,0,0.0028216508217155933,0.002848031697794795,0.0031864005140960217,10,{}
attack_corridor_base_4,1,pos_spoof,15859,0.0003363890282344073,0.00012000498827546835,-0.07087501883506775,-35.3632621,149.1652374,0.0,0.0,0.0,0.0,-9.942148608388379e-05,9.444936586078256e-05,0.0,1000,1000,1000,1000,12600,0,0.0026922293473035097,0.002791967475786805,0.002570111770182848,10,{}
attack_corridor_base_4,1,pos_spoof,16109,0.00034575845347717404,0.00012983879423700273,-0.06822995096445084,-35.3632621,149.1652374,0.0,0.0,0.0,0.0,-9.942147153196856e-05,9.444935858482495e-05,0.0,1000,1000,1000,1000,12600,0,0.0026499242521822453,0.002886570291593671,0.0024996548891067505,10,{}
attack_corridor_base_4,1,pos_spoof,16359,0.00035378028405830264,0.0001375292195007205,-0.06591206789016724,-35.3632621,149.1652374,0.0,0.0,0.0,0.0,-9.942147153196856e-05,9.444935858482495e-05,0.0,1000,1000,1000,1000,12600,0,0.002905152505263686,0.0028612499590963125,0.0026816504541784525,10,{}
attack_corridor_base_4,1,pos_spoof,16609,0.00036622723564505577,0.0001452677242923528,-0.06388644129037857,-35.3632621,149.1652374,0.0,0.0,0.0,0.0,-9.942151518771425e-05,9.444940224057063e-05,0.0,1000,1000,1000,1000,12600,0,0.0030702329240739346,0.0028023950289934874,0.0027498232666403055,10,{}
attack_corridor_base_4,1,pos_spoof,16859,0.0003762731794267893,0.00015426664322149009,-0.062099505215883255,-35.3632621,149.1652374,0.0,0.0,0.0,0.0,-9.942151518771425e-05,9.444940224057063e-05,0.0,1000,1000,1000,1000,12600,0,0.003136045066639781,0.002573417266830802,0.0025887133087962866,10,{}
attack_corridor_base_4,1,pos_spoof,17347,0.0003876704431604594,0.00015917117707431316,-0.06052391231060028,-35.3632621,149.1652374,0.0,0.0,0.0,0.0,-9.942147880792618e-05,9.444936586078256e-05,0.0,1000,1000,1000,1000,12600,0,0.00286009069532156,0.002913897158578038,0.0028157499618828297,10,{}
attack_corridor_base_4,1,pos_spoof,17682,0.0004093624302186072,0.00017794565064832568,-0.05775673687458038,-35.3632621,149.1652374,0.0,0.0,0.0,0.0,-9.942162432707846e-05,9.444938041269779e-05,0.0,1000,1000,1000,1000,12600,0,0.0026677981950342655,0.0028069205582141876,0.0025622262619435787,10,{}
attack_corridor_base_4,1,pos_spoof,18014,0.00042203220073133707,0.00019040817278437316,-0.05659003183245659,-35.3632621,149.1652374,0.0,0.0,0.0,0.0,-9.942162432707846e-05,9.444938041269779e-05,0.0,1000,1000,1000,1000,12600,0,0.003043233649805188,0.0028062378987669945,0.0029400403145700693,10,{}
attack_corridor_base_4,1,pos_spoof,18346,0.00043119347537867725,0.00020806727115996182,-0.05561954155564308,-35.3632621,149.1652374,0.0,0.0,0.0,0.0,-9.942165343090892e-05,9.444935130886734e-05,0.0,1000,1000,1000,1000,12600,0,0.00253796624019742,0.002703476930037141,0.002802085131406784,10,{}
attack_corridor_base_4,1,pos_spoof,18679,0.0004466956597752869,0.00022635143250226974,-0.05461599677801132,-35.3632621,149.1652374,0.0,0.0,0.0,0.0,-9.942161705112085e-05,9.444930037716404e-05,0.0,1000,1000,1000,1000,12600,0,0.0027133189141750336,0.002904227701947093,0.003171168267726898,10,{}
attack_corridor_base_4,1,pos_spoof,19014,0.0004666876920964569,0.00023777988099027425,-0.054030563682317734,-35.3632621,149.1652374,0.0,0.0,0.0,0.0,-9.942161705112085e-05,9.444930037716404e-05,0.0,1000,1000,1000,1000,12600,0,0.0031882869079709053,0.0028309363406151533,0.0027719971258193254,10,{}
attack_corridor_base_4,1,pos_spoof,19347,0.0004806584329344332,0.00025052420096471906,-0.05359848961234093,-35.3632621,149.1652374,0.0,0.0,0.0,0.0,-9.942166798282415e-05,9.444931492907926e-05,0.0,1000,1000,1000,1000,12600,0,0.0026585476007312536,0.0029729544185101986,0.002822107868269086,10,{}
attack_corridor_base_4,1,pos_spoof,19679,0.0005000711535103619,0.0002666066575329751,-0.053135816007852554,-35.3632621,149.1652374,0.0,0.0,0.0,0.0,-9.942163887899369e-05,9.444934403290972e-05,0.0,1000,1000,1000,1000,12600,0,0.0027060636784881353,0.0027417466044425964,0.002646256238222122,10,{}
attack_corridor_base_4,1,pos_spoof,20011,0.0005182080203667283,0.00027904033777303994,-0.05284249037504196,-35.3632621,149.1652374,0.008,0.0,0.0,0.0,-9.942163887899369e-05,9.444934403290972e-05,0.0,1000,1000,1000,1000,12600,0,0.002870818367227912,0.0028437748551368713,0.002903670771047473,10,{}
attack_corridor_base_4,1,pos_spoof,20344,0.0005328832776285708,0.00030371028697118163,-0.052641239017248154,-35.3632621,149.1652374,-0.007,0.0,0.0,0.0,-9.94217480183579e-05,9.444940224057063e-05,0.0,1000,1000,1000,1000,12600,0,0.0030510537326335907,0.002805106807500124,0.0027303220704197884,10,{}
attack_corridor_base_4,1,pos_spoof,20679,0.0005527918692678213,0.00032214249949902296,-0.052669499069452286,-35.3632621,149.1652374,-0.008,0.0,0.0,0.0,-9.942173346644267e-05,9.44493876886554e-05,0.0,1000,1000,1000,1000,12600,0,0.002785372082144022,0.002787285251542926,0.002641602884978056,10,{}
attack_corridor_base_4,1,pos_spoof,21011,0.0005697878659702837,0.0003370429330971092,-0.05274885147809982,-35.3632621,149.1652374,-0.006,0.0,0.0,0.0,-9.942173346644267e-05,9.44493876886554e-05,0.0,1000,1000,1000,1000,12600,0,0.0026393821462988853,0.002774846274405718,0.003209287766367197,10,{}
attack_corridor_base_4,1,pos_spoof,21344,0.0005825921543873847,0.0003508636145852506,-0.052891504019498825,-35.3632621,149.1652374,-0.005,0.0,0.0,0.0,-9.94217480183579e-05,9.444937313674018e-05,0.0,1000,1000,1000,1000,12600,0,0.0027065561152994633,0.002937986282631755,0.002781614661216736,10,{}
attack_corridor_base_4,1,pos_spoof,21677,0.000606920279096812,0.0003721427056007087,-0.05314311385154724,-35.3632621,149.1652374,-0.003,0.0,0.0,0.0,-9.942179167410359e-05,9.444935130886734e-05,0.0,1000,1000,1000,1000,12600,0,0.002634817035868764,0.0029564236756414175,0.002786998637020588,10,{}
attack_corridor_base_4,1,pos_spoof,22009,0.0006290110759437084,0.00038668810157105327,-0.05338432639837265,-35.3632621,149.1652374,-0.002,0.0,0.01,0.0,-9.942179167410359e-05,9.444935130886734e-05,0.0,1000,1000,1000,1000,12600,0,0.0030943637248128653,0.0030214358121156693,0.0028982574585825205,10,{}
attack_corridor_base_4,1,pos_spoof,22344,0.0006465744809247553,0.00040819941204972565,-0.053674690425395966,-35.3632621,149.1652374,-0.001,0.0,0.01,0.0,-9.942182805389166e-05,9.444942406844348e-05,0.0,1000,1000,1000,1000,12600,0,0.002732351189479232,0.0030322240199893713,0.0027417554520070553,10,{}
attack_corridor_base_4,1,pos_spoof,22676,0.000670079025439918,0.0004371280665509403,-0.054095055907964706,-35.3632621,149.1652374,0.0,0.0,0.01,0.0,-9.94219517451711e-05,9.444948227610439e-05,0.0,1000,1000,1000,1000,12600,0,0.002664879895746708,0.0028237663209438324,0.0028320862911641598,10,{}
attack_corridor_base_4,1,pos_spoof,23009,0.0006886838818900287,0.0004536579654086381,-0.054458070546388626,-35.3632621,149.1652374,0.0,0.0,0.01,0.0,-9.94219517451711e-05,9.444948227610439e-05,0.0,1000,1000,1000,1000,12600,0,0.002606353024020791,0.00264331535436213,0.0026789281982928514,10,{}
attack_corridor_base_4,1,pos_spoof,23342,0.0007010133704170585,0.0004690810455940664,-0.05485058203339577,-35.3632621,149.1652374,0.001,-0.01,0.01,0.0,-9.942193719325587e-05,9.44494386203587e-05,0.0,1000,1000,1000,1000,12600,0,0.0030509440694004297,0.0026257289573550224,0.0027161678299307823,10,{}
attack_corridor_base_4,1,pos_spoof,23674,0.0007216293597593904,0.0004909897106699646,-0.055368587374687195,-35.3632621,149.1652374,0.002,-0.01,0.01,0.0,-9.942181350197643e-05,9.444943134440109e-05,0.0,1000,1000,1000,1000,12600,0,0.002742348238825798,0.0027082820888608694,0.0026904575061053038,10,{}
attack_corridor_base_4,1,pos_spoof,24007,0.0007393264677375555,0.0005106027820147574,-0.055775661021471024,-35.3632621,149.1652374,0.002,-0.01,0.01,0.0,-9.942181350197643e-05,9.444943134440109e-05,0.0,1000,1000,1000,1000,12600,0,0.0026418305933475494,0.0026762664783746004,0.002963588573038578,10,{}
attack_corridor_base_4,1,pos_spoof,24341,0.0007508416310884058,0.0005233025294728577,-0.056230079382658005,-35.3632621,149.1652374,0.002,-0.01,0.01,0.0,-9.942187170963734e-05,9.444942406844348e-05,0.0,1000,1000,1000,1000,12600,0,0.0030208085663616657,0.0027760399971157312,0.002545770024880767,10,{}
attack_corridor_base_4,1,pos_spoof,24674,0.0007709933561272919,0.0005457131774164736,-0.056798551231622696,-35.3632621,149.1652374,0.002,-0.01,0.01,0.0,-9.942189353751019e-05,9.444946772418916e-05,0.0,1000,1000,1000,1000,12600,0,0.002812507562339306,0.0029547656886279583,0.003023572266101837,10,{}
attack_corridor_base_4,1,pos_spoof,25006,0.0007904316880740225,0.000559535576030612,-0.05725099891424179,-35.3632621,149.1652374,0.003,-0.01,0.01,0.0,-9.942189353751019e-05,9.444946772418916e-05,0.0,1000,1000,1000,1000,12600,0,0.0028384572360664606,0.0029647634364664555,0.002776672597974539,10,{}
attack_corridor_base_4,1,pos_spoof,25339,0.0007977085770107806,0.0005757990875281394,-0.05770327150821686,-35.3632621,149.1652374,0.003,-0.01,0.01,0.0,-9.942190808942541e-05,9.444950410397723e-05,0.0,1000,1000,1000,1000,12600,0,0.0026937657967209816,0.003001815639436245,0.0025044316425919533,10,{}
attack_corridor_base_4,1,pos_spoof,25672,0.0008211650419980288,0.0005989684723317623,-0.0582190603017807,-35.3632621,149.1652374,0.003,-0.01,0.01,0.0,-9.942192264134064e-05,9.444953320780769e-05,0.0,1000,1000,1000,1000,12600,0,0.002709705848246813,0.0030675276648253202,0.0027665586676448584,10,{}
attack_corridor_base_4,1,pos_spoof,26007,0.0008318688487634063,0.0006162203499116004,-0.05868294835090637,-35.3632621,149.1652374,0.002,-0.01,0.01,0.0,-9.942192264134064e-05,9.444953320780769e-05,0.0,1000,1000,1000,1000,12600,0,0.002765507437288761,0.002675865311175585,0.002714107744395733,10,{}
attack_corridor_base_4,1,pos_spoof,26339,0.0008514401852153242,0.0006199969793669879,-0.0591779425740242,-35.3632621,149.1652374,0.002,-0.01,0.01,0.0,-9.94219008134678e-05,9.444948227610439e-05,0.0,1000,1000,1000,1000,12600,0,0.002632878487929702,0.0028381613083183765,0.002893601544201374,10,{}
attack_corridor_base_4,1,pos_spoof,26671,0.0008668277296237648,0.0006312005571089685,-0.05983356758952141,-35.3632621,149.1652374,0.002,-0.01,0.01,0.0,-9.942192264134064e-05,9.444946772418916e-05,0.0,1000,1000,1000,1000,12600,0,0.002646816661581397,0.002787376753985882,0.0025979129131883383,10,{}
attack_corridor_base_4,1,pos_spoof,27004,0.0008774282177910209,0.0006447070045396686,-0.06033524125814438,-35.3632621,149.1652374,0.002,-0.01,0.01,0.0,-9.942192264134064e-05,9.444946772418916e-05,0.0,1000,1000,1000,1000,12600,0,0.002667612861841917,0.0029498578514903784,0.0028641563840210438,10,{}
attack_corridor_base_4,1,pos_spoof,27339,0.0008899090462364256,0.0006559618632309139,-0.060828015208244324,-35.3632621,149.1652374,0.002,-0.01,0.01,0.0,-9.942193719325587e-05,9.444946044823155e-05,0.0,1000,1000,1000,1000,12600,0,0.002717228839173913,0.002759010763838887,0.0026624181773513556,10,{}
attack_corridor_base_4,1,pos_spoof,27672,0.0009042946621775627,0.000663977931253612,-0.06151197478175163,-35.3632621,149.1652374,0.001,-0.01,0.01,0.0,-9.942195902112871e-05,9.444948227610439e-05,0.0,1000,1000,1000,1000,12600,0,0.002660521073266864,0.0027294480241835117,0.0024928334169089794,10,{}
attack_corridor_base_4,1,pos_spoof,28004,0.0009140460169874132,0.0006757497903890908,-0.06198575720191002,-35.3632621,149.1652374,0.001,-0.01,0.01,0.0,-9.942195902112871e-05,9.444948227610439e-05,0.0,1000,1000,1000,1000,12600,0,0.0026630882639437914,0.003049239283427596,0.0027397514786571264,10,{}
attack_corridor_base_4,1,pos_spoof,28336,0.0009277393110096455,0.0006875047693029046,-0.0624978244304657,-35.3632621,149.1652374,0.001,-0.01,0.01,0.0,-9.942201722878963e-05,9.444955503568053e-05,0.0,1000,1000,1000,1000,12600,0,0.0027907986659556627,0.002881164662539959,0.0026148036122322083,10,{}
attack_corridor_base_4,1,pos_spoof,28669,0.0009460638393647969,0.0007063397206366062,-0.06313485652208328,-35.3632621,149.1652374,0.0,-0.01,0.01,0.0,-9.942209726432338e-05,9.444961324334145e-05,0.0,1000,1000,1000,1000,12600,0,0.002675187075510621,0.002729256870225072,0.002733934437856078,10,{}
attack_corridor_base_4,1,pos_spoof,29004,0.0009510886739008129,0.0007205333095043898,-0.0636143609881401,-35.3632621,149.1652374,0.0,-0.01,0.01,0.0,-9.942209726432338e-05,9.444961324334145e-05,0.0,1000,1000,1000,1000,12600,0,0.003137817606329918,0.0026490148156881332,0.0025701201520860195,10,{}
attack_corridor_base_4,1,pos_spoof,29336,0.0009650762076489627,0.0007365089841187,-0.0640939399600029,-35.3632621,149.1652374,0.0,-0.01,0.01,0.0,-9.942221367964521e-05,9.444967872695997e-05,0.0,1000,1000,1000,1000,12600,0,0.0027572731487452984,0.0026007245760411024,0.002640537451952696,10,{}
attack_corridor_base_4,1,pos_spoof,29669,0.0009776795050129294,0.0007457280298694968,-0.06472824513912201,-35.3632621,149.1652374,0.0,-0.01,0.01,0.0,-9.942229371517897e-05,9.444970055483282e-05,0.0,1000,1000,1000,1000,12600,0,0.0026702173054218292,0.0026988163590431213,0.0027621269691735506,10,{}
attack_corridor_base_4,1,pos_spoof,30002,0.0009888785425573587,0.0007592763868160546,-0.06520313024520874,-35.3632621,149.1652374,0.0,-0.01,0.02,0.0,-9.942229371517897e-05,9.444970055483282e-05,0.0,1000,1000,1000,1000,12600,0,0.0029880148358643055,0.0027618184685707092,0.0031056487932801247,10,{}
attack_corridor_base_4,1,pos_spoof,30357,0.0009989721002057195,0.0007763414760120213,-0.06582410633563995,-35.3632621,149.1652374,-0.001,-0.01,0.02,0.0,-9.94224101305008e-05,9.444980969419703e-05,0.0,1000,1000,1000,1000,12600,0,0.0025657187215983868,0.002860110718756914,0.0034253972116857767,10,{}
attack_corridor_base_4,1,pos_spoof,30609,0.0010032141581177711,0.000782694376539439,-0.06622231006622314,-35.3632621,149.1652374,-0.001,-0.01,0.02,0.0,-9.942236647475511e-05,9.444978059036657e-05,0.0,1000,1000,1000,1000,12600,0,0.002847646363079548,0.002629925962537527,0.002897900063544512,10,{}
attack_corridor_base_4,1,pos_spoof,30859,0.0010150817688554525,0.000789501762483269,-0.06658732891082764,-35.3632621,149.1652374,-0.001,-0.01,0.02,0.0,-9.942243195837364e-05,9.444985334994271e-05,0.0,1000,1000,1000,1000,12600,0,0.0027452956419438124,0.0027041237335652113,0.0029417253099381924,10,{}
attack_corridor_base_4,1,pos_spoof,31354,0.0010174473281949759,0.0007945855031721294,-0.066986083984375,-35.3632621,149.1652374,-0.002,-0.01,0.02,0.0,-9.942250471794978e-05,9.444992610951886e-05,0.0,1000,1000,1000,1000,12600,0,0.002702842466533184,0.002921517239883542,0.0027641686610877514,10,{}
attack_corridor_base_4,1,pos_spoof,31687,0.0010408629896119237,0.0008092239731922746,-0.06773770600557327,-35.3632621,149.1652374,-0.002,-0.01,0.02,0.0,-9.942249744199216e-05,9.444991883356124e-05,0.0,1000,1000,1000,1000,12600,0,0.002678600838407874,0.002889018040150404,0.002933368319645524,10,{}
attack_corridor_base_4,1,pos_spoof,32019,0.001043271622620523,0.0008082500426098704,-0.06815415620803833,-35.3632621,149.1652374,-0.003,-0.01,0.02,0.0,-9.942249016603455e-05,9.444988972973078e-05,0.0,1000,1000,1000,1000,12600,0,0.0027411088813096285,0.0029415511526167393,0.0027524519246071577,10,{}
attack_corridor_base_4,1,pos_spoof,32352,0.0010529092978686094,0.0008183742174878716,-0.06859248876571655,-35.3632621,149.1652374,-0.003,-0.01,0.02,0.0,-9.942246833816171e-05,9.444993338547647e-05,0.0,1000,1000,1000,1000,12600,0,0.002918933518230915,0.002855700673535466,0.002673976356163621,10,{}
attack_corridor_base_4,1,pos_spoof,32684,0.0010638133389875293,0.000831033568829298,-0.06919191032648087,-35.3632621,149.1652374,-0.003,-0.01,0.02,0.0,-9.942254837369546e-05,9.444998431717977e-05,0.0,1000,1000,1000,1000,12600,0,0.0030758753418922424,0.002673085080459714,0.0028119629714637995,10,{}
attack_corridor_base_4,1,pos_spoof,33019,0.001071328530088067,0.0008452648180536926,-0.06961707770824432,-35.3632621,149.1652374,-0.004,-0.01,0.02,0.0,-9.942254837369546e-05,9.444994066143408e-05,0.0,1000,1000,1000,1000,12600,0,0.002632665680721402,0.0026081351097673178,0.0027548358775675297,10,{}
attack_corridor_base_4,1,pos_spoof,33351,0.0010870893020182848,0.0008545767050236464,-0.0700509175658226,-35.3632621,149.1652374,-0.004,-0.01,0.02,0.0,-9.942254109773785e-05,9.444991883356124e-05,0.0,1000,1000,1000,1000,12600,0,0.002779186237603426,0.0028767434414476156,0.00270123896189034,10,{}
attack_corridor_base_4,1,pos_spoof,33684,0.0011029622983187437,0.000869967567268759,-0.07061095535755157,-35.3632621,149.1652374,-0.004,-0.01,0.02,0.0,-9.942253382178023e-05,9.444992610951886e-05,0.0,1000,1000,1000,1000,12600,0,0.0027773778419941664,0.0031273725908249617,0.00272782938554883,10,{}
attack_corridor_base_4,1,pos_spoof,34017,0.0011144796153530478,0.0008783204248175025,-0.07104380428791046,-35.3632621,149.1652374,-0.004,-0.02,0.02,0.0,-9.942253382178023e-05,9.444992610951886e-05,0.0,1000,1000,1000,1000,12600,0,0.002787716453894973,0.002815644722431898,0.002853662706911564,10,{}
attack_corridor_base_4,1,pos_spoof,34349,0.0011182823218405247,0.0008869370212778449,-0.07144439220428467,-35.3632621,149.1652374,-0.005,-0.02,0.02,0.0,-9.942249744199216e-05,9.444997704122216e-05,0.0,1000,1000,1000,1000,12600,0,0.003044825280085206,0.0025990388821810484,0.002959913806989789,10,{}
attack_corridor_base_4,1,pos_spoof,34684,0.0011336840689182281,0.0009009820059873164,-0.07198760658502579,-35.3632621,149.1652374,-0.005,-0.02,0.02,0.0,-9.94224101305008e-05,9.44499479373917e-05,0.0,1000,1000,1000,1000,12600,0,0.002545920666307211,0.0027338892687112093,0.003018818097189069,10,{}
attack_corridor_base_4,1,pos_spoof,35016,0.0011473465710878372,0.00091528584016487,-0.07238195091485977,-35.3632621,149.1652374,-0.005,-0.02,0.02,0.0,-9.94224101305008e-05,9.44499479373917e-05,0.0,1000,1000,1000,1000,12600,0,0.002646485809236765,0.0030238227918744087,0.0027729226276278496,10,{}
attack_corridor_base_4,1,pos_spoof,35349,0.001148137729614973,0.0009284038678742945,-0.07278207689523697,-35.3632621,149.1652374,-0.005,-0.02,0.02,0.0,-9.94223591987975e-05,9.444993338547647e-05,0.0,1000,1000,1000,1000,12600,0,0.0026662093587219715,0.002866530092433095,0.0026346100494265556,10,{}
attack_corridor_base_4,1,pos_spoof,35681,0.0011608479544520378,0.0009350322070531547,-0.07329320162534714,-35.3632621,149.1652374,-0.005,-0.02,0.02,0.0,-9.942236647475511e-05,9.444994066143408e-05,0.0,1000,1000,1000,1000,12600,0,0.002856122562661767,0.002926755463704467,0.0027274347376078367,10,{}
attack_corridor_base_4,1,pos_spoof,36014,0.0011648500803858042,0.0009347934392280877,-0.07365702092647552,-35.3632621,149.1652374,-0.005,-0.02,0.02,0.0,-9.942236647475511e-05,9.444994066143408e-05,0.0,1000,1000,1000,1000,12600,0,0.002767105121165514,0.002600007224828005,0.0026260321028530598,10,{}
attack_corridor_base_4,1,pos_spoof,36347,0.0011708831880241632,0.0009497720748186111,-0.07398802787065506,-35.3632621,149.1652374,-0.005,-0.02,0.02,0.0,-9.942234464688227e-05,9.444995521334931e-05,0.0,1000,1000,1000,1000,12600,0,0.003078998299315572,0.0028212284669280052,0.0027958801947534084,10,{}
attack_corridor_base_4,1,pos_spoof,36681,0.001183545682579279,0.0009671096340753138,-0.07450750470161438,-35.3632621,149.1652374,-0.005,-0.02,0.02,0.0,-9.942231554305181e-05,9.444990428164601e-05,0.0,1000,1000,1000,1000,12600,0,0.0030159447342157364,0.002520740032196045,0.0027169939130544662,10,{}
attack_corridor_base_4,1,pos_spoof,37014,0.0011923719430342317,0.0009821511339396238,-0.07486041635274887,-35.3632621,149.1652374,-0.005,-0.02,0.02,0.0,-9.942231554305181e-05,9.444990428164601e-05,0.0,1000,1000,1000,1000,12600,0,0.002573884790763259,0.0029610840138047934,0.0028267332818359137,10,{}
attack_corridor_base_4,1,pos_spoof,37346,0.0012025764444842935,0.0009959905873984098,-0.07522785663604736,-35.3632621,149.1652374,-0.005,-0.02,0.02,0.0,-9.942235192283988e-05,9.44498970056884e-05,0.0,1000,1000,1000,1000,12600,0,0.002943473169580102,0.0029344402719289064,0.0026131158228963614,10,{}
attack_corridor_base_4,1,pos_spoof,37679,0.0012115142308175564,0.0010078299092128873,-0.07571116834878922,-35.3632621,149.1652374,-0.005,-0.02,0.02,0.0,-9.942234464688227e-05,9.444991155760363e-05,0.0,1000,1000,1000,1000,12600,0,0.0028789828065782785,0.0027019053231924772,0.0026253859978169203,10,{}
attack_corridor_base_4,1,pos_spoof,38012,0.0012117178412154317,0.0010245171142742038,-0.07606879621744156,-35.3632621,149.1652374,-0.006,-0.02,0.02,0.0,-9.942234464688227e-05,9.444991155760363e-05,0.0,1000,1000,1000,1000,12600,0,0.0029581545386463404,0.002819165587425232,0.002762341173365712,10,{}
attack_corridor_base_4,1,pos_spoof,38347,0.0012262045638635755,0.0010361138265579939,-0.0764208734035492,-35.3632621,149.1652374,-0.006,-0.02,0.02,0.0,-9.942233737092465e-05,9.444986062590033e-05,0.0,1000,1000,1000,1000,12600,0,0.0025733390357345343,0.0029570688493549824,0.002995421178638935,10,{}
attack_corridor_base_4,1,pos_spoof,38679,0.001239934703335166,0.0010433972347527742,-0.07688411325216293,-35.3632621,149.1652374,-0.006,-0.02,0.02,0.0,-9.942233009496704e-05,9.444987517781556e-05,0.0,1000,1000,1000,1000,12600,0,0.0028035908471792936,0.00288531556725502,0.0029436913318932056,10,{}
attack_corridor_base_4,1,pos_spoof,39011,0.001247258041985333,0.0010572897735983133,-0.07723594456911087,-35.3632621,149.1652374,-0.006,-0.02,0.02,0.0,-9.942233009496704e-05,9.444987517781556e-05,0.0,1000,1000,1000,1000,12600,0,0.002777261659502983,0.002952322131022811,0.002768421545624733,10,{}
attack_corridor_base_4,1,pos_spoof,39344,0.0012519700685516,0.0010649814503267407,-0.07757554948329926,-35.3632621,149.1652374,-0.006,-0.02,0.02,0.0,-9.942227916326374e-05,9.444988245377317e-05,0.0,1000,1000,1000,1000,12600,0,0.002915646182373166,0.0028015635907649994,0.0028622013051062822,10,{}
attack_corridor_base_4,1,pos_spoof,39679,0.0012526786886155605,0.0010739532299339771,-0.07802186161279678,-35.3632621,149.1652374,-0.006,-0.02,0.02,0.0,-9.942227916326374e-05,9.444990428164601e-05,0.0,1000,1000,1000,1000,12600,0,0.002658669138327241,0.002576968399807811,0.0028638960793614388,10,{}
attack_corridor_base_4,1,pos_spoof,40012,0.0012606014497578144,0.0010782682802528143,-0.078346386551857,-35.3632621,149.1652374,-0.006,-0.02,0.02,0.0,-9.942227916326374e-05,9.444990428164601e-05,0.0,1000,1000,1000,1000,12600,0,0.002704948652535677,0.0031384583562612534,0.0027155308052897453,10,{}
attack_corridor_base_4,1,pos_spoof,40344,0.0012670648284256458,0.001084833755157888,-0.0786660686135292,-35.3632621,149.1652374,-0.006,-0.02,0.02,0.0,-9.942224278347567e-05,9.444990428164601e-05,0.0,1000,1000,1000,1000,12600,0,0.002663187449797988,0.003001958364620805,0.00298490421846509,10,{}
attack_corridor_base_4,1,pos_spoof,40677,0.0012780025135725737,0.001094954670406878,-0.07907544076442719,-35.3632621,149.1652374,-0.006,-0.02,0.02,0.0,-9.942224278347567e-05,9.444992610951886e-05,0.0,1000,1000,1000,1000,12600,0,0.002606166759505868,0.0028839977458119392,0.0028890324756503105,10,{}
attack_corridor_base_4,1,pos_spoof,41009,0.0012850129278376698,0.0010984722757712007,-0.07935059070587158,-35.3632621,149.1652374,-0.006,-0.02,0.02,0.0,-9.942224278347567e-05,9.444992610951886e-05,0.0,1000,1000,1000,1000,12600,0,0.0026073765475302935,0.002830205485224724,0.002721877070143819,10,{}
attack_corridor_base_4,1,pos_spoof,41344,0.0012922687456011772,0.0011106787715107203,-0.07964733988046646,-35.3632621,149.1652374,-0.006,-0.02,0.02,0.0,-9.942227188730612e-05,9.444992610951886e-05,0.0,1000,1000,1000,1000,12600,0,0.0027176819276064634,0.0027836114168167114,0.002775304252281785,10,{}
attack_corridor_base_4,1,pos_spoof,41676,0.0013035242445766926,0.0011244567576795816,-0.08005903661251068,-35.3632621,149.1652374,-0.006,0.0,0.0,0.0,-9.942230099113658e-05,9.444991155760363e-05,0.0,1000,1000,1000,1000,12600,0,0.0028876671567559242,0.0028148647397756577,0.002963935723528266,10,{}
attack_corridor_base_4,1,pos_spoof,42009,0.0013589176815003157,0.001182371168397367,-0.080358125269413,-35.3632621,149.1652374,-0.006,0.0,0.0,0.0,-9.942230099113658e-05,9.444991155760363e-05,0.0,1000,1000,1000,1000,12600,0,0.003202181775122881,0.0029255682602524757,0.0027850065380334854,10,{}
attack_corridor_base_4,1,pos_spoof,42342,0.001437059254385531,0.0012584809446707368,-0.08066707849502563,-35.3632621,149.1652374,-0.006,0.0,0.0,0.0,-9.942231554305181e-05,9.444992610951886e-05,0.0,1000,1000,1000,1000,12600,0,0.0026726035866886377,0.002947868313640356,0.00307174539193511,10,{}
attack_corridor_base_4,1,pos_spoof,42674,0.0015210842248052359,0.001346606994047761,-0.0810655727982521,-35.3632621,149.1652374,-0.006,0.0,0.0,0.0,-9.942228643922135e-05,9.444992610951886e-05,0.0,1000,1000,1000,1000,12600,0,0.0029293878469616175,0.0026721928734332323,0.002460443414747715,10,{}
attack_corridor_base_4,1,pos_spoof,43009,0.0015835086815059185,0.0014013102045282722,-0.08136940747499466,-35.3632621,149.1652374,-0.006,-0.01,0.01,0.0,-9.942228643922135e-05,9.444992610951886e-05,0.0,1000,1000,1000,1000,12600,0,0.0027701198123395443,0.0029071616008877754,0.0027870337944477797,10,{}
attack_corridor_base_4,1,pos_spoof,43341,0.001627736259251833,0.0014438049402087927,-0.08168396353721619,-35.3632621,149.1652374,-0.006,-0.01,0.01,0.0,-9.942230099113658e-05,9.444991883356124e-05,0.0,1000,1000,1000,1000,12600,0,0.002852204954251647,0.0029322023037821054,0.0029644223395735025,10,{}
attack_corridor_base_4,1,pos_spoof,43674,0.0016591277671977878,0.0014741432387381792,-0.08209357410669327,-35.3632621,149.1652374,-0.006,-0.01,0.01,0.0,-9.942235192283988e-05,9.444986062590033e-05,0.0,1000,1000,1000,1000,12600,0,0.0026843168307095766,0.0030410338658839464,0.002754222135990858,10,{}
attack_corridor_base_4,1,pos_spoof,44006,0.0016580958617851138,0.001474187127314508,-0.0823962539434433,-35.3632621,149.1652374,-0.006,-0.01,0.01,0.0,-9.942235192283988e-05,9.444986062590033e-05,0.0,1000,1000,1000,1000,12600,0,0.0026825605891644955,0.0030846199952065945,0.002492832252755761,10,{}
attack_corridor_base_4,1,pos_spoof,44339,0.001640942064113915,0.0014591468498110771,-0.0826994925737381,-35.3632621,149.1652375,-0.006,-0.01,0.01,0.0,-9.942238102667034e-05,9.444988972973078e-05,0.0,1000,1000,1000,1000,12600,0,0.002612430602312088,0.0030067937914282084,0.002815428888425231,10,{}
attack_corridor_base_4,1,pos_spoof,44672,0.0016055676387622952,0.0014124502195045352,-0.0830744057893753,-35.3632621,149.1652375,-0.006,-0.01,0.02,0.0,-9.942236647475511e-05,9.444986062590033e-05,0.0,1000,1000,1000,1000,12600,0,0.0029483248945325613,0.002689105924218893,0.0027908312622457743,10,{}
attack_corridor_base_4,1,pos_spoof,45006,0.0015508407959714532,0.0013686427846550941,-0.08335738629102707,-35.3632621,149.1652375,-0.006,-0.01,0.02,0.0,-9.942236647475511e-05,9.444986062590033e-05,0.0,1000,1000,1000,1000,12600,0,0.0028531907591968775,0.0028277267701923847,0.002996333409100771,10,{}
attack_corridor_base_4,1,pos_spoof,45359,0.001479779719375074,0.0012987024383619428,-0.08371084183454514,-35.3632622,149.1652375,-0.006,-0.01,0.02,0.0,-9.942234464688227e-05,9.444988245377317e-05,0.0,1000,1000,1000,1000,12600,0,0.00258985860273242,0.0027446853928267956,0.002872228855267167,10,{}
attack_corridor_base_4,1,pos_spoof,45609,0.0014392905868589878,0.0012611208949238062,-0.08392900973558426,-35.3632622,149.1652375,-0.006,-0.01,0.02,0.0,-9.942233737092465e-05,9.444988972973078e-05,0.0,1000,1000,1000,1000,12600,0,0.00258985860273242,0.0027446853928267956,0.002872228855267167,10,{}
attack_corridor_base_4,1,pos_spoof,45859,0.0013833766570314765,0.0012024238239973783,-0.0841258093714714,-35.3632622,149.1652375,-0.006,-0.01,0.02,0.0,-9.942232281900942e-05,9.444988245377317e-05,0.0,1000,1000,1000,1000,12600,0,0.0030986382625997066,0.0027661113999783993,0.0028485991060733795,10,{}
attack_corridor_base_4,1,pos_spoof,46109,0.0013420513132587075,0.001157171092927456,-0.0843360424041748,-35.3632622,149.1652375,-0.006,-0.01,0.01,0.0,-9.942230099113658e-05,9.444987517781556e-05,0.0,1000,1000,1000,1000,12600,0,0.002964441664516926,0.0029269512742757797,0.002818138338625431,10,{}
attack_corridor_base_4,1,pos_spoof,46357,0.001302325981669128,0.0011121886782348156,-0.0845024436712265,-35.3632622,149.1652375,-0.006,-0.01,0.01,0.0,-9.942227916326374e-05,9.444988245377317e-05,0.0,1000,1000,1000,1000,12600,0,0.0026376990135759115,0.0026923753321170807,0.002795394277200103,10,{}
attack_corridor_base_4,1,pos_spoof,46607,0.0012755653588101268,0.0010910893324762583,-0.08466821908950806,-35.3632622,149.1652375,-0.006,-0.01,0.01,0.0,-9.942231554305181e-05,9.444991883356124e-05,0.0,1000,1000,1000,1000,12600,0,0.0025980600621551275,0.002760016592219472,0.002596876583993435,10,{}
attack_corridor_base_4,1,pos_spoof,46857,0.0012299279915168881,0.0010512996232137084,-0.08486584573984146,-35.3632622,149.1652375,-0.006,-0.01,0.01,0.0,-9.942226461134851e-05,9.444991155760363e-05,0.0,1000,1000,1000,1000,12600,0,0.0029620593413710594,0.0027733377646654844,0.002418660558760166,10,{}
attack_corridor_base_4,1,pos_spoof,47109,0.001197610516101122,0.001022752607241273,-0.08504755795001984,-35.3632621,149.1652375,-0.006,-0.01,0.01,0.0,-9.942224278347567e-05,9.444992610951886e-05,0.0,1000,1000,1000,1000,12600,0,0.0028424265328794718,0.0027120981831103563,0.0024378583766520023,10,{}
attack_corridor_base_4,1,pos_spoof,47359,0.0011716082226485014,0.0010006602387875319,-0.08523144572973251,-35.3632621,149.1652375,-0.006,-0.01,0.01,0.0,-9.942222095560282e-05,9.444990428164601e-05,0.0,1000,1000,1000,1000,12600,0,0.002942302729934454,0.00285010295920074,0.0027276657056063414,10,{}
attack_corridor_base_4,1,pos_spoof,47609,0.0011574157979339361,0.0009868261404335499,-0.08540232479572296,-35.3632621,149.1652375,-0.006,-0.01,0.01,0.0,-9.942217729985714e-05,9.444986790185794e-05,0.0,1000,1000,1000,1000,12600,0,0.0027303090319037437,0.0027330066077411175,0.002782264491543174,10,{}
attack_corridor_base_4,1,pos_spoof,47859,0.0011315657757222652,0.0009639391209930182,-0.08558480441570282,-35.3632621,149.1652375,-0.006,-0.01,0.01,0.0,-9.942214819602668e-05,9.444982424611226e-05,0.0,1000,1000,1000,1000,12600,0,0.002810887759551406,0.002708232030272484,0.002716965042054653,10,{}
attack_corridor_base_4,1,pos_spoof,48109,0.0011161502916365862,0.0009478863212279975,-0.08574502170085907,-35.3632621,149.1652375,-0.006,-0.01,0.01,0.0,-9.942212636815384e-05,9.444983152206987e-05,0.0,1000,1000,1000,1000,12600,0,0.0030491205397993326,0.002733191242441535,0.002740527968853712,10,{}
attack_corridor_base_4,1,pos_spoof,48357,0.001106012612581253,0.00093677086988464,-0.08592470735311508,-35.3632621,149.1652375,-0.006,-0.01,0.01,0.0,-9.9422104540281e-05,9.444981697015464e-05,0.0,1000,1000,1000,1000,12600,0,0.0027207722887396812,0.0029172629583626986,0.0028043659403920174,10,{}
attack_corridor_base_4,1,pos_spoof,48607,0.0010997147765010595,0.0009313396876677871,-0.08608714491128922,-35.3632621,149.1652375,-0.006,-0.01,0.01,0.0,-9.942207543645054e-05,9.444981697015464e-05,0.0,1000,1000,1000,1000,12600,0,0.002890377538278699,0.0026794741861522198,0.0029869847930967808,10,{}
attack_corridor_base_4,1,pos_spoof,48857,0.0010899577755481005,0.00092239526566118,-0.08624351769685745,-35.3632621,149.1652375,-0.006,-0.01,0.01,0.0,-9.942206816049293e-05,9.444978786632419e-05,0.0,1000,1000,1000,1000,12600,0,0.002804914489388466,0.003062453819438815,0.002783847041428089,10,{}
attack_corridor_base_4,1,pos_spoof,49107,0.0010843358468264341,0.0009157821768894792,-0.08641350269317627,-35.3632621,149.1652375,-0.006,-0.01,0.01,0.0,-9.942201722878963e-05,9.444976603845134e-05,0.0,1000,1000,1000,1000,12600,0,0.0029323778580874205,0.0030525163747370243,0.0026932063046842813,10,{}
attack_corridor_base_4,1,pos_spoof,49359,0.0010836297878995538,0.0009114728891290724,-0.0865660011768341,-35.3632621,149.1652375,-0.006,-0.01,0.01,0.0,-9.942196629708633e-05,9.444973693462089e-05,0.0,1000,1000,1000,1000,12600,0,0.002685017418116331,0.002609838033095002,0.002766446676105261,10,{}
attack_corridor_base_4,1,pos_spoof,49609,0.001083314185962081,0.0009116774308495224,-0.08672421425580978,-35.3632621,149.1652375,-0.006,-0.01,0.01,0.0,-9.942197357304394e-05,9.444972965866327e-05,0.0,1000,1000,1000,1000,12600,0,0.0027467922773212194,0.0029318167362362146,0.0026389684062451124,10,{}
attack_corridor_base_4,1,pos_spoof,49859,0.0010767091298475862,0.0009133914718404412,-0.08688103407621384,-35.3632621,149.1652375,-0.006,-0.01,0.01,0.0,-9.942198812495917e-05,9.444971510674804e-05,0.0,1000,1000,1000,1000,12600,0,0.0026736531872302294,0.0027801760006695986,0.0026876882184296846,10,{}
attack_corridor_base_4,1,pos_spoof,50109,0.0010772880632430315,0.0009144202340394258,-0.08704080432653427,-35.3632621,149.1652375,-0.006,-0.01,0.01,0.0,-9.942198812495917e-05,9.444970055483282e-05,0.0,1000,1000,1000,1000,12600,0,0.002833524253219366,0.0027619735337793827,0.0027765596751123667,10,{}
attack_corridor_base_4,1,pos_spoof,50357,0.0010809910017997026,0.0009157849126495421,-0.08718764036893845,-35.3632621,149.1652375,-0.006,-0.01,0.01,0.0,-9.942198084900156e-05,9.444967145100236e-05,0.0,1000,1000,1000,1000,12600,0,0.0024278932251036167,0.0027282009832561016,0.002920859958976507,10,{}
attack_corridor_base_4,1,pos_spoof,50607,0.0010836353758350015,0.0009140715119428933,-0.08734989911317825,-35.3632621,149.1652375,-0.006,-0.01,0.01,0.0,-9.942197357304394e-05,9.444961324334145e-05,0.0,1000,1000,1000,1000,12600,0,0.002853745361790061,0.0029560495167970657,0.0026965592987835407,10,{}
attack_corridor_base_4,1,pos_spoof,50857,0.0010847687954083085,0.0009121404145844281,-0.08749409765005112,-35.3632621,149.1652375,-0.006,-0.01,0.01,0.0,-9.942192991729826e-05,9.444955503568053e-05,0.0,1000,1000,1000,1000,12600,0,0.0027642769273370504,0.0030450865160673857,0.002888584043830633,10,{}
attack_corridor_base_4,1,pos_spoof,51107,0.0010859727626666427,0.0009131425758823752,-0.08764319121837616,-35.3632621,149.1652375,-0.006,-0.01,0.01,0.0,-9.942192264134064e-05,9.444954775972292e-05,0.0,1000,1000,1000,1000,12600,0,0.002756689442321658,0.002719373442232609,0.0027006652671843767,10,{}
attack_corridor_base_4,1,pos_spoof,51359,0.0010868506506085396,0.0009175626910291612,-0.08778399229049683,-35.3632621,149.1652375,-0.006,-0.01,0.01,0.0,-9.942188626155257e-05,9.444952593185008e-05,0.0,1000,1000,1000,1000,12600,0,0.002846841234713793,0.0027739584911614656,0.002557207830250263,10,{}
attack_corridor_base_4,1,pos_spoof,51609,0.0010907595278695226,0.0009178295731544495,-0.08793086558580399,-35.3632621,149.1652375,-0.006,-0.01,0.01,0.0,-9.942188626155257e-05,9.444949682801962e-05,0.0,1000,1000,1000,1000,12600,0,0.0028616972267627716,0.0030034955125302076,0.002972721355035901,10,{}
attack_corridor_base_4,1,pos_spoof,51859,0.0010945609537884593,0.0009136635926552117,-0.08806651085615158,-35.3632621,149.1652375,-0.006,-0.01,0.01,0.0,-9.94219008134678e-05,9.444951137993485e-05,0.0,1000,1000,1000,1000,12600,0,0.002981453202664852,0.0026728399097919464,0.0029063106048852205,10,{}
attack_corridor_base_4,1,pos_spoof,52109,0.001098877633921802,0.0009065615013241768,-0.08821754157543182,-35.3632621,149.1652375,-0.006,-0.01,0.01,0.0,-9.94219008134678e-05,9.4449489552062e-05,0.0,1000,1000,1000,1000,12600,0,0.002923040883615613,0.0024742335081100464,0.0028510168194770813,10,{}
attack_corridor_base_4,1,pos_spoof,52359,0.0011044458951801062,0.0009058786672540009,-0.08834592998027802,-35.3632621,149.1652375,-0.006,-0.01,0.01,0.0,-9.942188626155257e-05,9.444948227610439e-05,0.0,1000,1000,1000,1000,12600,0,0.002700075274333358,0.0028381752781569958,0.0027657821774482727,10,{}
attack_corridor_base_4,1,pos_spoof,52607,0.001109062577597797,0.0009166827076114714,-0.08845909684896469,-35.3632621,149.1652375,-0.006,-0.01,0.01,0.0,-9.942186443367973e-05,9.444945317227393e-05,0.0,1000,1000,1000,1000,12600,0,0.0030767873395234346,0.0026920665986835957,0.0027921046130359173,10,{}
attack_corridor_base_4,1,pos_spoof,52857,0.0011100494302809238,0.0009182153735309839,-0.08859853446483612,-35.3632621,149.1652375,-0.006,-0.01,0.01,0.0,-9.942182077793404e-05,9.444941679248586e-05,0.0,1000,1000,1000,1000,12600,0,0.002857872284948826,0.0030428499449044466,0.002914107870310545,10,{}
attack_corridor_base_4,1,pos_spoof,53107,0.0011102529242634773,0.000914226402528584,-0.08872886747121811,-35.3632621,149.1652375,-0.006,-0.01,0.01,0.0,-9.942186443367973e-05,9.44494386203587e-05,0.0,1000,1000,1000,1000,12600,0,0.0026771798729896545,0.0028078118339180946,0.002763086697086692,10,{}
attack_corridor_base_4,1,pos_spoof,53359,0.0011165087344124913,0.0009218102204613388,-0.08887452632188797,-35.3632621,149.1652375,-0.006,-0.01,0.01,0.0,-9.942187170963734e-05,9.444946044823155e-05,0.0,1000,1000,1000,1000,12600,0,0.0027506540063768625,0.0026006281841546297,0.002626319183036685,10,{}
attack_corridor_base_4,1,pos_spoof,53609,0.001130168791860342,0.0009308191947638988,-0.0890049859881401,-35.3632621,149.1652375,-0.006,-0.01,0.01,0.0,-9.942181350197643e-05,9.444940951652825e-05,0.0,1000,1000,1000,1000,12600,0,0.002713617868721485,0.00301196682266891,0.0027076255064457655,10,{}
attack_corridor_base_4,1,pos_spoof,53859,0.0011319947661831975,0.0009267268469557166,-0.08913467079401016,-35.3632621,149.1652375,-0.006,-0.01,0.01,0.0,-9.942180622601882e-05,9.444942406844348e-05,0.0,1000,1000,1000,1000,12600,0,0.002530421130359173,0.0027555502019822598,0.002873047022148967,10,{}
attack_corridor_base_4,1,pos_spoof,54109,0.0011332229478284717,0.000935083138756454,-0.08926977217197418,-35.3632621,149.1652375,-0.006,-0.01,0.01,0.0,-9.942177712218836e-05,9.444941679248586e-05,0.0,1000,1000,1000,1000,12600,0,0.0029445025138556957,0.0027861802373081446,0.0029055504128336906,10,{}
attack_corridor_base_4,1,pos_spoof,54359,0.0011347508989274502,0.0009401349816471338,-0.08939773589372635,-35.3632621,149.1652375,-0.006,-0.01,0.01,0.0,-9.942174074240029e-05,9.444936586078256e-05,0.0,1000,1000,1000,1000,12600,0,0.0029112566262483597,0.0028869768138974905,0.0029184368904680014,10,{}
attack_corridor_base_4,1,pos_spoof,54607,0.001145786838606,0.0009493388934060931,-0.08952122181653976,-35.3632621,149.1652375,-0.006,-0.01,0.01,0.0,-9.942173346644267e-05,9.444938041269779e-05,0.0,1000,1000,1000,1000,12600,0,0.002589056733995676,0.0028299414552748203,0.0026409763377159834,10,{}
attack_corridor_base_4,1,pos_spoof,54857,0.001144826295785606,0.000947308202739805,-0.08964657038450241,-35.3632621,149.1652375,-0.006,-0.01,0.01,0.0,-9.942174074240029e-05,9.444933675695211e-05,0.0,1000,1000,1000,1000,12600,0,0.0031821478623896837,0.0028687571175396442,0.0029707627836614847,10,{}
attack_corridor_base_4,1,pos_spoof,55107,0.001146528753452003,0.0009491603705100715,-0.08977216482162476,-35.3632621,149.1652375,-0.006,-0.01,0.01,0.0,-9.942173346644267e-05,9.444929310120642e-05,0.0,1000,1000,1000,1000,12600,0,0.0027446968015283346,0.0028260392136871815,0.002674097428098321,10,{}
attack_corridor_base_4,1,pos_spoof,55357,0.0011458054650574923,0.0009519106242805719,-0.08989275246858597,-35.3632621,149.1652375,-0.006,-0.01,0.01,0.0,-9.942174074240029e-05,9.444929310120642e-05,0.0,1000,1000,1000,1000,12600,0,0.002567561808973551,0.002525416435673833,0.0025980344507843256,10,{}
attack_corridor_base_4,1,pos_spoof,55609,0.0011497512459754944,0.0009569270769134164,-0.09002306312322617,-35.3632621,149.1652375,-0.006,-0.01,0.01,0.0,-9.942171891452745e-05,9.44492785492912e-05,0.0,1000,1000,1000,1000,12600,0,0.002695290371775627,0.0031588468700647354,0.0026334859430789948,10,{}
attack_corridor_base_4,1,pos_spoof,55859,0.001146637019701302,0.0009505224879831076,-0.0901414081454277,-35.3632621,149.1652375,-0.006,-0.01,0.01,0.0,-9.942170436261222e-05,9.444929310120642e-05,0.0,1000,1000,1000,1000,12600,0,0.0026250488590449095,0.0027982108294963837,0.0025702097918838263,10,{}
attack_corridor_base_4,1,pos_spoof,56109,0.0011456083739176393,0.0009517219150438905,-0.09026864171028137,-35.3632621,149.1652375,-0.006,-0.01,0.01,0.0,-9.942168253473938e-05,9.444927127333358e-05,0.0,1000,1000,1000,1000,12600,0,0.0027849364560097456,0.002856514183804393,0.003040461568161845,10,{}
attack_corridor_base_4,1,pos_spoof,56359,0.001150742289610207,0.0009558619349263608,-0.09038730710744858,-35.3632621,149.1652375,-0.006,-0.01,0.01,0.0,-9.942167525878176e-05,9.444924216950312e-05,0.0,1000,1000,1000,1000,12600,0,0.0027203415520489216,0.002890425967052579,0.003163292771205306,10,{}
attack_corridor_base_4,1,pos_spoof,56607,0.001152109820395708,0.0009611812420189381,-0.09050841629505157,-35.3632621,149.1652375,-0.006,-0.01,0.01,0.0,-9.94216970866546e-05,9.444927127333358e-05,0.0,1000,1000,1000,1000,12600,0,0.0027449512854218483,0.0026981437113136053,0.0027362967375665903,10,{}
attack_corridor_base_4,1,pos_spoof,56857,0.0011377293849363923,0.0009589620749466121,-0.09059562534093857,-35.3632621,149.1652375,-0.006,-0.01,0.01,0.0,-9.942174074240029e-05,9.444930037716404e-05,0.0,1000,1000,1000,1000,12600,0,0.0028524380177259445,0.002723886864259839,0.002717749448493123,10,{}
attack_corridor_base_4,1,pos_spoof,57107,0.0011325697414577007,0.0009548433008603752,-0.09071137011051178,-35.3632621,149.1652375,-0.006,-0.01,0.01,0.0,-9.942178439814597e-05,9.444930037716404e-05,0.0,1000,1000,1000,1000,12600,0,0.0027467580512166023,0.002944682026281953,0.0027957407291978598,10,{}
attack_corridor_base_4,1,pos_spoof,57357,0.0011408913414925337,0.0009567330125719309,-0.09083002805709839,-35.3632621,149.1652375,-0.006,-0.01,0.01,0.0,-9.942182077793404e-05,9.444934403290972e-05,0.0,1000,1000,1000,1000,12600,0,0.002813530620187521,0.00291701452806592,0.0027251604478806257,10,{}
attack_corridor_base_4,1,pos_spoof,57609,0.0011471644975245,0.0009653907036408782,-0.09094556421041489,-35.3632622,149.1652375,-0.006,-0.01,0.01,0.0,-9.942180622601882e-05,9.444935130886734e-05,0.0,1000,1000,1000,1000,12600,0,0.0026687553618103266,0.002612673444673419,0.002502416493371129,10,{}
attack_corridor_base_4,1,pos_spoof,57859,0.0011461941758170724,0.0009619080810807645,-0.09105420857667923,-35.3632622,149.1652375,-0.006,-0.01,0.01,0.0,-9.942182805389166e-05,9.444936586078256e-05,0.0,1000,1000,1000,1000,12600,0,0.0026686876080930233,0.0025595328770577908,0.002613175194710493,10,{}
attack_corridor_base_4,1,pos_spoof,58109,0.0011505525326356292,0.0009610041161067784,-0.09116332978010178,-35.3632621,149.1652375,-0.006,-0.01,0.01,0.0,-9.942185715772212e-05,9.444940224057063e-05,0.0,1000,1000,1000,1000,12600,0,0.0025921626947820187,0.002722289878875017,0.0025753893423825502,10,{}
attack_corridor_base_4,1,pos_spoof,58359,0.001154232071712613,0.000966985709965229,-0.09127876162528992,-35.3632622,149.1652375,-0.006,-0.01,0.01,0.0,-9.94218498817645e-05,9.444938041269779e-05,0.0,1000,1000,1000,1000,12600,0,0.003136976854875684,0.00285535492002964,0.002741058124229312,10,{}
attack_corridor_base_4,1,pos_spoof,58609,0.0011553011136129498,0.0009718756773509085,-0.09138531237840652,-35.3632622,149.1652375,-0.006,-0.01,0.01,0.0,-9.942191536538303e-05,9.444943134440109e-05,0.0,1000,1000,1000,1000,12600,0,0.0033145740162581205,0.0030581026803702116,0.0028399054426699877,10,{}
attack_corridor_base_4,1,pos_spoof,58857,0.0011541019193828106,0.0009683457319624722,-0.09149757027626038,-35.3632622,149.1652375,-0.006,-0.01,0.01,0.0,-9.94219517451711e-05,9.444946772418916e-05,0.0,1000,1000,1000,1000,12600,0,0.002873932244256139,0.002750982763245702,0.002643563784658909,10,{}
attack_corridor_base_4,1,pos_spoof,59107,0.0011552872601896524,0.0009689393336884677,-0.09160509705543518,-35.3632621,149.1652375,-0.006,-0.01,0.01,0.0,-9.942193719325587e-05,9.444942406844348e-05,0.0,1000,1000,1000,1000,12600,0,0.0027203550562262535,0.0027573516126722097,0.0026316349394619465,10,{}
attack_corridor_base_4,1,pos_spoof,59357,0.001157941878773272,0.00097500323317945,-0.0917072743177414,-35.3632622,149.1652375,-0.006,-0.01,0.01,0.0,-9.942193719325587e-05,9.444938041269779e-05,0.0,1000,1000,1000,1000,12600,0,0.002996547147631645,0.002563196700066328,0.0026640347205102444,10,{}
attack_corridor_base_4,1,pos_spoof,59609,0.0011633834801614285,0.0009801442502066493,-0.09181450307369232,-35.3632622,149.1652375,-0.006,-0.01,0.01,0.0,-9.942194446921349e-05,9.444936586078256e-05,0.0,1000,1000,1000,1000,12600,0,0.002974344417452812,0.0027255008462816477,0.002718479372560978,10,{}
attack_corridor_base_4,1,pos_spoof,59859,0.001150948228314519,0.0009753514314070344,-0.09191413968801498,-35.3632621,149.1652375,-0.006,-0.01,0.01,0.0,-9.942197357304394e-05,9.44493876886554e-05,0.0,1000,1000,1000,1000,12600,0,0.002691302914172411,0.0028327982872724533,0.002781176706776023,10,{}
attack_corridor_base_4,1,pos_spoof,60109,0.001150992582552135,0.0009697595960460603,-0.0920155718922615,-35.3632621,149.1652375,-0.006,-0.01,0.01,0.0,-9.942198812495917e-05,9.444936586078256e-05,0.0,1000,1000,1000,1000,12600,0,0.0030766644049435854,0.0027686390094459057,0.0027320855297148228,10,{}
attack_corridor_base_4,1,pos_spoof,60359,0.001152415294200182,0.0009686223929747939,-0.0921175554394722,-35.3632621,149.1652375,-0.006,-0.01,0.01,0.0,-9.942203178070486e-05,9.444936586078256e-05,0.0,1000,1000,1000,1000,12600,0,0.00264367600902915,0.0028392449021339417,0.0027064899913966656,10,{}
attack_corridor_base_4,1,pos_spoof,60609,0.0011598190758377314,0.0009716156055219471,-0.09221701323986053,-35.3632622,149.1652375,-0.006,-0.01,0.01,0.0,-9.942204633262008e-05,9.444936586078256e-05,0.0,1000,1000,1000,1000,12600,0,0.0027707696426659822,0.002933873562142253,0.0028347743209451437,10,{}
attack_corridor_base_4,1,pos_spoof,60857,0.0011504931608214974,0.0009576431475579739,-0.09232048690319061,-35.3632621,149.1652375,-0.006,-0.01,0.01,0.0,-9.942202450474724e-05,9.444936586078256e-05,0.0,1000,1000,1000,1000,12600,0,0.002845232840627432,0.0027584449853748083,0.00260436930693686,10,{}
attack_corridor_base_4,1,pos_spoof,61107,0.0011541639687493443,0.0009533643024042249,-0.09242001920938492,-35.3632621,149.1652375,-0.006,-0.01,0.01,0.0,-9.94220536085777e-05,9.444938041269779e-05,0.0,1000,1000,1000,1000,12600,0,0.002500199945643544,0.0029055047780275345,0.002839866327121854,10,{}
attack_corridor_base_4,1,pos_spoof,61357,0.0011569516500458121,0.0009570189868099988,-0.09251154214143753,-35.3632622,149.1652375,-0.006,-0.01,0.01,0.0,-9.942203905666247e-05,9.444936586078256e-05,0.0,1000,1000,1000,1000,12600,0,0.0030743605457246304,0.003097902750596404,0.0030541466549038887,10,{}
attack_corridor_base_4,1,pos_spoof,61607,0.0011638278374448419,0.0009604333317838609,-0.0926051139831543,-35.3632622,149.1652375,-0.006,-0.01,0.01,0.0,-9.942208271240816e-05,9.444936586078256e-05,0.0,1000,1000,1000,1000,12600,0,0.002756094792857766,0.0028211004100739956,0.0029993485659360886,10,{}
attack_corridor_base_4,1,pos_spoof,61859,0.0011544275330379605,0.0009527966612949967,-0.09268105775117874,-35.3632622,149.1652375,-0.006,-0.01,0.01,0.0,-9.942209726432338e-05,9.444940951652825e-05,0.0,1000,1000,1000,1000,12600,0,0.002897427650168538,0.0027740972582250834,0.0030336007475852966,10,{}
attack_corridor_base_4,1,pos_spoof,62109,0.0011569677153602242,0.0009554944699630141,-0.09277230501174927,-35.3632622,149.1652375,-0.006,-0.01,0.01,0.0,-9.9422104540281e-05,9.444942406844348e-05,0.0,1000,1000,1000,1000,12600,0,0.002576263854280114,0.0028237842489033937,0.00281587615609169,10,{}
attack_corridor_base_4,1,pos_spoof,62359,0.001162378117442131,0.0009543164051137865,-0.09286495298147202,-35.3632622,149.1652375,-0.006,-0.01,0.01,0.0,-9.942212636815384e-05,9.444945317227393e-05,0.0,1000,1000,1000,1000,12600,0,0.0026123153511434793,0.0026703509502112865,0.0027822148986160755,10,{}
attack_corridor_base_4,1,pos_spoof,62609,0.0011630640365183353,0.0009633832378312945,-0.09295174479484558,-35.3632622,149.1652375,-0.006,-0.01,0.01,0.0,-9.942212636815384e-05,9.444947500014678e-05,0.0,1000,1000,1000,1000,12600,0,0.002607963513582945,0.00300018722191453,0.0027914310339838266,10,{}
attack_corridor_base_4,1,pos_spoof,62857,0.001160485320724547,0.0009621976059861481,-0.09304482489824295,-35.3632621,149.1652375,-0.006,-0.01,0.01,0.0,-9.942214092006907e-05,9.4449489552062e-05,0.0,1000,1000,1000,1000,12600,0,0.002651479560881853,0.003121313638985157,0.0026552302297204733,10,{}
attack_corridor_base_4,1,pos_spoof,63107,0.0011597730917856097,0.0009676816989667714,-0.09314043819904327,-35.3632622,149.1652375,-0.006,-0.01,0.01,0.0,-9.942209726432338e-05,9.444941679248586e-05,0.0,1000,1000,1000,1000,12600,0,0.0029293911065906286,0.0028691685292869806,0.0026994990184903145,10,{}
attack_corridor_base_4,1,pos_spoof,63357,0.0011584697058424354,0.0009658655035309494,-0.0932370126247406,-35.3632622,149.1652375,-0.006,-0.01,0.01,0.0,-9.942211181623861e-05,9.444940951652825e-05,0.0,1000,1000,1000,1000,12600,0,0.0027864265721291304,0.0026744119822978973,0.002895828802138567,10,{}
attack_corridor_base_4,1,pos_spoof,63607,0.0011627428466454148,0.0009755063219927251,-0.0933191254734993,-35.3632622,149.1652375,-0.006,-0.01,0.01,0.0,-9.942211181623861e-05,9.44493876886554e-05,0.0,1000,1000,1000,1000,12600,0,0.002906401641666889,0.00250183860771358,0.0027420709375292063,10,{}
attack_corridor_base_4,1,pos_spoof,63859,0.0011575233656913042,0.0009708762518130243,-0.09340231865644455,-35.3632622,149.1652375,-0.006,-0.01,0.01,0.0,-9.942211181623861e-05,9.444943134440109e-05,0.0,1000,1000,1000,1000,12600,0,0.002907722955569625,0.0029737127479165792,0.0028477597516030073,10,{}
attack_corridor_base_4,1,pos_spoof,64109,0.0011629948858171701,0.0009625497623346746,-0.09349004924297333,-35.3632622,149.1652375,-0.006,-0.01,0.01,0.0,-9.942211909219623e-05,9.444942406844348e-05,0.0,1000,1000,1000,1000,12600,0,0.0027221243362873793,0.003016339847818017,0.0031026387587189674,10,{}
attack_corridor_base_4,1,pos_spoof,64359,0.0011643841862678528,0.0009647234110161662,-0.0935746431350708,-35.3632622,149.1652375,-0.006,-0.01,0.01,0.0,-9.942214819602668e-05,9.444943134440109e-05,0.0,1000,1000,1000,1000,12600,0,0.0028825874906033278,0.00287686032243073,0.002806844422593713,10,{}
attack_corridor_base_4,1,pos_spoof,64609,0.0011742374626919627,0.0009671474690549076,-0.09366049617528915,-35.3632622,149.1652375,-0.006,-0.01,0.01,0.0,-9.942217002389953e-05,9.444946044823155e-05,0.0,1000,1000,1000,1000,12600,0,0.002824182389304042,0.0028840594459325075,0.0029115660581737757,10,{}
attack_corridor_base_4,1,pos_spoof,64859,0.0011716042645275593,0.0009586861706338823,-0.09374558180570602,-35.3632621,149.1652375,-0.006,-0.01,0.01,0.0,-9.942219912772998e-05,9.444946772418916e-05,0.0,1000,1000,1000,1000,12600,0,0.0028020250611007214,0.0029560797847807407,0.0029144000727683306,10,{}
attack_corridor_base_4,1,pos_spoof,65107,0.0011646389029920101,0.0009524457273073494,-0.0938311368227005,-35.3632621,149.1652375,-0.006,-0.01,0.01,0.0,-9.942217729985714e-05,9.444945317227393e-05,0.0,1000,1000,1000,1000,12600,0,0.002846860559657216,0.0030448264442384243,0.0027191070839762688,10,{}
attack_corridor_base_4,1,pos_spoof,65357,0.0011628345819190145,0.0009588719112798572,-0.09391337633132935,-35.3632621,149.1652375,-0.006,-0.01,0.01,0.0,-9.942219185177237e-05,9.444947500014678e-05,0.0,1000,1000,1000,1000,12600,0,0.0027609574608504772,0.0027785159181803465,0.0029155134689062834,10,{}
attack_corridor_base_4,1,pos_spoof,65607,0.0011659776791930199,0.0009660838986746967,-0.09399935603141785,-35.3632622,149.1652375,-0.006,-0.01,0.01,0.0,-9.942222095560282e-05,9.444951137993485e-05,0.0,1000,1000,1000,1000,12600,0,0.0027030259370803833,0.002563867950811982,0.0027166062500327826,10,{}
attack_corridor_base_4,1,pos_spoof,65859,0.0011626722989603877,0.0009607851970940828,-0.09408099204301834,-35.3632621,149.1652375,-0.006,-0.01,0.01,0.0,-9.942219912772998e-05,9.4449489552062e-05,0.0,1000,1000,1000,1000,12600,0,0.0026965041179209948,0.002991631394252181,0.002652183873578906,10,{}
attack_corridor_base_4,1,pos_spoof,66109,0.0011652786051854491,0.0009615044109523296,-0.09416186809539795,-35.3632621,149.1652375,-0.006,-0.01,0.01,0.0,-9.942219185177237e-05,9.4449489552062e-05,0.0,1000,1000,1000,1000,12600,0,0.002651833463460207,0.002939603989943862,0.002944599138572812,10,{}
attack_corridor_base_4,1,pos_spoof,66359,0.0011716493172571063,0.0009616982424631715,-0.0942365825176239,-35.3632621,149.1652375,-0.006,-0.01,0.01,0.0,-9.942219912772998e-05,9.444951137993485e-05,0.0,1000,1000,1000,1000,12600,0,0.0028581684455275536,0.002851201221346855,0.0026736941654235125,10,{}
attack_corridor_base_4,1,pos_spoof,66609,0.0011715091532096267,0.0009742812835611403,-0.09432173520326614,-35.3632622,149.1652375,-0.006,-0.01,0.01,0.0,-9.942217729985714e-05,9.444947500014678e-05,0.0,1000,1000,1000,1000,12600,0,0.0029005699325352907,0.0027807378210127354,0.002708904445171356,10,{}
attack_corridor_base_4,1,pos_spoof,66859,0.001172133139334619,0.0009718957007862628,-0.09439142793416977,-35.3632621,149.1652375,-0.006,-0.01,0.01,0.0,-9.942214819602668e-05,9.444947500014678e-05,0.0,1000,1000,1000,1000,12600,0,0.0024763979017734528,0.0028172589372843504,0.002990212058648467,10,{}
attack_corridor_base_4,1,pos_spoof,67107,0.0011719756294041872,0.0009704708936624229,-0.0944526419043541,-35.3632621,149.1652375,-0.006,-0.01,0.01,0.0,-9.94221554719843e-05,9.444950410397723e-05,0.0,1000,1000,1000,1000,12600,0,0.0029315960127860308,0.002608770038932562,0.0031276470981538296,10,{}
attack_corridor_base_4,1,pos_spoof,67357,0.0011737729655578732,0.0009735629428178072,-0.09451471269130707,-35.3632621,149.1652375,-0.006,-0.01,0.01,0.0,-9.942214819602668e-05,9.4449489552062e-05,0.0,1000,1000,1000,1000,12600,0,0.0029668936040252447,0.002841623267158866,0.0028961992356926203,10,{}
attack_corridor_base_4,1,pos_spoof,67607,0.001176408608444035,0.0009820432169362903,-0.09458958357572556,-35.3632622,149.1652375,-0.006,-0.01,0.01,0.0,-9.942221367964521e-05,9.444949682801962e-05,0.0,1000,1000,1000,1000,12600,0,0.0026007136330008507,0.0029933638870716095,0.002721191616728902,10,{}
attack_corridor_base_4,1,pos_spoof,67857,0.0011767096584662795,0.0009822479914873838,-0.09466615319252014,-35.3632621,149.1652375,-0.006,-0.01,0.01,0.0,-9.942214092006907e-05,9.444947500014678e-05,0.0,1000,1000,1000,1000,12600,0,0.002686419291421771,0.0029666952323168516,0.0027812058106064796,10,{}
attack_corridor_base_4,1,pos_spoof,68109,0.0011777249164879322,0.0009811946656554937,-0.09473525732755661,-35.3632622,149.1652375,-0.006,-0.01,0.01,0.0,-9.942217002389953e-05,9.444952593185008e-05,0.0,1000,1000,1000,1000,12600,0,0.0030995316337794065,0.002659887308254838,0.0024362201802432537,10,{}
