flight_id,label,attack_type,timestamp,att_roll,att_pitch,att_yaw,pos_lat,pos_lon,pos_alt_rel,pos_vx,pos_vy,pos_vz,nav_roll,nav_pitch,nav_alt_error,servo1_raw,servo2_raw,servo3_raw,servo4_raw,sys_voltage_battery,sys_load,vib_x,vib_y,vib_z,gps_sats_visible,attack_params_json
attack_corridor_base_16,1,pos_alt_spoof,10141,0.00019025789515580982,-4.1970808524638414e-05,-0.345608651638031,-35.3632621,149.1652374,0.0,0.0,0.0,-0.03,-9.942174074240029e-05,9.444947500014678e-05,0.0,1000,1000,1000,1000,12600,0,0.0028008027002215385,0.002608214970678091,0.0026755542494356632,3,{}
attack_corridor_base_16,1,pos_alt_spoof,10474,0.00019783985044341534,-2.9067856303299777e-05,-0.3124774098396301,-35.3632621,149.1652374,0.0,0.0,0.0,-0.03,-9.94216970866546e-05,9.444939496461302e-05,0.0,1000,1000,1000,1000,12600,0,0.002724390011280775,0.0029119448736310005,0.0028526396490633488,10,{}
attack_corridor_base_16,1,pos_alt_spoof,10807,0.00020015524933114648,-2.1984482373227365e-05,-0.2829281985759735,-35.3632621,149.1652374,0.0,0.0,0.0,-0.03,-9.94216970866546e-05,9.444939496461302e-05,0.0,1000,1000,1000,1000,12600,0,0.002845007460564375,0.0025806259363889694,0.002994688693434,10,{}
attack_corridor_base_16,1,pos_alt_spoof,11139,0.00020408781711012125,-1.4224015103536658e-05,-0.2571628987789154,-35.3632621,149.1652374,0.0,0.0,0.0,-0.03,-9.942166798282415e-05,9.444939496461302e-05,0.0,1000,1000,1000,1000,12600,0,0.0026813617441803217,0.0027287353295832872,0.0027220877818763256,10,{}
attack_corridor_base_16,1,pos_alt_spoof,11472,0.00021018621919211,-1.8027487840299727e-06,-0.22539855539798737,-35.3632621,149.1652374,0.0,0.0,0.0,-0.03,-9.942155884345993e-05,9.444935130886734e-05,0.0,1000,1000,1000,1000,12600,0,0.002991147106513381,0.002751232124865055,0.0029881643131375313,10,{}
attack_corridor_base_16,1,pos_alt_spoof,11806,0.0002158552233595401,5.249519290373428e-07,-0.20410439372062683,-35.3632621,149.1652374,0.0,0.0,0.0,-0.03,-9.942155884345993e-05,9.444935130886734e-05,0.0,1000,1000,1000,1000,12600,0,0.0029785993974655867,0.0027597115840762854,0.0023838423658162355,10,{}
attack_corridor_base_16,1,pos_alt_spoof,12139,0.00021988713706377894,1.538804644951597e-05,-0.1851813793182373,-35.3632621,149.1652374,0.0,0.0,0.0,-0.02,-9.942158794729039e-05,9.444940951652825e-05,0.0,1000,1000,1000,1000,12600,0,0.0028520848136395216,0.002999533200636506,0.0029139379039406776,10,{}
attack_corridor_base_16,1,pos_alt_spoof,12471,0.00023190559295471758,2.3360500563285314e-05,-0.1630571186542511,-35.3632621,149.1652374,0.0,0.0,0.0,-0.02,-9.942168253473938e-05,9.444942406844348e-05,0.0,1000,1000,1000,1000,12600,0,0.0027854260988533497,0.003016826929524541,0.002777424640953541,10,{}
attack_corridor_base_16,1,pos_alt_spoof,12804,0.00023624853929504752,3.514202398946509e-05,-0.1485888808965683,-35.3632621,149.1652374,0.0,0.0,0.0,-0.02,-9.942168253473938e-05,9.444942406844348e-05,0.0,1000,1000,1000,1000,12600,0,0.0029391704592853785,0.0028339505661278963,0.002970039378851652,10,{}
attack_corridor_base_16,1,pos_alt_spoof,13137,0.00024683913215994835,3.626735633588396e-05,-0.13569912314414978,-35.3632621,149.1652374,0.0,0.0,0.0,-0.02,-9.942163160303608e-05,9.444935858482495e-05,0.0,1000,1000,1000,1000,12600,0,0.0028118405025452375,0.002663745079189539,0.0028463941998779774,10,{}
attack_corridor_base_16,1,pos_alt_spoof,13472,0.0002590303774923086,4.559934313874692e-05,-0.12094531208276749,-35.3632621,149.1652374,0.0,0.0,0.0,-0.01,-9.942163160303608e-05,9.44493876886554e-05,0.0,1000,1000,1000,1000,12600,0,0.002607755595818162,0.002535938285291195,0.002833523554727435,10,{}
attack_corridor_base_16,1,pos_alt_spoof,13804,0.00026594559312798083,5.651886385749094e-05,-0.11143341660499573,-35.3632621,149.1652374,0.0,0.0,0.0,-0.01,-9.942163160303608e-05,9.44493876886554e-05,0.0,1000,1000,1000,1000,12600,0,0.0028023608028888702,0.0026097334921360016,0.0025145479012280703,10,{}
attack_corridor_base_16,1,pos_alt_spoof,14136,0.0002766734978649765,6.372847565216944e-05,-0.10309643298387527,-35.3632621,149.1652374,0.0,0.0,0.0,-0.01,-9.942155156750232e-05,9.444936586078256e-05,0.0,1000,1000,1000,1000,12600,0,0.0026372987776994705,0.0025366453919559717,0.0029279873706400394,10,{}
attack_corridor_base_16,1,pos_alt_spoof,14469,0.0002854702470358461,7.839522731956095e-05,-0.09359097480773926,-35.3632621,149.1652374,0.0,0.0,0.0,-0.01,-9.942151518771425e-05,9.444934403290972e-05,0.0,1000,1000,1000,1000,12600,0,0.00282498961314559,0.0030710238497704268,0.0024287605192512274,10,{}
attack_corridor_base_16,1,pos_alt_spoof,14804,0.0002995505928993225,8.816886111162603e-05,-0.08749200403690338,-35.3632621,149.1652374,0.0,0.0,0.0,-0.01,-9.942151518771425e-05,9.444934403290972e-05,0.0,1000,1000,1000,1000,12600,0,0.002921065781265497,0.0027856621891260147,0.002727455459535122,10,{}
attack_corridor_base_16,1,pos_alt_spoof,15354,0.00032044018735177815,0.00010651403135852888,-0.07721276581287384,-35.3632621,149.1652374,0.0,0.0,0.0,-0.01,-9.942146425601095e-05,9.444929310120642e-05,0.0,1000,1000,1000,1000,12600,0,0.002701814752072096,0.0026367977261543274,0.002742486074566841,10,{}
attack_corridor_base_16,1,pos_alt_spoof,15604,0.0003307894803583622,0.00011132283543702215,-0.0738353282213211,-35.3632621,149.1652374,0.0,0.0,0.0,-0.01,-9.942150063579902e-05,9.444934403290972e-05,0.0,1000,1000,1000,1000,12600,0,0.002701814752072096,0.0026367977261543274,0.002742486074566841,10,{}
attack_corridor_base_16,1,pos_alt_spoof,16146,0.0003452042583376169,0.00012997495650779456,-0.06826519221067429,-35.3632621,149.1652374,0.0,0.0,0.0,0.0,-9.942147880792618e-05,9.444936586078256e-05,0.0,1000,1000,1000,1000,12600,0,0.002869691699743271,0.002785970689728856,0.002647893503308296,10,{}
attack_corridor_base_16,1,pos_alt_spoof,16479,0.0003590612323023379,0.00013730466889683157,-0.06521029770374298,-35.3632621,149.1652374,0.0,0.0,0.0,0.0,-9.942150791175663e-05,9.444938041269779e-05,0.0,1000,1000,1000,1000,12600,0,0.0031085845548659563,0.002815792104229331,0.0027286061085760593,10,{}
attack_corridor_base_16,1,pos_alt_spoof,16811,0.00037304501165635884,0.00015197868924587965,-0.06291935592889786,-35.3632621,149.1652374,0.0,0.0,0.0,0.0,-9.942150063579902e-05,9.444938041269779e-05,0.0,1000,1000,1000,1000,12600,0,0.003117138985544443,0.0025906378868967295,0.002622335683554411,10,{}
attack_corridor_base_16,1,pos_alt_spoof,17144,0.00038563506677746773,0.0001575168571434915,-0.06090155243873596,-35.3632621,149.1652374,0.0,0.0,0.0,0.0,-9.94214933598414e-05,9.444935858482495e-05,0.0,1000,1000,1000,1000,12600,0,0.0028861563187092543,0.0029514983762055635,0.002837456064298749,10,{}
attack_corridor_base_16,1,pos_alt_spoof,17477,0.000398473086534068,0.0001721803710097447,-0.058765482157468796,-35.3632621,149.1652374,0.0,0.0,0.0,0.0,-9.942156611941755e-05,9.444936586078256e-05,0.0,1000,1000,1000,1000,12600,0,0.0028861563187092543,0.0029514983762055635,0.002837456064298749,10,{}
attack_corridor_base_16,1,pos_alt_spoof,17812,0.0004115744086448103,0.00018173221906181425,-0.0574297234416008,-35.3632621,149.1652374,0.0,0.0,0.0,0.0,-9.942162432707846e-05,9.444939496461302e-05,0.0,1000,1000,1000,1000,12600,0,0.0028695371001958847,0.002666517859324813,0.0028403985779732466,10,{}
attack_corridor_base_16,1,pos_alt_spoof,18144,0.00042281061178073287,0.00019755282846745104,-0.056327227503061295,-35.3632621,149.1652374,0.0,0.0,0.0,0.0,-9.942168253473938e-05,9.444936586078256e-05,0.0,1000,1000,1000,1000,12600,0,0.0028687024023383856,0.002913461998105049,0.0028434577398002148,10,{}
attack_corridor_base_16,1,pos_alt_spoof,18476,0.00043953803833574057,0.00021359106176532805,-0.05513320863246918,-35.3632621,149.1652374,0.0,0.0,0.0,0.0,-9.94216461549513e-05,9.444932948099449e-05,0.0,1000,1000,1000,1000,12600,0,0.002765968441963196,0.00279477727599442,0.002816678723320365,10,{}
attack_corridor_base_16,1,pos_alt_spoof,18809,0.0004502838128246367,0.00022965899552218616,-0.054463110864162445,-35.3632621,149.1652374,0.0,0.0,0.0,0.0,-9.94216461549513e-05,9.444932948099449e-05,0.0,1000,1000,1000,1000,12600,0,0.002595682395622134,0.002913490403443575,0.0029620688874274492,10,{}
attack_corridor_base_16,1,pos_alt_spoof,19142,0.0004715608083643019,0.0002443889679852873,-0.05390481278300285,-35.3632621,149.1652374,0.0,0.0,0.0,0.0,-9.942161705112085e-05,9.444930765312165e-05,0.0,1000,1000,1000,1000,12600,0,0.0028339852578938007,0.0032167297322303057,0.002752824453637004,10,{}
attack_corridor_base_16,1,pos_alt_spoof,19477,0.00048681037151254714,0.00025878040469251573,-0.053394168615341187,-35.3632621,149.1652374,0.0,0.0,0.0,0.0,-9.942162432707846e-05,9.444935858482495e-05,0.0,1000,1000,1000,1000,12600,0,0.002964082872495055,0.002904956927523017,0.0030979665461927652,10,{}
attack_corridor_base_16,1,pos_alt_spoof,19809,0.0005028293235227466,0.00027246362878941,-0.053098682314157486,-35.3632621,149.1652374,0.0,0.0,0.0,0.0,-9.942162432707846e-05,9.444935858482495e-05,0.0,1000,1000,1000,1000,12600,0,0.0030297685880213976,0.002570393029600382,0.002736372407525778,10,{}
attack_corridor_base_16,1,pos_alt_spoof,20141,0.0005279891774989665,0.0002882597909774631,-0.05276608094573021,-35.3632621,149.1652374,0.005,0.0,0.0,0.0,-9.942167525878176e-05,9.444935858482495e-05,0.0,1000,1000,1000,1000,12600,0,0.0027766935527324677,0.0028300031553953886,0.0028791313525289297,10,{}
attack_corridor_base_16,1,pos_alt_spoof,20474,0.0005425693234428763,0.00031064992072060704,-0.052648063749074936,-35.3632621,149.1652374,-0.008,0.0,0.0,0.0,-9.942171163856983e-05,9.44493876886554e-05,0.0,1000,1000,1000,1000,12600,0,0.002688166918233037,0.0027552128303796053,0.00259006442502141,10,{}
attack_corridor_base_16,1,pos_alt_spoof,20809,0.0005563697777688503,0.0003250570152886212,-0.05270545184612274,-35.3632621,149.1652374,-0.007,0.0,0.0,0.0,-9.942171163856983e-05,9.44493876886554e-05,0.0,1000,1000,1000,1000,12600,0,0.0027507231570780277,0.0027819357346743345,0.0029326188378036022,10,{}
attack_corridor_base_16,1,pos_alt_spoof,21141,0.0005709208780899644,0.0003414512611925602,-0.05280178412795067,-35.3632621,149.1652374,-0.006,0.0,0.0,0.0,-9.942174074240029e-05,9.444938041269779e-05,0.0,1000,1000,1000,1000,12600,0,0.002956685144454241,0.002823194023221731,0.0032196524553000927,10,{}
attack_corridor_base_16,1,pos_alt_spoof,21474,0.0005933186621405184,0.00036226786323823035,-0.053028859198093414,-35.3632621,149.1652374,-0.004,0.0,0.0,0.0,-9.942178439814597e-05,9.444940951652825e-05,0.0,1000,1000,1000,1000,12600,0,0.002802385948598385,0.0027604661881923676,0.003059656824916601,10,{}
attack_corridor_base_16,1,pos_alt_spoof,21807,0.0006141215562820435,0.0003773759235627949,-0.053224220871925354,-35.3632621,149.1652374,-0.003,0.0,0.0,0.0,-9.942178439814597e-05,9.444940951652825e-05,0.0,1000,1000,1000,1000,12600,0,0.0029548488091677427,0.0026705253403633833,0.0028815604746341705,10,{}
attack_corridor_base_16,1,pos_alt_spoof,22139,0.0006323378765955567,0.00039218325400725007,-0.05348172038793564,-35.3632621,149.1652374,-0.001,0.0,0.01,0.0,-9.942181350197643e-05,9.444936586078256e-05,0.0,1000,1000,1000,1000,12600,0,0.002918345620855689,0.0026604479644447565,0.002859968924894929,10,{}
attack_corridor_base_16,1,pos_alt_spoof,22474,0.0006557360757142305,0.0004180684045422822,-0.05387981981039047,-35.3632621,149.1652374,0.0,0.0,0.01,0.0,-9.94219008134678e-05,9.444946772418916e-05,0.0,1000,1000,1000,1000,12600,0,0.002690190216526389,0.0026945245917886496,0.002728551160544157,10,{}
attack_corridor_base_16,1,pos_alt_spoof,22806,0.0006735526258125901,0.0004378660232760012,-0.05422377586364746,-35.3632621,149.1652374,0.0,0.0,0.01,0.0,-9.94219008134678e-05,9.444946772418916e-05,0.0,1000,1000,1000,1000,12600,0,0.002616927260532975,0.002546081319451332,0.0026466292329132557,10,{}
attack_corridor_base_16,1,pos_alt_spoof,23139,0.000693737412802875,0.00045750505523756146,-0.0545806959271431,-35.3632621,149.1652374,0.001,-0.01,0.01,0.0,-9.942197357304394e-05,9.444946772418916e-05,0.0,1000,1000,1000,1000,12600,0,0.002978902542963624,0.0026720231398940086,0.002808414865285158,10,{}
attack_corridor_base_16,1,pos_alt_spoof,23472,0.0007108434219844639,0.000480616552522406,-0.055129893124103546,-35.3632621,149.1652374,0.001,-0.01,0.01,0.0,-9.942189353751019e-05,9.444942406844348e-05,0.0,1000,1000,1000,1000,12600,0,0.002621270716190338,0.0027214603032916784,0.0027984133921563625,10,{}
attack_corridor_base_16,1,pos_alt_spoof,23804,0.0007250621565617621,0.0004951287992298603,-0.05550595745444298,-35.3632621,149.1652374,0.002,-0.01,0.01,0.0,-9.942189353751019e-05,9.444942406844348e-05,0.0,1000,1000,1000,1000,12600,0,0.002701441291719675,0.0029175556264817715,0.002768998732790351,10,{}
attack_corridor_base_16,1,pos_alt_spoof,24137,0.000741565425414592,0.000514462823048234,-0.055922649800777435,-35.3632621,149.1652374,0.002,-0.01,0.01,0.0,-9.94217989500612e-05,9.444936586078256e-05,0.0,1000,1000,1000,1000,12600,0,0.002674579620361328,0.0029746186919510365,0.002541786292567849,10,{}
attack_corridor_base_16,1,pos_alt_spoof,24471,0.0007589950691908598,0.0005328226834535599,-0.0565122589468956,-35.3632621,149.1652374,0.002,-0.01,0.01,0.0,-9.942186443367973e-05,9.444940224057063e-05,0.0,1000,1000,1000,1000,12600,0,0.0025699525140225887,0.002712212735787034,0.0027977449353784323,10,{}
attack_corridor_base_16,1,pos_alt_spoof,24804,0.0007742196903564036,0.0005507664754986763,-0.05694657564163208,-35.3632621,149.1652374,0.002,-0.01,0.01,0.0,-9.942186443367973e-05,9.444940224057063e-05,0.0,1000,1000,1000,1000,12600,0,0.0028776563704013824,0.0029626840259879827,0.0026010596193373203,10,{}
attack_corridor_base_16,1,pos_alt_spoof,25136,0.0007914548041298985,0.0005676201544702053,-0.05740518495440483,-35.3632621,149.1652374,0.003,-0.01,0.01,0.0,-9.942192991729826e-05,9.444951137993485e-05,0.0,1000,1000,1000,1000,12600,0,0.002828378463163972,0.002761328360065818,0.002567544812336564,10,{}
attack_corridor_base_16,1,pos_alt_spoof,25469,0.0008060812251642346,0.0005841247620992362,-0.05803025886416435,-35.3632621,149.1652374,0.003,-0.01,0.01,0.0,-9.942190808942541e-05,9.444951865589246e-05,0.0,1000,1000,1000,1000,12600,0,0.0027862011920660734,0.0028649510350078344,0.0030804502312093973,10,{}
attack_corridor_base_16,1,pos_alt_spoof,25802,0.0008215610287152231,0.0006012563244439662,-0.05834982544183731,-35.3632621,149.1652374,0.002,-0.01,0.01,0.0,-9.942190808942541e-05,9.444951865589246e-05,0.0,1000,1000,1000,1000,12600,0,0.002840193687006831,0.0031675922218710184,0.002983632031828165,10,{}
attack_corridor_base_16,1,pos_alt_spoof,26137,0.0008369286078959703,0.0006183529039844871,-0.05883628502488136,-35.3632621,149.1652374,0.002,-0.01,0.01,0.0,-9.942189353751019e-05,9.444949682801962e-05,0.0,1000,1000,1000,1000,12600,0,0.0030016766395419836,0.0026992245111614466,0.0031941505149006844,10,{}
attack_corridor_base_16,1,pos_alt_spoof,26469,0.0008565704920329154,0.0006233002059161663,-0.05949573591351509,-35.3632621,149.1652374,0.002,-0.01,0.01,0.0,-9.94219008134678e-05,9.444945317227393e-05,0.0,1000,1000,1000,1000,12600,0,0.0027890761848539114,0.002851964673027396,0.002925232984125614,10,{}
attack_corridor_base_16,1,pos_alt_spoof,26801,0.0008702254854142666,0.0006322749541141093,-0.05998460575938225,-35.3632621,149.1652374,0.002,-0.01,0.01,0.0,-9.94219008134678e-05,9.444945317227393e-05,0.0,1000,1000,1000,1000,12600,0,0.0026524735148996115,0.0027952406089752913,0.002719026990234852,10,{}
attack_corridor_base_16,1,pos_alt_spoof,27134,0.0008792741573415697,0.0006446418119594455,-0.06048675253987312,-35.3632621,149.1652374,0.002,-0.01,0.01,0.0,-9.94219517451711e-05,9.444948227610439e-05,0.0,1000,1000,1000,1000,12600,0,0.0029936148785054684,0.0032045328989624977,0.0030032400973141193,10,{}
attack_corridor_base_16,1,pos_alt_spoof,27467,0.0008936746744439006,0.0006553794955834746,-0.061152566224336624,-35.3632621,149.1652374,0.002,-0.01,0.01,0.0,-9.94219517451711e-05,9.4449489552062e-05,0.0,1000,1000,1000,1000,12600,0,0.0024995498824864626,0.002803495619446039,0.002916439436376095,10,{}
attack_corridor_base_16,1,pos_alt_spoof,27802,0.0009075780399143696,0.0006661360384896398,-0.061660006642341614,-35.3632621,149.1652374,0.001,-0.01,0.01,0.0,-9.94219517451711e-05,9.4449489552062e-05,0.0,1000,1000,1000,1000,12600,0,0.003146561561152339,0.0025910111144185066,0.00306134601123631,10,{}
attack_corridor_base_16,1,pos_alt_spoof,28134,0.0009185776580125093,0.0006795763620175421,-0.062139276415109634,-35.3632621,149.1652374,0.001,-0.01,0.01,0.0,-9.942202450474724e-05,9.444954775972292e-05,0.0,1000,1000,1000,1000,12600,0,0.0028579430654644966,0.0030621737241744995,0.0029086878057569265,10,{}
attack_corridor_base_16,1,pos_alt_spoof,28466,0.0009316968498751521,0.0006948707159608603,-0.06281642615795135,-35.3632621,149.1652374,0.001,-0.01,0.01,0.0,-9.942203178070486e-05,9.444956231163815e-05,0.0,1000,1000,1000,1000,12600,0,0.0028084488585591316,0.0026849606074392796,0.0026341951452195644,10,{}
attack_corridor_base_16,1,pos_alt_spoof,28799,0.0009438982233405113,0.0007098634378053248,-0.06328900158405304,-35.3632621,149.1652374,0.0,-0.01,0.01,0.0,-9.942203178070486e-05,9.444956231163815e-05,0.0,1000,1000,1000,1000,12600,0,0.0030686352401971817,0.002697109943255782,0.0029743744526058435,10,{}
attack_corridor_base_16,1,pos_alt_spoof,29134,0.0009523181361146271,0.0007238099933601916,-0.06377499550580978,-35.3632621,149.1652374,0.0,-0.01,0.01,0.0,-9.942216274794191e-05,9.444965689908713e-05,0.0,1000,1000,1000,1000,12600,0,0.0027499571442604065,0.0028276548255234957,0.0025064023211598396,10,{}
attack_corridor_base_16,1,pos_alt_spoof,29466,0.0009727847063913941,0.0007402348564937711,-0.06439470499753952,-35.3632621,149.1652374,0.0,-0.01,0.01,0.0,-9.942225005943328e-05,9.444970055483282e-05,0.0,1000,1000,1000,1000,12600,0,0.002832005964592099,0.0024587204679846764,0.0028660702519118786,10,{}
attack_corridor_base_16,1,pos_alt_spoof,29799,0.0009804058354347944,0.0007501820800825953,-0.0648854523897171,-35.3632621,149.1652374,0.0,-0.01,0.02,0.0,-9.942225005943328e-05,9.444970055483282e-05,0.0,1000,1000,1000,1000,12600,0,0.002981010125949979,0.003074145643040538,0.002760418225079775,10,{}
attack_corridor_base_16,1,pos_alt_spoof,30354,0.0009894631803035736,0.0007626824080944061,-0.06535199284553528,-35.3632621,149.1652374,-0.001,-0.01,0.02,0.0,-9.94223591987975e-05,9.444975876249373e-05,0.0,1000,1000,1000,1000,12600,0,0.002814547624439001,0.0028668642044067383,0.0028827949427068233,10,{}
attack_corridor_base_16,1,pos_alt_spoof,30604,0.0010008851531893015,0.0007810785318724811,-0.06612639874219894,-35.3632621,149.1652374,-0.001,-0.01,0.02,0.0,-9.942236647475511e-05,9.444978059036657e-05,0.0,1000,1000,1000,1000,12600,0,0.002814547624439001,0.0028668642044067383,0.0028827949427068233,10,{}
attack_corridor_base_16,1,pos_alt_spoof,30854,0.0010129620786756277,0.0007892678258940578,-0.06658116728067398,-35.3632621,149.1652374,-0.001,-0.01,0.02,0.0,-9.942244651028886e-05,9.444986062590033e-05,0.0,1000,1000,1000,1000,12600,0,0.002649520756676793,0.002705460647121072,0.0029449232388287783,10,{}
attack_corridor_base_16,1,pos_alt_spoof,31104,0.001015741378068924,0.0007936953916214406,-0.06688380241394043,-35.3632621,149.1652374,-0.002,-0.01,0.02,0.0,-9.942250471794978e-05,9.444988972973078e-05,0.0,1000,1000,1000,1000,12600,0,0.0026380515191704035,0.0026918735820800066,0.0029353960417211056,10,{}
attack_corridor_base_16,1,pos_alt_spoof,31354,0.0010297975968569517,0.0007987862336449325,-0.06733886897563934,-35.3632621,149.1652374,-0.002,-0.01,0.02,0.0,-9.942250471794978e-05,9.444991883356124e-05,0.0,1000,1000,1000,1000,12600,0,0.002714283997192979,0.0029571945779025555,0.0028449641540646553,10,{}
attack_corridor_base_16,1,pos_alt_spoof,31604,0.0010370317613705993,0.0008049741154536605,-0.06762953102588654,-35.3632621,149.1652374,-0.002,-0.01,0.02,0.0,-9.942253382178023e-05,9.444995521334931e-05,0.0,1000,1000,1000,1000,12600,0,0.002714283997192979,0.0029571945779025555,0.0028449641540646553,10,{}
attack_corridor_base_16,1,pos_alt_spoof,31854,0.0010429206304252148,0.0008090349729172885,-0.06799375265836716,-35.3632621,149.1652374,-0.003,-0.01,0.02,0.0,-9.942250471794978e-05,9.444991883356124e-05,0.0,1000,1000,1000,1000,12600,0,0.002511002356186509,0.0030110222287476063,0.0027679309714585543,10,{}
attack_corridor_base_16,1,pos_alt_spoof,32104,0.0010433195857331157,0.0008112294599413872,-0.06829395890235901,-35.3632621,149.1652374,-0.003,-0.01,0.02,0.0,-9.942249016603455e-05,9.444988972973078e-05,0.0,1000,1000,1000,1000,12600,0,0.0027977796271443367,0.0030397914815694094,0.0029967084992676973,10,{}
attack_corridor_base_16,1,pos_alt_spoof,32354,0.001056259498000145,0.0008194971596822143,-0.06873181462287903,-35.3632621,149.1652374,-0.003,-0.01,0.02,0.0,-9.942247561411932e-05,9.444992610951886e-05,0.0,1000,1000,1000,1000,12600,0,0.002863110275939107,0.0027915379032492638,0.0026584479492157698,10,{}
attack_corridor_base_16,1,pos_alt_spoof,32604,0.0010619810782372952,0.000824524147901684,-0.06904254108667374,-35.3632621,149.1652374,-0.003,-0.01,0.02,0.0,-9.942247561411932e-05,9.444992610951886e-05,0.0,1000,1000,1000,1000,12600,0,0.002863110275939107,0.0027915379032492638,0.0026584479492157698,10,{}
attack_corridor_base_16,1,pos_alt_spoof,32854,0.0010681874118745327,0.0008409933652728796,-0.06946688890457153,-35.3632621,149.1652374,-0.004,-0.01,0.02,0.0,-9.942256292561069e-05,9.444998431717977e-05,0.0,1000,1000,1000,1000,12600,0,0.0026581736747175455,0.002630493836477399,0.002727014711126685,10,{}
attack_corridor_base_16,1,pos_alt_spoof,33104,0.001074038678780198,0.0008466353174299002,-0.06975287944078445,-35.3632621,149.1652374,-0.004,-0.01,0.02,0.0,-9.942256292561069e-05,9.444998431717977e-05,0.0,1000,1000,1000,1000,12600,0,0.0028711387421935797,0.003030645428225398,0.0027387612499296665,10,{}
attack_corridor_base_16,1,pos_alt_spoof,33661,0.0011015974450856447,0.0008702843333594501,-0.07060424983501434,-35.3632621,149.1652374,-0.004,-0.01,0.02,0.0,-9.942254837369546e-05,9.444994066143408e-05,0.0,1000,1000,1000,1000,12600,0,0.0027143708430230618,0.0029728806111961603,0.00275063281878829,10,{}
attack_corridor_base_16,1,pos_alt_spoof,33994,0.001113928621634841,0.0008784090168774128,-0.07103810459375381,-35.3632621,149.1652374,-0.004,-0.02,0.02,0.0,-9.942251199390739e-05,9.444994066143408e-05,0.0,1000,1000,1000,1000,12600,0,0.002653435803949833,0.0028827106580138206,0.0026973204221576452,10,{}
attack_corridor_base_16,1,pos_alt_spoof,34327,0.0011177001288160682,0.0008857828797772527,-0.07143930345773697,-35.3632621,149.1652374,-0.005,-0.02,0.02,0.0,-9.942247561411932e-05,9.445000614505261e-05,0.0,1000,1000,1000,1000,12600,0,0.0030953658279031515,0.0025800385046750307,0.002984061371535063,10,{}
attack_corridor_base_16,1,pos_alt_spoof,34659,0.001133300014771521,0.0009002851438708603,-0.07198130339384079,-35.3632621,149.1652374,-0.005,-0.02,0.02,0.0,-9.942247561411932e-05,9.445000614505261e-05,0.0,1000,1000,1000,1000,12600,0,0.002454425673931837,0.002770389895886183,0.0029675813857465982,10,{}
attack_corridor_base_16,1,pos_alt_spoof,34994,0.0011469259625300765,0.0009160421323031187,-0.07237543165683746,-35.3632621,149.1652374,-0.005,-0.02,0.02,0.0,-9.942237375071272e-05,9.444995521334931e-05,0.0,1000,1000,1000,1000,12600,0,0.0027670017443597317,0.0031054511200636625,0.002719082171097398,10,{}
attack_corridor_base_16,1,pos_alt_spoof,35326,0.0011481610126793385,0.0009274971089325845,-0.07277556508779526,-35.3632621,149.1652374,-0.005,-0.02,0.02,0.0,-9.942233009496704e-05,9.44499479373917e-05,0.0,1000,1000,1000,1000,12600,0,0.0028711927589029074,0.0027556964196264744,0.002649603644385934,10,{}
attack_corridor_base_16,1,pos_alt_spoof,35659,0.0011607167543843389,0.000934598792809993,-0.07329218089580536,-35.3632621,149.1652374,-0.005,-0.02,0.02,0.0,-9.942233009496704e-05,9.44499479373917e-05,0.0,1000,1000,1000,1000,12600,0,0.002792591694742441,0.0028515132144093513,0.0027013965882360935,10,{}
attack_corridor_base_16,1,pos_alt_spoof,35992,0.0011652143439278007,0.0009336908697150648,-0.07365238666534424,-35.3632621,149.1652374,-0.005,-0.02,0.02,0.0,-9.942234464688227e-05,9.444992610951886e-05,0.0,1000,1000,1000,1000,12600,0,0.002715788083150983,0.002569303847849369,0.0026847932022064924,10,{}
attack_corridor_base_16,1,pos_alt_spoof,36324,0.0011702602496370673,0.0009490352822467685,-0.07397938519716263,-35.3632621,149.1652374,-0.005,-0.02,0.02,0.0,-9.942230099113658e-05,9.444991883356124e-05,0.0,1000,1000,1000,1000,12600,0,0.0031034245621412992,0.002625797875225544,0.0029383159708231688,10,{}
attack_corridor_base_16,1,pos_alt_spoof,36659,0.0011816901387646794,0.0009666656260378659,-0.07449938356876373,-35.3632621,149.1652374,-0.005,-0.02,0.02,0.0,-9.942230099113658e-05,9.444991883356124e-05,0.0,1000,1000,1000,1000,12600,0,0.0028594215400516987,0.0026512318290770054,0.0026068578008562326,10,{}
attack_corridor_base_16,1,pos_alt_spoof,36991,0.0011920606484636664,0.0009811708005145192,-0.07485324144363403,-35.3632621,149.1652374,-0.005,-0.02,0.02,0.0,-9.94223082670942e-05,9.44498970056884e-05,0.0,1000,1000,1000,1000,12600,0,0.002569634234532714,0.0027109787333756685,0.002795621519908309,10,{}
attack_corridor_base_16,1,pos_alt_spoof,37324,0.0012022820301353931,0.000996225862763822,-0.07522069662809372,-35.3632621,149.1652374,-0.005,-0.02,0.02,0.0,-9.94223591987975e-05,9.444988972973078e-05,0.0,1000,1000,1000,1000,12600,0,0.003000323660671711,0.0027722702361643314,0.0025575142353773117,10,{}
attack_corridor_base_16,1,pos_alt_spoof,37656,0.001210410031490028,0.0010069424752146006,-0.07570298761129379,-35.3632621,149.1652374,-0.005,-0.02,0.02,0.0,-9.94223591987975e-05,9.444988972973078e-05,0.0,1000,1000,1000,1000,12600,0,0.003078848123550415,0.0027164642233401537,0.0026366845704615116,10,{}
attack_corridor_base_16,1,pos_alt_spoof,37989,0.001211600610986352,0.0010241621639579535,-0.07606202363967896,-35.3632621,149.1652374,-0.006,-0.02,0.02,0.0,-9.942233737092465e-05,9.444987517781556e-05,0.0,1000,1000,1000,1000,12600,0,0.002789952326565981,0.0027340645901858807,0.0026909243315458298,10,{}
attack_corridor_base_16,1,pos_alt_spoof,38322,0.001226079766638577,0.00103565095923841,-0.07641373574733734,-35.3632621,149.1652374,-0.006,-0.02,0.02,0.0,-9.942234464688227e-05,9.444987517781556e-05,0.0,1000,1000,1000,1000,12600,0,0.0026884491089731455,0.0028317798860371113,0.0029309121891856194,10,{}
attack_corridor_base_16,1,pos_alt_spoof,38657,0.001239135628566146,0.0010430478723719716,-0.0768776684999466,-35.3632621,149.1652374,-0.006,-0.02,0.02,0.0,-9.942234464688227e-05,9.444987517781556e-05,0.0,1000,1000,1000,1000,12600,0,0.0027524603065103292,0.0028161921072751284,0.0028359934221953154,10,{}
attack_corridor_base_16,1,pos_alt_spoof,38989,0.001245842664502561,0.0010572790633887053,-0.07722991704940796,-35.3632621,149.1652374,-0.006,-0.02,0.02,0.0,-9.942228643922135e-05,9.444986062590033e-05,0.0,1000,1000,1000,1000,12600,0,0.0028194133192300797,0.0029871687293052673,0.002773110056295991,10,{}
attack_corridor_base_16,1,pos_alt_spoof,39321,0.0012509722728282213,0.00106523756403476,-0.07756958156824112,-35.3632621,149.1652374,-0.006,-0.02,0.02,0.0,-9.94222573353909e-05,9.444986790185794e-05,0.0,1000,1000,1000,1000,12600,0,0.0030464320443570614,0.0027216426096856594,0.002918335609138012,10,{}
attack_corridor_base_16,1,pos_alt_spoof,39654,0.0012518909061327577,0.001073512015864253,-0.07801540940999985,-35.3632621,149.1652374,-0.006,-0.02,0.02,0.0,-9.94222573353909e-05,9.444986790185794e-05,0.0,1000,1000,1000,1000,12600,0,0.0027863909490406513,0.002663904568180442,0.0030051078647375107,10,{}
attack_corridor_base_16,1,pos_alt_spoof,39987,0.0012606477830559015,0.0010783663019537926,-0.07833966612815857,-35.3632621,149.1652374,-0.006,-0.02,0.02,0.0,-9.942226461134851e-05,9.444988245377317e-05,0.0,1000,1000,1000,1000,12600,0,0.002866762923076749,0.0029472867026925087,0.0026582996360957623,10,{}
attack_corridor_base_16,1,pos_alt_spoof,40322,0.0012652899604290724,0.0010842387564480305,-0.07866174727678299,-35.3632621,149.1652374,-0.006,-0.02,0.02,0.0,-9.942227188730612e-05,9.444994066143408e-05,0.0,1000,1000,1000,1000,12600,0,0.0027591970283538103,0.0031341116409748793,0.00280176755040884,10,{}
attack_corridor_base_16,1,pos_alt_spoof,40654,0.00127795257139951,0.0010940209031105042,-0.07907254993915558,-35.3632621,149.1652374,-0.006,-0.02,0.02,0.0,-9.942227188730612e-05,9.444994066143408e-05,0.0,1000,1000,1000,1000,12600,0,0.0026454960461705923,0.0029426133260130882,0.002823427552357316,10,{}
attack_corridor_base_16,1,pos_alt_spoof,40986,0.001284398720599711,0.0010963545646518469,-0.07934433221817017,-35.3632621,149.1652374,-0.006,-0.02,0.02,0.0,-9.942226461134851e-05,9.444993338547647e-05,0.0,1000,1000,1000,1000,12600,0,0.0025658481754362583,0.0028039037715643644,0.0027640219777822495,10,{}
attack_corridor_base_16,1,pos_alt_spoof,41319,0.0012911251978948712,0.0011095883091911674,-0.07963941246271133,-35.3632621,149.1652374,-0.006,-0.02,0.02,0.0,-9.942227188730612e-05,9.444991155760363e-05,0.0,1000,1000,1000,1000,12600,0,0.0026439018547534943,0.0027877045795321465,0.002767479047179222,10,{}
attack_corridor_base_16,1,pos_alt_spoof,41654,0.0013031637063249946,0.0011233576806262136,-0.08005139976739883,-35.3632621,149.1652374,-0.006,0.0,0.0,0.0,-9.942227188730612e-05,9.444991155760363e-05,0.0,1000,1000,1000,1000,12600,0,0.0029724964406341314,0.002557247644290328,0.0027223138604313135,10,{}
attack_corridor_base_16,1,pos_alt_spoof,41986,0.0013560079969465733,0.0011792969889938831,-0.08035018295049667,-35.3632621,149.1652374,-0.006,0.0,0.0,0.0,-9.94223082670942e-05,9.444992610951886e-05,0.0,1000,1000,1000,1000,12600,0,0.0031102867797017097,0.0027247238904237747,0.002774158725515008,10,{}
attack_corridor_base_16,1,pos_alt_spoof,42319,0.0014359633205458522,0.0012568032834678888,-0.08066033571958542,-35.3632621,149.1652374,-0.006,0.0,0.0,0.0,-9.942227916326374e-05,9.444991883356124e-05,0.0,1000,1000,1000,1000,12600,0,0.0028090106789022684,0.0028189567383378744,0.003136680694296956,10,{}
attack_corridor_base_16,1,pos_alt_spoof,42652,0.0015193638391792774,0.0013453770661726594,-0.08105894923210144,-35.3632621,149.1652374,-0.006,0.0,0.0,0.0,-9.942227916326374e-05,9.444991883356124e-05,0.0,1000,1000,1000,1000,12600,0,0.002833444159477949,0.0026903816033154726,0.0026045639533549547,10,{}
attack_corridor_base_16,1,pos_alt_spoof,42984,0.0015809268224984407,0.0013999507063999772,-0.0813634842634201,-35.3632621,149.1652374,-0.006,0.0,0.01,0.0,-9.942234464688227e-05,9.444993338547647e-05,0.0,1000,1000,1000,1000,12600,0,0.002843651920557022,0.0026935774367302656,0.0028995296452194452,10,{}
attack_corridor_base_16,1,pos_alt_spoof,43319,0.0016265555750578642,0.0014443073887377977,-0.08167638629674911,-35.3632621,149.1652374,-0.006,-0.01,0.01,0.0,-9.942233009496704e-05,9.444988245377317e-05,0.0,1000,1000,1000,1000,12600,0,0.0029139609541743994,0.0028922557830810547,0.002790869912132621,10,{}
attack_corridor_base_16,1,pos_alt_spoof,43651,0.0016597907524555922,0.0014747618697583675,-0.08208703994750977,-35.3632621,149.1652374,-0.006,-0.01,0.01,0.0,-9.942233009496704e-05,9.444988245377317e-05,0.0,1000,1000,1000,1000,12600,0,0.0027602810878306627,0.0029826092068105936,0.0028264508582651615,10,{}
attack_corridor_base_16,1,pos_alt_spoof,43984,0.0016576288035139441,0.0014744254294782877,-0.08238954097032547,-35.3632621,149.1652374,-0.006,-0.01,0.01,0.0,-9.942236647475511e-05,9.444988245377317e-05,0.0,1000,1000,1000,1000,12600,0,0.0027112604584544897,0.0030658459290862083,0.002641067374497652,10,{}
attack_corridor_base_16,1,pos_alt_spoof,44317,0.0016420541796833277,0.0014604991301894188,-0.08269564807415009,-35.3632621,149.1652374,-0.006,-0.01,0.01,0.0,-9.942239557858557e-05,9.444988245377317e-05,0.0,1000,1000,1000,1000,12600,0,0.002659029560163617,0.002971433801576495,0.002963273087516427,10,{}
attack_corridor_base_16,1,pos_alt_spoof,44649,0.001607574988156557,0.001414648606441915,-0.08306992799043655,-35.3632621,149.1652375,-0.006,-0.01,0.02,0.0,-9.942239557858557e-05,9.444988245377317e-05,0.0,1000,1000,1000,1000,12600,0,0.002849017269909382,0.002749205334112048,0.0029228581115603447,10,{}
attack_corridor_base_16,1,pos_alt_spoof,44982,0.0015507765347138047,0.0013697416288778186,-0.08335147798061371,-35.3632621,149.1652375,-0.006,-0.01,0.02,0.0,-9.942233737092465e-05,9.444987517781556e-05,0.0,1000,1000,1000,1000,12600,0,0.0028099899645894766,0.0028231418691575527,0.002796114655211568,10,{}
attack_corridor_base_16,1,pos_alt_spoof,45354,0.0014804797247052193,0.0012993920827284455,-0.08371040970087051,-35.3632621,149.1652375,-0.006,-0.01,0.02,0.0,-9.942233737092465e-05,9.444987517781556e-05,0.0,1000,1000,1000,1000,12600,0,0.0024922159500420094,0.002703004749491811,0.0029201318975538015,10,{}
attack_corridor_base_16,1,pos_alt_spoof,45604,0.0014411400770768523,0.0012627006508409977,-0.0839231014251709,-35.3632622,149.1652375,-0.006,-0.01,0.02,0.0,-9.942233737092465e-05,9.444988972973078e-05,0.0,1000,1000,1000,1000,12600,0,0.0024922159500420094,0.002703004749491811,0.0029201318975538015,10,{}
attack_corridor_base_16,1,pos_alt_spoof,45854,0.0013846403453499079,0.0012035705149173737,-0.08412586897611618,-35.3632622,149.1652375,-0.006,-0.01,0.02,0.0,-9.942232281900942e-05,9.444987517781556e-05,0.0,1000,1000,1000,1000,12600,0,0.0030863878782838583,0.0027566668577492237,0.002908692229539156,10,{}
attack_corridor_base_16,1,pos_alt_spoof,46104,0.0013428085949271917,0.001158235245384276,-0.08433030545711517,-35.3632622,149.1652375,-0.006,-0.01,0.01,0.0,-9.942230099113658e-05,9.444988245377317e-05,0.0,1000,1000,1000,1000,12600,0,0.002984887221828103,0.0028086963575333357,0.0028126961551606655,10,{}
attack_corridor_base_16,1,pos_alt_spoof,46354,0.0013024138752371073,0.0011126159224659204,-0.08450206369161606,-35.3632622,149.1652375,-0.006,-0.01,0.01,0.0,-9.942228643922135e-05,9.444988245377317e-05,0.0,1000,1000,1000,1000,12600,0,0.00257099443115294,0.002707461826503277,0.0028636532370001078,10,{}
attack_corridor_base_16,1,pos_alt_spoof,46604,0.0012766898144036531,0.0010916851460933685,-0.08466178178787231,-35.3632622,149.1652375,-0.006,-0.01,0.01,0.0,-9.942231554305181e-05,9.444991883356124e-05,0.0,1000,1000,1000,1000,12600,0,0.002620919141918421,0.002777625108137727,0.002617625752463937,10,{}
attack_corridor_base_16,1,pos_alt_spoof,46854,0.001230591326020658,0.001052033738233149,-0.08486263453960419,-35.3632622,149.1652375,-0.006,-0.01,0.01,0.0,-9.942226461134851e-05,9.444991155760363e-05,0.0,1000,1000,1000,1000,12600,0,0.002952817128971219,0.0026925774291157722,0.0024197085294872522,10,{}
attack_corridor_base_16,1,pos_alt_spoof,47104,0.0011975904926657677,0.001022713491693139,-0.08504047244787216,-35.3632621,149.1652375,-0.006,-0.01,0.01,0.0,-9.942224278347567e-05,9.444992610951886e-05,0.0,1000,1000,1000,1000,12600,0,0.0028693967033177614,0.0027131151873618364,0.002412908710539341,10,{}
attack_corridor_base_16,1,pos_alt_spoof,47354,0.0011719116009771824,0.001000384334474802,-0.08522963523864746,-35.3632621,149.1652375,-0.006,-0.01,0.01,0.0,-9.942221367964521e-05,9.44498970056884e-05,0.0,1000,1000,1000,1000,12600,0,0.00298507884144783,0.0028518245089799166,0.0027925963513553143,10,{}
attack_corridor_base_16,1,pos_alt_spoof,47604,0.0011588070774450898,0.000987262581475079,-0.08539555966854095,-35.3632621,149.1652375,-0.006,-0.01,0.01,0.0,-9.942217729985714e-05,9.444986062590033e-05,0.0,1000,1000,1000,1000,12600,0,0.0027651889249682426,0.00278066867031157,0.002833001781255007,10,{}
attack_corridor_base_16,1,pos_alt_spoof,47854,0.001132429693825543,0.0009647379629313946,-0.08558318018913269,-35.3632621,149.1652375,-0.006,-0.01,0.01,0.0,-9.942214819602668e-05,9.444982424611226e-05,0.0,1000,1000,1000,1000,12600,0,0.0028726437594741583,0.002711338922381401,0.0027382494881749153,10,{}
attack_corridor_base_16,1,pos_alt_spoof,48104,0.0011169440113008022,0.0009482037858106196,-0.08573798090219498,-35.3632621,149.1652375,-0.006,-0.01,0.01,0.0,-9.942211909219623e-05,9.444982424611226e-05,0.0,1000,1000,1000,1000,12600,0,0.0030948978383094072,0.0027696487959474325,0.002795629668980837,10,{}
attack_corridor_base_16,1,pos_alt_spoof,48354,0.0011058682575821877,0.0009368909522891045,-0.08592379093170166,-35.3632621,149.1652375,-0.006,-0.01,0.01,0.0,-9.9422104540281e-05,9.444980969419703e-05,0.0,1000,1000,1000,1000,12600,0,0.0026993537321686745,0.0029867307748645544,0.002863135654479265,10,{}
attack_corridor_base_16,1,pos_alt_spoof,48604,0.0010995513293892145,0.0009312676847912371,-0.08608142286539078,-35.3632621,149.1652375,-0.006,-0.01,0.01,0.0,-9.942207543645054e-05,9.444980969419703e-05,0.0,1000,1000,1000,1000,12600,0,0.002893059281632304,0.0027123545296490192,0.0029777023009955883,10,{}
attack_corridor_base_16,1,pos_alt_spoof,48854,0.0010902679059654474,0.0009226369438692927,-0.086240254342556,-35.3632621,149.1652375,-0.006,-0.01,0.01,0.0,-9.942206816049293e-05,9.444978786632419e-05,0.0,1000,1000,1000,1000,12600,0,0.0028329838532954454,0.0030252898577600718,0.0027380716055631638,10,{}
attack_corridor_base_16,1,pos_alt_spoof,49104,0.0010844389908015728,0.0009157435270026326,-0.08641047775745392,-35.3632621,149.1652375,-0.006,-0.01,0.01,0.0,-9.942201722878963e-05,9.444976603845134e-05,0.0,1000,1000,1000,1000,12600,0,0.0029291175305843353,0.003083036979660392,0.0026995802763849497,10,{}
attack_corridor_base_16,1,pos_alt_spoof,49354,0.0010827458463609219,0.0009113935520872474,-0.08656544238328934,-35.3632621,149.1652375,-0.006,-0.01,0.01,0.0,-9.942198812495917e-05,9.444975876249373e-05,0.0,1000,1000,1000,1000,12600,0,0.002702003810554743,0.002649150090292096,0.0028011698741465807,10,{}
attack_corridor_base_16,1,pos_alt_spoof,49604,0.001083318260498345,0.0009119200403802097,-0.08671832084655762,-35.3632621,149.1652375,-0.006,-0.01,0.01,0.0,-9.942197357304394e-05,9.444972238270566e-05,0.0,1000,1000,1000,1000,12600,0,0.002705017104744911,0.0028584597166627645,0.002694720169529319,10,{}
attack_corridor_base_16,1,pos_alt_spoof,49854,0.0010778730502352118,0.0009135783184319735,-0.08688031882047653,-35.3632621,149.1652375,-0.006,-0.01,0.01,0.0,-9.942198812495917e-05,9.444972238270566e-05,0.0,1000,1000,1000,1000,12600,0,0.0026668154168874025,0.002837886568158865,0.002634619129821658,10,{}
attack_corridor_base_16,1,pos_alt_spoof,50104,0.001077523222193122,0.0009146906668320298,-0.08703603595495224,-35.3632621,149.1652375,-0.006,-0.01,0.01,0.0,-9.942198812495917e-05,9.444970055483282e-05,0.0,1000,1000,1000,1000,12600,0,0.0028905768413096666,0.0027850077021867037,0.0027597155421972275,10,{}
attack_corridor_base_16,1,pos_alt_spoof,50354,0.001080995425581932,0.0009159547043964267,-0.08718706667423248,-35.3632621,149.1652375,-0.006,-0.01,0.01,0.0,-9.94219517451711e-05,9.444964962312952e-05,0.0,1000,1000,1000,1000,12600,0,0.0024053682573139668,0.002637889701873064,0.002970012603327632,10,{}
attack_corridor_base_16,1,pos_alt_spoof,50604,0.0010840295581147075,0.0009139911853708327,-0.08734746277332306,-35.3632621,149.1652375,-0.006,-0.01,0.01,0.0,-9.942197357304394e-05,9.444961324334145e-05,0.0,1000,1000,1000,1000,12600,0,0.0028041983023285866,0.002979018958285451,0.0027300340589135885,10,{}
attack_corridor_base_16,1,pos_alt_spoof,50854,0.0010853197891265154,0.0009125409997068346,-0.08749181777238846,-35.3632621,149.1652375,-0.006,-0.01,0.01,0.0,-9.94219517451711e-05,9.444958413951099e-05,0.0,1000,1000,1000,1000,12600,0,0.0027916368562728167,0.0030360035598278046,0.0029243880417197943,10,{}
attack_corridor_base_16,1,pos_alt_spoof,51104,0.001085422933101654,0.0009122409392148256,-0.08764086663722992,-35.3632621,149.1652375,-0.006,-0.01,0.01,0.0,-9.942192264134064e-05,9.444954775972292e-05,0.0,1000,1000,1000,1000,12600,0,0.0027790528256446123,0.002731712069362402,0.00267804809845984,10,{}
attack_corridor_base_16,1,pos_alt_spoof,51354,0.0010858133900910616,0.0009175768354907632,-0.08778438717126846,-35.3632621,149.1652375,-0.006,-0.01,0.01,0.0,-9.942189353751019e-05,9.444952593185008e-05,0.0,1000,1000,1000,1000,12600,0,0.0028894292190670967,0.002777308924123645,0.002556513762101531,10,{}
attack_corridor_base_16,1,pos_alt_spoof,51604,0.0010916340397670865,0.0009184255613945425,-0.08792717009782791,-35.3632621,149.1652375,-0.006,-0.01,0.01,0.0,-9.942188626155257e-05,9.444950410397723e-05,0.0,1000,1000,1000,1000,12600,0,0.002893341239541769,0.0029222385492175817,0.0029246697667986155,10,{}
attack_corridor_base_16,1,pos_alt_spoof,51854,0.0010946730617433786,0.0009140240726992488,-0.08806680142879486,-35.3632621,149.1652375,-0.006,-0.01,0.01,0.0,-9.942190808942541e-05,9.444951865589246e-05,0.0,1000,1000,1000,1000,12600,0,0.002978250617161393,0.002636110410094261,0.0029025685507804155,10,{}
attack_corridor_base_16,1,pos_alt_spoof,52104,0.001099464832805097,0.0009063141187652946,-0.08821365237236023,-35.3632621,149.1652375,-0.006,-0.01,0.01,0.0,-9.94219008134678e-05,9.4449489552062e-05,0.0,1000,1000,1000,1000,12600,0,0.002980356104671955,0.0025234532076865435,0.0028609002474695444,10,{}
attack_corridor_base_16,1,pos_alt_spoof,52354,0.0011040210956707597,0.0009052871610037982,-0.08834532648324966,-35.3632621,149.1652375,-0.006,-0.01,0.01,0.0,-9.942187898559496e-05,9.4449489552062e-05,0.0,1000,1000,1000,1000,12600,0,0.0027319409418851137,0.002879194915294647,0.0028401061426848173,10,{}
attack_corridor_base_16,1,pos_alt_spoof,52604,0.0011083127465099096,0.0009164477814920247,-0.08845674991607666,-35.3632621,149.1652375,-0.006,-0.01,0.01,0.0,-9.942186443367973e-05,9.444945317227393e-05,0.0,1000,1000,1000,1000,12600,0,0.003151178127154708,0.0027405773289501667,0.002797189634293318,10,{}
attack_corridor_base_16,1,pos_alt_spoof,52854,0.001110413228161633,0.0009184700320474803,-0.08859589695930481,-35.3632621,149.1652375,-0.006,-0.01,0.01,0.0,-9.942185715772212e-05,9.44494386203587e-05,0.0,1000,1000,1000,1000,12600,0,0.002894546603783965,0.003078615292906761,0.002956736832857132,10,{}
attack_corridor_base_16,1,pos_alt_spoof,53104,0.0011105206795036793,0.0009143298375420272,-0.08872396498918533,-35.3632621,149.1652375,-0.006,-0.01,0.01,0.0,-9.942186443367973e-05,9.44494386203587e-05,0.0,1000,1000,1000,1000,12600,0,0.00268617644906044,0.0027981665916740894,0.002734322566539049,10,{}
attack_corridor_base_16,1,pos_alt_spoof,53354,0.0011169607751071453,0.0009218837949447334,-0.08887330442667007,-35.3632621,149.1652375,-0.006,-0.01,0.01,0.0,-9.942185715772212e-05,9.444944589631632e-05,0.0,1000,1000,1000,1000,12600,0,0.0027527203783392906,0.002606996800750494,0.002653568284586072,10,{}
attack_corridor_base_16,1,pos_alt_spoof,53604,0.0011289530666545033,0.0009298947406932712,-0.08899985998868942,-35.3632621,149.1652375,-0.006,-0.01,0.01,0.0,-9.942184260580689e-05,9.444943134440109e-05,0.0,1000,1000,1000,1000,12600,0,0.0027636028826236725,0.003063402371481061,0.0027509357314556837,10,{}
attack_corridor_base_16,1,pos_alt_spoof,53854,0.0011316254967823625,0.0009272624738514423,-0.08913362771272659,-35.3632621,149.1652375,-0.006,-0.01,0.01,0.0,-9.942180622601882e-05,9.444941679248586e-05,0.0,1000,1000,1000,1000,12600,0,0.002527629490941763,0.002687640953809023,0.002939477562904358,10,{}
attack_corridor_base_16,1,pos_alt_spoof,54104,0.0011331761488690972,0.000935543270315975,-0.08926473557949066,-35.3632621,149.1652375,-0.006,-0.01,0.01,0.0,-9.942177712218836e-05,9.444940951652825e-05,0.0,1000,1000,1000,1000,12600,0,0.003024512203410268,0.0028088903054594994,0.00287444656714797,10,{}
attack_corridor_base_16,1,pos_alt_spoof,54354,0.0011349148117005825,0.000939006800763309,-0.08939656615257263,-35.3632621,149.1652375,-0.006,-0.01,0.01,0.0,-9.94217480183579e-05,9.444936586078256e-05,0.0,1000,1000,1000,1000,12600,0,0.0028915447182953358,0.00294332392513752,0.0030009583570063114,10,{}
attack_corridor_base_16,1,pos_alt_spoof,54604,0.0011451811296865344,0.0009487511706538498,-0.08951857686042786,-35.3632621,149.1652375,-0.006,-0.01,0.01,0.0,-9.942172619048506e-05,9.444937313674018e-05,0.0,1000,1000,1000,1000,12600,0,0.00264536845497787,0.0027557071298360825,0.002671495545655489,10,{}
attack_corridor_base_16,1,pos_alt_spoof,54854,0.0011447860160842538,0.0009474707767367363,-0.08964414894580841,-35.3632621,149.1652375,-0.006,-0.01,0.01,0.0,-9.942174074240029e-05,9.444933675695211e-05,0.0,1000,1000,1000,1000,12600,0,0.0031946594826877117,0.002871209755539894,0.002958940574899316,10,{}
attack_corridor_base_16,1,pos_alt_spoof,55104,0.0011465268908068538,0.0009494362166151404,-0.08976765722036362,-35.3632621,149.1652375,-0.006,-0.01,0.01,0.0,-9.942172619048506e-05,9.444929310120642e-05,0.0,1000,1000,1000,1000,12600,0,0.0027622513007372618,0.002842006739228964,0.0025625121779739857,10,{}
attack_corridor_base_16,1,pos_alt_spoof,55354,0.001145709422416985,0.0009513864060863853,-0.08989137411117554,-35.3632621,149.1652375,-0.006,-0.01,0.01,0.0,-9.942171891452745e-05,9.44492785492912e-05,0.0,1000,1000,1000,1000,12600,0,0.0025743211153894663,0.002526539610698819,0.002598595805466175,10,{}
attack_corridor_base_16,1,pos_alt_spoof,55604,0.0011502888519316912,0.000956373056396842,-0.09001854807138443,-35.3632621,149.1652375,-0.006,-0.01,0.01,0.0,-9.942168981069699e-05,9.444925672141835e-05,0.0,1000,1000,1000,1000,12600,0,0.0027310329023748636,0.0030370140448212624,0.002656299155205488,10,{}
attack_corridor_base_16,1,pos_alt_spoof,55854,0.0011466194409877062,0.0009505181224085391,-0.09014086425304413,-35.3632621,149.1652375,-0.006,-0.01,0.01,0.0,-9.942168253473938e-05,9.444926399737597e-05,0.0,1000,1000,1000,1000,12600,0,0.0026970626786351204,0.002862347289919853,0.0025826371274888515,10,{}
attack_corridor_base_16,1,pos_alt_spoof,56104,0.0011461584363132715,0.0009513688273727894,-0.0902649387717247,-35.3632621,149.1652375,-0.006,-0.01,0.01,0.0,-9.942168253473938e-05,9.444926399737597e-05,0.0,1000,1000,1000,1000,12600,0,0.002768162405118346,0.0028675596695393324,0.0030393858905881643,10,{}
attack_corridor_base_16,1,pos_alt_spoof,56354,0.0011502844281494617,0.0009554664720781147,-0.09038625657558441,-35.3632621,149.1652375,-0.006,-0.01,0.01,0.0,-9.942167525878176e-05,9.444924216950312e-05,0.0,1000,1000,1000,1000,12600,0,0.0027056431863456964,0.0029029136057943106,0.0030944880563765764,10,{}
attack_corridor_base_16,1,pos_alt_spoof,56604,0.0011520669795572758,0.0009616498136892915,-0.09050621092319489,-35.3632621,149.1652375,-0.006,-0.01,0.01,0.0,-9.94216970866546e-05,9.44492785492912e-05,0.0,1000,1000,1000,1000,12600,0,0.002758015412837267,0.002629471942782402,0.0027786518912762403,10,{}
attack_corridor_base_16,1,pos_alt_spoof,56854,0.0011378041235730052,0.0009589302353560925,-0.09059517085552216,-35.3632621,149.1652375,-0.006,-0.01,0.01,0.0,-9.94217480183579e-05,9.444930037716404e-05,0.0,1000,1000,1000,1000,12600,0,0.0028746500611305237,0.0027444204315543175,0.0027303637471050024,10,{}
attack_corridor_base_16,1,pos_alt_spoof,57104,0.0011330507695674896,0.0009548586676828563,-0.09070738404989243,-35.3632621,149.1652375,-0.006,-0.01,0.01,0.0,-9.942180622601882e-05,9.444932220503688e-05,0.0,1000,1000,1000,1000,12600,0,0.0027636894956231117,0.0029823353979736567,0.002821451285853982,10,{}
attack_corridor_base_16,1,pos_alt_spoof,57354,0.0011411132290959358,0.0009567404049448669,-0.09082932025194168,-35.3632621,149.1652375,-0.006,-0.01,0.01,0.0,-9.942182805389166e-05,9.444934403290972e-05,0.0,1000,1000,1000,1000,12600,0,0.0028101527132093906,0.00288074160926044,0.0027481201104819775,10,{}
attack_corridor_base_16,1,pos_alt_spoof,57604,0.0011460911482572556,0.0009644821984693408,-0.09094139188528061,-35.3632622,149.1652375,-0.006,-0.01,0.01,0.0,-9.942180622601882e-05,9.444935130886734e-05,0.0,1000,1000,1000,1000,12600,0,0.0026839966885745525,0.002638594014570117,0.0024834731593728065,10,{}
attack_corridor_base_16,1,pos_alt_spoof,57854,0.0011466119904071093,0.000962508434895426,-0.0910528376698494,-35.3632621,149.1652375,-0.006,-0.01,0.01,0.0,-9.942181350197643e-05,9.444936586078256e-05,0.0,1000,1000,1000,1000,12600,0,0.0026802695356309414,0.0025301838759332895,0.0026132501661777496,10,{}
attack_corridor_base_16,1,pos_alt_spoof,58104,0.0011502383276820183,0.0009602914215065539,-0.09115958958864212,-35.3632621,149.1652375,-0.006,-0.01,0.01,0.0,-9.942185715772212e-05,9.444939496461302e-05,0.0,1000,1000,1000,1000,12600,0,0.0026224867906421423,0.002778815571218729,0.002571041928604245,10,{}
attack_corridor_base_16,1,pos_alt_spoof,58354,0.0011542538413777947,0.0009660207433626056,-0.09127738326787949,-35.3632621,149.1652375,-0.006,-0.01,0.01,0.0,-9.942185715772212e-05,9.444938041269779e-05,0.0,1000,1000,1000,1000,12600,0,0.0030612251721322536,0.0027113177347928286,0.002757216105237603,10,{}
attack_corridor_base_16,1,pos_alt_spoof,58604,0.0011546610621735454,0.0009717983193695545,-0.09138084948062897,-35.3632622,149.1652375,-0.006,-0.01,0.01,0.0,-9.942191536538303e-05,9.444943134440109e-05,0.0,1000,1000,1000,1000,12600,0,0.003133420366793871,0.003081529401242733,0.0028623209800571203,10,{}
attack_corridor_base_16,1,pos_alt_spoof,58854,0.0011546151945367455,0.0009683403768576682,-0.09149707108736038,-35.3632621,149.1652375,-0.006,-0.01,0.01,0.0,-9.942192991729826e-05,9.44494386203587e-05,0.0,1000,1000,1000,1000,12600,0,0.0029170187190175056,0.0027995863929390907,0.002555648796260357,10,{}
attack_corridor_base_16,1,pos_alt_spoof,59104,0.0011554536176845431,0.0009693910251371562,-0.09160121530294418,-35.3632621,149.1652375,-0.006,-0.01,0.01,0.0,-9.942192264134064e-05,9.444939496461302e-05,0.0,1000,1000,1000,1000,12600,0,0.002669022884219885,0.0027965314220637083,0.00266708480194211,10,{}
attack_corridor_base_16,1,pos_alt_spoof,59354,0.0011581500293686986,0.0009752632468007505,-0.09170494228601456,-35.3632621,149.1652375,-0.006,-0.01,0.01,0.0,-9.942192991729826e-05,9.444938041269779e-05,0.0,1000,1000,1000,1000,12600,0,0.0029818303883075714,0.0025442561600357294,0.0026877284981310368,10,{}
attack_corridor_base_16,1,pos_alt_spoof,59604,0.0011625707847997546,0.000980509095825255,-0.09181113541126251,-35.3632622,149.1652375,-0.006,-0.01,0.01,0.0,-9.942192264134064e-05,9.444933675695211e-05,0.0,1000,1000,1000,1000,12600,0,0.0030010531190782785,0.002750415587797761,0.002713508438318968,10,{}
attack_corridor_base_16,1,pos_alt_spoof,59854,0.0011516455560922623,0.0009753592894412577,-0.09191368520259857,-35.3632621,149.1652375,-0.006,-0.01,0.01,0.0,-9.942198812495917e-05,9.444939496461302e-05,0.0,1000,1000,1000,1000,12600,0,0.0026662040036171675,0.002803605981171131,0.002736208261922002,10,{}
attack_corridor_base_16,1,pos_alt_spoof,60104,0.0011504569556564093,0.0009703016839921474,-0.09201113879680634,-35.3632621,149.1652375,-0.006,-0.01,0.01,0.0,-9.942199540091679e-05,9.444936586078256e-05,0.0,1000,1000,1000,1000,12600,0,0.0030158718582242727,0.0027474574744701385,0.002700456418097019,10,{}
attack_corridor_base_16,1,pos_alt_spoof,60354,0.0011522154090926051,0.0009683694806881249,-0.09211692214012146,-35.3632622,149.1652375,-0.006,-0.01,0.01,0.0,-9.942202450474724e-05,9.444936586078256e-05,0.0,1000,1000,1000,1000,12600,0,0.0026820385828614235,0.002776504959911108,0.0027320347726345062,10,{}
attack_corridor_base_16,1,pos_alt_spoof,60604,0.0011581178987398744,0.0009714451734907925,-0.0922129899263382,-35.3632622,149.1652375,-0.006,-0.01,0.01,0.0,-9.942203905666247e-05,9.444936586078256e-05,0.0,1000,1000,1000,1000,12600,0,0.002713428344577551,0.0028823455795645714,0.002858642488718033,10,{}
attack_corridor_base_16,1,pos_alt_spoof,60854,0.001150410738773644,0.0009578220779076219,-0.09232048690319061,-35.3632621,149.1652375,-0.006,-0.01,0.01,0.0,-9.942202450474724e-05,9.444935858482495e-05,0.0,1000,1000,1000,1000,12600,0,0.0028073571156710386,0.0027939474675804377,0.0025490240659564734,10,{}
attack_corridor_base_16,1,pos_alt_spoof,61104,0.0011544468579813838,0.0009534537675790489,-0.09241681545972824,-35.3632621,149.1652375,-0.006,-0.01,0.01,0.0,-9.94220536085777e-05,9.444938041269779e-05,0.0,1000,1000,1000,1000,12600,0,0.0024771462194621563,0.002921856939792633,0.002871362492442131,10,{}
attack_corridor_base_16,1,pos_alt_spoof,61354,0.0011568383779376745,0.0009573406423442066,-0.09250973165035248,-35.3632622,149.1652375,-0.006,-0.01,0.01,0.0,-9.942203905666247e-05,9.444936586078256e-05,0.0,1000,1000,1000,1000,12600,0,0.0030547152273356915,0.003092537634074688,0.0030781265813857317,10,{}
attack_corridor_base_16,1,pos_alt_spoof,61604,0.0011642789468169212,0.0009606921812519431,-0.09260385483503342,-35.3632622,149.1652375,-0.006,-0.01,0.01,0.0,-9.942208998836577e-05,9.444937313674018e-05,0.0,1000,1000,1000,1000,12600,0,0.002779454691335559,0.002832135884091258,0.002989922184497118,10,{}
attack_corridor_base_16,1,pos_alt_spoof,61854,0.0011553490767255425,0.0009530881070531905,-0.09267980605363846,-35.3632622,149.1652375,-0.006,-0.01,0.01,0.0,-9.942208998836577e-05,9.444940951652825e-05,0.0,1000,1000,1000,1000,12600,0,0.002935419324785471,0.0027865516021847725,0.0030348747968673706,10,{}
attack_corridor_base_16,1,pos_alt_spoof,62104,0.001157258404418826,0.0009556295699439943,-0.09276822954416275,-35.3632621,149.1652375,-0.006,-0.01,0.01,0.0,-9.942209726432338e-05,9.444942406844348e-05,0.0,1000,1000,1000,1000,12600,0,0.002529751742258668,0.0028320522978901863,0.002814509440213442,10,{}
attack_corridor_base_16,1,pos_alt_spoof,62354,0.0011614286340773106,0.0009541811887174845,-0.09286416321992874,-35.3632622,149.1652375,-0.006,-0.01,0.01,0.0,-9.942213364411145e-05,9.444946044823155e-05,0.0,1000,1000,1000,1000,12600,0,0.002675029681995511,0.002683610888198018,0.002634878735989332,10,{}
attack_corridor_base_16,1,pos_alt_spoof,62604,0.001163510256446898,0.0009637571638450027,-0.09294836223125458,-35.3632622,149.1652375,-0.006,-0.01,0.01,0.0,-9.942212636815384e-05,9.444947500014678e-05,0.0,1000,1000,1000,1000,12600,0,0.0026495237834751606,0.0029550199396908283,0.0028511269483715296,10,{}
attack_corridor_base_16,1,pos_alt_spoof,62854,0.0011605904437601566,0.0009622889338061213,-0.09304437786340714,-35.3632621,149.1652375,-0.006,-0.01,0.01,0.0,-9.942213364411145e-05,9.4449489552062e-05,0.0,1000,1000,1000,1000,12600,0,0.0026120177935808897,0.0031740327831357718,0.0026498541701585054,10,{}
attack_corridor_base_16,1,pos_alt_spoof,63104,0.0011594954412430525,0.0009676155168563128,-0.09313931316137314,-35.3632621,149.1652375,-0.006,-0.01,0.01,0.0,-9.942211181623861e-05,9.44494386203587e-05,0.0,1000,1000,1000,1000,12600,0,0.0029464049730449915,0.002858156571164727,0.002694616559892893,10,{}
attack_corridor_base_16,1,pos_alt_spoof,63354,0.0011588280322030187,0.0009658740018494427,-0.09323497116565704,-35.3632622,149.1652375,-0.006,-0.01,0.01,0.0,-9.942212636815384e-05,9.444942406844348e-05,0.0,1000,1000,1000,1000,12600,0,0.0027962704189121723,0.002633239608258009,0.002851770492270589,10,{}
attack_corridor_base_16,1,pos_alt_spoof,63604,0.001162234926596284,0.0009747346048243344,-0.09331740438938141,-35.3632622,149.1652375,-0.006,-0.01,0.01,0.0,-9.942211181623861e-05,9.44493876886554e-05,0.0,1000,1000,1000,1000,12600,0,0.0028849670197814703,0.002517062472179532,0.002650013891980052,10,{}
attack_corridor_base_16,1,pos_alt_spoof,63854,0.0011584690073505044,0.0009707882418297231,-0.09340238571166992,-35.3632622,149.1652375,-0.006,-0.01,0.01,0.0,-9.942208998836577e-05,9.444940951652825e-05,0.0,1000,1000,1000,1000,12600,0,0.002952449256554246,0.0029838234186172485,0.002890804084017873,10,{}
attack_corridor_base_16,1,pos_alt_spoof,64104,0.0011628748616203666,0.0009624826489016414,-0.09348593652248383,-35.3632622,149.1652375,-0.006,-0.01,0.01,0.0,-9.942211909219623e-05,9.444942406844348e-05,0.0,1000,1000,1000,1000,12600,0,0.0027495338581502438,0.0030118876602500677,0.0031028869561851025,10,{}
attack_corridor_base_16,1,pos_alt_spoof,64354,0.0011642989702522755,0.0009641905198805034,-0.09357450902462006,-35.3632622,149.1652375,-0.006,-0.01,0.01,0.0,-9.94221554719843e-05,9.44494386203587e-05,0.0,1000,1000,1000,1000,12600,0,0.0029476762283593416,0.0028871356043964624,0.002852474106475711,10,{}
attack_corridor_base_16,1,pos_alt_spoof,64604,0.0011741885682567954,0.0009669042192399502,-0.09365779906511307,-35.3632622,149.1652375,-0.006,-0.01,0.01,0.0,-9.942217002389953e-05,9.444946044823155e-05,0.0,1000,1000,1000,1000,12600,0,0.002898129168897867,0.0029549153987318277,0.002889412920922041,10,{}
attack_corridor_base_16,1,pos_alt_spoof,64854,0.001171768642961979,0.0009591298294253647,-0.09374520927667618,-35.3632622,149.1652375,-0.006,-0.01,0.01,0.0,-9.94222064036876e-05,9.444946044823155e-05,0.0,1000,1000,1000,1000,12600,0,0.0028465164359658957,0.00294336024671793,0.002842680085450411,10,{}
attack_corridor_base_16,1,pos_alt_spoof,65104,0.0011643279576674104,0.0009521925821900368,-0.09382952749729156,-35.3632622,149.1652375,-0.006,-0.01,0.01,0.0,-9.942217729985714e-05,9.444944589631632e-05,0.0,1000,1000,1000,1000,12600,0,0.002917112782597542,0.0030844872817397118,0.002727409591898322,10,{}
attack_corridor_base_16,1,pos_alt_spoof,65354,0.0011631908128038049,0.0009588183602318168,-0.09391146153211594,-35.3632622,149.1652375,-0.006,-0.01,0.01,0.0,-9.942219185177237e-05,9.444948227610439e-05,0.0,1000,1000,1000,1000,12600,0,0.0027859716210514307,0.0027978583239018917,0.0029240730218589306,10,{}
attack_corridor_base_16,1,pos_alt_spoof,65604,0.0011660548625513911,0.0009660825016908348,-0.09399561583995819,-35.3632622,149.1652375,-0.006,-0.01,0.01,0.0,-9.942219185177237e-05,9.4449489552062e-05,0.0,1000,1000,1000,1000,12600,0,0.0027187808882445097,0.0025703967548906803,0.0027245362289249897,10,{}
attack_corridor_base_16,1,pos_alt_spoof,65854,0.0011631697416305542,0.0009609948610886931,-0.09408164024353027,-35.3632621,149.1652375,-0.006,-0.01,0.01,0.0,-9.942218457581475e-05,9.4449489552062e-05,0.0,1000,1000,1000,1000,12600,0,0.0027193487621843815,0.003015837399289012,0.00267512584105134,10,{}
attack_corridor_base_16,1,pos_alt_spoof,66104,0.0011659893207252026,0.0009625441743992269,-0.09415919333696365,-35.3632621,149.1652375,-0.006,-0.01,0.01,0.0,-9.942219912772998e-05,9.4449489552062e-05,0.0,1000,1000,1000,1000,12600,0,0.0026407046243548393,0.0029035003390163183,0.0028565218672156334,10,{}
attack_corridor_base_16,1,pos_alt_spoof,66354,0.0011718731839209795,0.0009609108092263341,-0.0942363440990448,-35.3632621,149.1652375,-0.006,-0.01,0.01,0.0,-9.942219912772998e-05,9.444950410397723e-05,0.0,1000,1000,1000,1000,12600,0,0.0027958459686487913,0.00286304485052824,0.0027418937534093857,10,{}
attack_corridor_base_16,1,pos_alt_spoof,66604,0.0011726110242307186,0.0009753918275237083,-0.09431953728199005,-35.3632621,149.1652375,-0.006,-0.01,0.01,0.0,-9.942219912772998e-05,9.444949682801962e-05,0.0,1000,1000,1000,1000,12600,0,0.0029651187360286713,0.0026440012734383345,0.002666248008608818,10,{}
attack_corridor_base_16,1,pos_alt_spoof,66854,0.0011725417571142316,0.0009709883597679436,-0.09439033269882202,-35.3632621,149.1652375,-0.006,-0.01,0.01,0.0,-9.94221554719843e-05,9.444948227610439e-05,0.0,1000,1000,1000,1000,12600,0,0.0024607828818261623,0.0028213772457093,0.0029791288543492556,10,{}
attack_corridor_base_16,1,pos_alt_spoof,67104,0.0011720649199560285,0.000970599998254329,-0.09445139020681381,-35.3632621,149.1652375,-0.006,-0.01,0.01,0.0,-9.942216274794191e-05,9.444951137993485e-05,0.0,1000,1000,1000,1000,12600,0,0.002986763371154666,0.0026000149082392454,0.0031203904654830694,10,{}
attack_corridor_base_16,1,pos_alt_spoof,67354,0.0011736855376511812,0.0009737202199175954,-0.0945129543542862,-35.3632621,149.1652375,-0.006,-0.01,0.01,0.0,-9.94221554719843e-05,9.4449489552062e-05,0.0,1000,1000,1000,1000,12600,0,0.0029520175885409117,0.0028427555225789547,0.0029353294521570206,10,{}
attack_corridor_base_16,1,pos_alt_spoof,67604,0.0011774547165259719,0.0009826241293922067,-0.09458655118942261,-35.3632622,149.1652375,-0.006,-0.01,0.01,0.0,-9.942219185177237e-05,9.444947500014678e-05,0.0,1000,1000,1000,1000,12600,0,0.002626737579703331,0.0030123775359243155,0.0027331847231835127,10,{}
