flight_id,label,attack_type,timestamp,att_roll,att_pitch,att_yaw,pos_lat,pos_lon,pos_alt_rel,pos_vx,pos_vy,pos_vz,nav_roll,nav_pitch,nav_alt_error,servo1_raw,servo2_raw,servo3_raw,servo4_raw,sys_voltage_battery,sys_load,vib_x,vib_y,vib_z,gps_sats_visible,attack_params_json
attack_corridor_base_15,1,alt_yawl_spoof,10074,0.00019025789515580982,-4.1970808524638414e-05,-0.345608651638031,-35.3632621,149.1652374,0.0,0.0,0.0,-0.03,-9.942174074240029e-05,9.444947500014678e-05,0.0,1000,1000,1000,1000,12600,0,0.002933101961389184,0.0028486980590969324,0.0028938015457242727,3,{}
attack_corridor_base_15,1,alt_yawl_spoof,10406,0.00019763896125368774,-3.2977019145619124e-05,-0.3232947885990143,-35.3632621,149.1652374,0.0,0.0,0.0,-0.03,-9.94216970866546e-05,9.444939496461302e-05,0.0,1000,1000,1000,1000,12600,0,0.0029641620349138975,0.0031396918930113316,0.0026267836801707745,10,{}
attack_corridor_base_15,1,alt_yawl_spoof,10739,0.00019945771782658994,-2.1697434931411408e-05,-0.2924366891384125,-35.3632621,149.1652374,0.0,0.0,0.0,-0.03,-9.94216970866546e-05,9.444939496461302e-05,0.0,1000,1000,1000,1000,12600,0,0.0027710748836398125,0.0027840216644108295,0.002762919059023261,10,{}
attack_corridor_base_15,1,alt_yawl_spoof,11072,0.00020408781711012125,-1.4224015103536658e-05,-0.2571628987789154,-35.3632621,149.1652374,0.0,0.0,0.0,-0.03,-9.942166798282415e-05,9.444939496461302e-05,0.0,1000,1000,1000,1000,12600,0,0.0027732800226658583,0.0026815817691385746,0.002675197320058942,10,{}
attack_corridor_base_15,1,alt_yawl_spoof,11407,0.00020871605374850333,-6.933332770131528e-06,-0.23295390605926514,-35.3632621,149.1652374,0.0,0.0,0.0,-0.03,-9.942155884345993e-05,9.444935130886734e-05,0.0,1000,1000,1000,1000,12600,0,0.002766752615571022,0.0026691413950175047,0.0027894568629562855,10,{}
attack_corridor_base_15,1,alt_yawl_spoof,11739,0.00021267551346682012,-1.7906097582454095e-06,-0.2109399139881134,-35.3632621,149.1652374,0.0,0.0,0.0,-0.03,-9.942155884345993e-05,9.444935130886734e-05,0.0,1000,1000,1000,1000,12600,0,0.003234930569306016,0.002639553975313902,0.0024952476378530264,10,{}
attack_corridor_base_15,1,alt_yawl_spoof,12071,0.00021988713706377894,1.538804644951597e-05,-0.1851813793182373,-35.3632621,149.1652374,0.0,0.0,0.0,-0.02,-9.942158794729039e-05,9.444940951652825e-05,0.0,1000,1000,1000,1000,12600,0,0.0028883563354611397,0.0028719324618577957,0.0028768808115273714,10,{}
attack_corridor_base_15,1,alt_yawl_spoof,12404,0.00022612149768974632,2.135330760211218e-05,-0.1682794690132141,-35.3632621,149.1652374,0.0,0.0,0.0,-0.02,-9.942168253473938e-05,9.444942406844348e-05,0.0,1000,1000,1000,1000,12600,0,0.0027736565098166466,0.002925793407484889,0.002949276939034462,10,{}
attack_corridor_base_15,1,alt_yawl_spoof,12739,0.00023506437719333917,3.1381983717437834e-05,-0.15321826934814453,-35.3632621,149.1652374,0.0,0.0,0.0,-0.02,-9.942168253473938e-05,9.444942406844348e-05,0.0,1000,1000,1000,1000,12600,0,0.003025142941623926,0.002818075707182288,0.003064077580347657,10,{}
attack_corridor_base_15,1,alt_yawl_spoof,13072,0.00024683913215994835,3.626735633588396e-05,-0.13569912314414978,-35.3632621,149.1652374,0.0,0.0,0.0,-0.02,-9.942163160303608e-05,9.444935858482495e-05,0.0,1000,1000,1000,1000,12600,0,0.0027941453736275434,0.002590806921944022,0.002900530118495226,10,{}
attack_corridor_base_15,1,alt_yawl_spoof,13404,0.00025587197160348296,4.3985517550027e-05,-0.1243988648056984,-35.3632621,149.1652374,0.0,0.0,0.0,-0.01,-9.942163160303608e-05,9.44493876886554e-05,0.0,1000,1000,1000,1000,12600,0,0.0027077922131866217,0.002540060319006443,0.0030356089118868113,10,{}
attack_corridor_base_15,1,alt_yawl_spoof,13737,0.00026228019851259887,5.491097181220539e-05,-0.11446615308523178,-35.3632621,149.1652374,0.0,0.0,0.0,-0.01,-9.942163160303608e-05,9.44493876886554e-05,0.0,1000,1000,1000,1000,12600,0,0.002814894076436758,0.002685277257114649,0.002666615415364504,10,{}
attack_corridor_base_15,1,alt_yawl_spoof,14069,0.0002766734978649765,6.372847565216944e-05,-0.10309643298387527,-35.3632621,149.1652374,0.0,0.0,0.0,-0.01,-9.942155156750232e-05,9.444936586078256e-05,0.0,1000,1000,1000,1000,12600,0,0.0027596361469477415,0.002593832090497017,0.0028938583564013243,10,{}
attack_corridor_base_15,1,alt_yawl_spoof,14404,0.0002822593960445374,7.292681402759627e-05,-0.09579096734523773,-35.3632621,149.1652374,0.0,0.0,0.0,-0.01,-9.942151518771425e-05,9.444934403290972e-05,0.0,1000,1000,1000,1000,12600,0,0.0028747881297022104,0.0028286450542509556,0.0026596589013934135,10,{}
attack_corridor_base_15,1,alt_yawl_spoof,14736,0.0002973198425024748,8.317918400280178e-05,-0.08943267911672592,-35.3632621,149.1652374,0.0,0.0,0.0,-0.01,-9.942151518771425e-05,9.444934403290972e-05,0.0,1000,1000,1000,1000,12600,0,0.002868233947083354,0.0027306885458528996,0.0027349921874701977,10,{}
attack_corridor_base_15,1,alt_yawl_spoof,15069,0.00030949903884902596,9.605081140762195e-05,-0.08207830786705017,-35.3632621,149.1652374,0.0,0.0,0.0,-0.01,-9.942146425601095e-05,9.444929310120642e-05,0.0,1000,1000,1000,1000,12600,0,0.002944807754829526,0.0026085807476192713,0.0027954259421676397,10,{}
attack_corridor_base_15,1,alt_yawl_spoof,15354,0.00032044018735177815,0.00010651403135852888,-0.07721276581287384,-35.3632621,149.1652374,0.0,0.0,0.0,-0.01,-9.942146425601095e-05,9.444929310120642e-05,0.0,1000,1000,1000,1000,12600,0,0.002714277245104313,0.0027900810819119215,0.0028912979178130627,10,{}
attack_corridor_base_15,1,alt_yawl_spoof,15604,0.0003307894803583622,0.00011132283543702215,-0.0738353282213211,-35.3632621,149.1652374,0.0,0.0,0.0,-0.01,-9.942150063579902e-05,9.444934403290972e-05,0.0,1000,1000,1000,1000,12600,0,0.002714277245104313,0.0027900810819119215,0.0028912979178130627,10,{}
attack_corridor_base_15,1,alt_yawl_spoof,16094,0.0003366611781530082,0.00012025694741168991,-0.07094002515077591,-35.3632621,149.1652374,0.0,0.0,0.0,0.0,-9.94214933598414e-05,9.444938041269779e-05,0.0,1000,1000,1000,1000,12600,0,0.0026779365725815296,0.002950527472421527,0.002540488727390766,10,{}
attack_corridor_base_15,1,alt_yawl_spoof,16426,0.0003532669215928763,0.00013789819786325097,-0.06596497446298599,-35.3632621,149.1652374,0.0,0.0,0.0,0.0,-9.942150791175663e-05,9.444938041269779e-05,0.0,1000,1000,1000,1000,12600,0,0.0031085845548659563,0.002815792104229331,0.0027286061085760593,10,{}
attack_corridor_base_15,1,alt_yawl_spoof,16759,0.0003721968678291887,0.00015060976147651672,-0.06299084424972534,-35.3632621,149.1652374,0.0,0.0,0.0,0.0,-9.942150063579902e-05,9.444938041269779e-05,0.0,1000,1000,1000,1000,12600,0,0.003117138985544443,0.0025906378868967295,0.002622335683554411,10,{}
attack_corridor_base_15,1,alt_yawl_spoof,17092,0.00038526669959537685,0.00015697961498517543,-0.06098030507564545,-35.3632621,149.1652374,0.0,0.0,0.0,0.0,-9.942147880792618e-05,9.444940224057063e-05,0.0,1000,1000,1000,1000,12600,0,0.002865777350962162,0.0028376190457493067,0.002775738248601556,10,{}
attack_corridor_base_15,1,alt_yawl_spoof,17424,0.00039490193012170494,0.00016651328769512475,-0.05935939401388168,-35.3632621,149.1652374,0.0,0.0,0.0,0.0,-9.942156611941755e-05,9.444936586078256e-05,0.0,1000,1000,1000,1000,12600,0,0.0028861563187092543,0.0029514983762055635,0.002837456064298749,10,{}
attack_corridor_base_15,1,alt_yawl_spoof,17757,0.00041079375660046935,0.00018252247537020594,-0.057508520781993866,-35.3632621,149.1652374,0.0,0.0,0.0,0.0,-9.942162432707846e-05,9.444939496461302e-05,0.0,1000,1000,1000,1000,12600,0,0.002760417992249131,0.0028572953306138515,0.0029158282559365034,10,{}
attack_corridor_base_15,1,alt_yawl_spoof,18091,0.00042261232738383114,0.00019552736193872988,-0.05637618899345398,-35.3632621,149.1652374,0.0,0.0,0.0,0.0,-9.94216461549513e-05,9.444936586078256e-05,0.0,1000,1000,1000,1000,12600,0,0.0030650743283331394,0.0027302175294607878,0.002772230887785554,10,{}
attack_corridor_base_15,1,alt_yawl_spoof,18424,0.0004332195676397532,0.0002087597531499341,-0.05544259771704674,-35.3632621,149.1652374,0.0,0.0,0.0,0.0,-9.942168253473938e-05,9.444936586078256e-05,0.0,1000,1000,1000,1000,12600,0,0.0025096831377595663,0.002668611006811261,0.0027814670465886593,10,{}
attack_corridor_base_15,1,alt_yawl_spoof,18756,0.0004492045263759792,0.00023063422122504562,-0.054477326571941376,-35.3632621,149.1652374,0.0,0.0,0.0,0.0,-9.942162432707846e-05,9.444930037716404e-05,0.0,1000,1000,1000,1000,12600,0,0.0024818929377943277,0.003004813101142645,0.002916062017902732,10,{}
attack_corridor_base_15,1,alt_yawl_spoof,19089,0.00047058225027285516,0.0002417715877527371,-0.05392860621213913,-35.3632621,149.1652374,0.0,0.0,0.0,0.0,-9.942162432707846e-05,9.444930037716404e-05,0.0,1000,1000,1000,1000,12600,0,0.00302130077034235,0.003415128216147423,0.0026605951134115458,10,{}
attack_corridor_base_15,1,alt_yawl_spoof,19422,0.0004823720664717257,0.0002533781807869673,-0.05355066806077957,-35.3632621,149.1652374,0.0,0.0,0.0,0.0,-9.9421595223248e-05,9.444932948099449e-05,0.0,1000,1000,1000,1000,12600,0,0.0030570949893444777,0.0028042010962963104,0.0028322830330580473,10,{}
attack_corridor_base_15,1,alt_yawl_spoof,19757,0.0005028818268328905,0.00027229954139329493,-0.05313736945390701,-35.3632621,149.1652374,0.0,0.0,0.0,0.0,-9.942167525878176e-05,9.444936586078256e-05,0.0,1000,1000,1000,1000,12600,0,0.0028753539081662893,0.002759744878858328,0.002538501052185893,10,{}
attack_corridor_base_15,1,alt_yawl_spoof,20089,0.0005262058111838996,0.00028592348098754883,-0.052778370678424835,-35.3632621,149.1652374,0.006,0.0,0.0,0.0,-9.942167525878176e-05,9.444936586078256e-05,0.0,1000,1000,1000,1000,12600,0,0.002665893640369177,0.002784485463052988,0.0029130098409950733,10,{}
attack_corridor_base_15,1,alt_yawl_spoof,20421,0.000536740873940289,0.0003030586813110858,-0.05265147611498833,-35.3632621,149.1652374,-0.008,0.0,0.0,0.0,-9.942176984623075e-05,9.44493876886554e-05,0.0,1000,1000,1000,1000,12600,0,0.0030242041684687138,0.0028695606160908937,0.0028634704649448395,10,{}
attack_corridor_base_15,1,alt_yawl_spoof,20754,0.000557310355361551,0.000323496205965057,-0.05268869176506996,-35.3632621,149.1652374,-0.008,0.0,0.0,0.0,-9.942175529431552e-05,9.444941679248586e-05,0.0,1000,1000,1000,1000,12600,0,0.0028514459263533354,0.0028200363740324974,0.0027493007946759462,10,{}
attack_corridor_base_15,1,alt_yawl_spoof,21089,0.0005696727312169969,0.00034136910107918084,-0.05278383195400238,-35.3632621,149.1652374,-0.006,0.0,0.0,0.0,-9.942175529431552e-05,9.444941679248586e-05,0.0,1000,1000,1000,1000,12600,0,0.002772218082100153,0.0028086344245821238,0.0029937385115772486,10,{}
attack_corridor_base_15,1,alt_yawl_spoof,21422,0.0005893618799746037,0.0003543257771525532,-0.052968401461839676,-35.3632621,149.1652374,-0.004,0.0,0.0,0.0,-9.942177712218836e-05,9.444936586078256e-05,0.0,1000,1000,1000,1000,12600,0,0.0026029166765511036,0.002870424184948206,0.002930724760517478,10,{}
attack_corridor_base_15,1,alt_yawl_spoof,21754,0.0006122575141489506,0.00037639078800566494,-0.05323071777820587,-35.3632621,149.1652374,-0.003,0.0,0.0,0.0,-9.942179167410359e-05,9.444933675695211e-05,0.0,1000,1000,1000,1000,12600,0,0.002820315770804882,0.002878157887607813,0.00276721129193902,10,{}
attack_corridor_base_15,1,alt_yawl_spoof,22086,0.0006321922410279512,0.0003925114287994802,-0.05347416549921036,-35.3632621,149.1652374,-0.001,0.0,0.01,0.0,-9.942179167410359e-05,9.444933675695211e-05,0.0,1000,1000,1000,1000,12600,0,0.0029058922082185745,0.002814509905874729,0.002722518052905798,10,{}
attack_corridor_base_15,1,alt_yawl_spoof,22419,0.0006500609451904893,0.00041002302896231413,-0.05376863479614258,-35.3632621,149.1652374,0.0,0.0,0.01,0.0,-9.942183532984927e-05,9.444944589631632e-05,0.0,1000,1000,1000,1000,12600,0,0.0027373959310352802,0.003017647424712777,0.0028057293966412544,10,{}
attack_corridor_base_15,1,alt_yawl_spoof,22754,0.0006730162422172725,0.00043760452535934746,-0.05420031026005745,-35.3632621,149.1652374,0.0,0.0,0.01,0.0,-9.942196629708633e-05,9.444948227610439e-05,0.0,1000,1000,1000,1000,12600,0,0.00249166926369071,0.0028836235869675875,0.0027359011583030224,10,{}
attack_corridor_base_15,1,alt_yawl_spoof,23086,0.0006929217488504946,0.00045630300883203745,-0.054556649178266525,-35.3632621,149.1652374,0.0,0.0,0.01,0.0,-9.942196629708633e-05,9.444948227610439e-05,0.0,1000,1000,1000,1000,12600,0,0.0027116702403873205,0.0025451520923525095,0.0028894906863570213,10,{}
attack_corridor_base_15,1,alt_yawl_spoof,23419,0.0007066114339977503,0.00047366315266117454,-0.05498913303017616,-35.3632621,149.1652374,0.001,-0.01,0.01,0.0,-9.942190808942541e-05,9.444944589631632e-05,0.0,1000,1000,1000,1000,12600,0,0.0027347218710929155,0.002775027882307768,0.0030057262629270554,10,{}
attack_corridor_base_15,1,alt_yawl_spoof,23752,0.0007245828746818006,0.0004939910722896457,-0.05550949275493622,-35.3632621,149.1652374,0.002,-0.01,0.01,0.0,-9.942183532984927e-05,9.444940224057063e-05,0.0,1000,1000,1000,1000,12600,0,0.002856005448848009,0.0029283647891134024,0.0027600638568401337,10,{}
attack_corridor_base_15,1,alt_yawl_spoof,24084,0.000741251336876303,0.0005143709713593125,-0.0559111125767231,-35.3632621,149.1652374,0.002,-0.01,0.01,0.0,-9.942183532984927e-05,9.444940224057063e-05,0.0,1000,1000,1000,1000,12600,0,0.0030435353983193636,0.0026183193549513817,0.0028212349861860275,10,{}
attack_corridor_base_15,1,alt_yawl_spoof,24419,0.0007537471246905625,0.0005267334054224193,-0.05636725202202797,-35.3632621,149.1652374,0.002,-0.01,0.01,0.0,-9.942186443367973e-05,9.444942406844348e-05,0.0,1000,1000,1000,1000,12600,0,0.0028726663440465927,0.002571320394054055,0.0026577222160995007,10,{}
attack_corridor_base_15,1,alt_yawl_spoof,24751,0.0007731604273431003,0.0005488937604241073,-0.056937042623758316,-35.3632621,149.1652374,0.002,-0.01,0.01,0.0,-9.94219008134678e-05,9.444946044823155e-05,0.0,1000,1000,1000,1000,12600,0,0.003130122320726514,0.0028279293328523636,0.002810775302350521,10,{}
attack_corridor_base_15,1,alt_yawl_spoof,25084,0.0007904016529209912,0.0005654909764416516,-0.057385485619306564,-35.3632621,149.1652374,0.003,-0.01,0.01,0.0,-9.94219008134678e-05,9.444946044823155e-05,0.0,1000,1000,1000,1000,12600,0,0.002692681970074773,0.002777310786768794,0.002654086332768202,10,{}
attack_corridor_base_15,1,alt_yawl_spoof,25417,0.0008005096460692585,0.0005775127210654318,-0.0578482411801815,-35.3632621,149.1652374,0.003,-0.01,0.01,0.0,-9.942191536538303e-05,9.444951137993485e-05,0.0,1000,1000,1000,1000,12600,0,0.0028089003171771765,0.0030834395438432693,0.0029410086572170258,10,{}
attack_corridor_base_15,1,alt_yawl_spoof,25749,0.0008210113155655563,0.000600751955062151,-0.05834057182073593,-35.3632621,149.1652374,0.003,-0.01,0.01,0.0,-9.942192264134064e-05,9.444953320780769e-05,0.0,1000,1000,1000,1000,12600,0,0.002661801176145673,0.0027741137892007828,0.0028953610453754663,10,{}
attack_corridor_base_15,1,alt_yawl_spoof,26082,0.0008355202153325081,0.0006176994065754116,-0.05882620811462402,-35.3632621,149.1652374,0.002,-0.01,0.01,0.0,-9.942192264134064e-05,9.444953320780769e-05,0.0,1000,1000,1000,1000,12600,0,0.0026878195349127054,0.0027054287493228912,0.003033494809642434,10,{}
attack_corridor_base_15,1,alt_yawl_spoof,26416,0.0008510606712661684,0.0006207182304933667,-0.059311386197805405,-35.3632621,149.1652374,0.002,-0.01,0.01,0.0,-9.942190808942541e-05,9.444946772418916e-05,0.0,1000,1000,1000,1000,12600,0,0.0025552441366016865,0.002835247665643692,0.0028052490670233965,10,{}
attack_corridor_base_15,1,alt_yawl_spoof,26749,0.0008696421864442527,0.0006326339789666235,-0.059965282678604126,-35.3632621,149.1652374,0.002,-0.01,0.01,0.0,-9.942192264134064e-05,9.444946044823155e-05,0.0,1000,1000,1000,1000,12600,0,0.0025150731671601534,0.00293904566206038,0.0025248611345887184,10,{}
attack_corridor_base_15,1,alt_yawl_spoof,27081,0.0008783512166701257,0.0006445919279940426,-0.06045928969979286,-35.3632621,149.1652374,0.002,-0.01,0.01,0.0,-9.942192264134064e-05,9.444946044823155e-05,0.0,1000,1000,1000,1000,12600,0,0.002832207828760147,0.0029582472052425146,0.002935709897428751,10,{}
attack_corridor_base_15,1,alt_yawl_spoof,27414,0.0008935359655879438,0.0006563141942024231,-0.06095348298549652,-35.3632621,149.1652374,0.002,-0.01,0.01,0.0,-9.942198084900156e-05,9.444952593185008e-05,0.0,1000,1000,1000,1000,12600,0,0.002646657172590494,0.0027617248706519604,0.002844294300302863,10,{}
attack_corridor_base_15,1,alt_yawl_spoof,27747,0.0009067808859981596,0.0006649478455074131,-0.0616447776556015,-35.3632621,149.1652374,0.001,-0.01,0.01,0.0,-9.942198084900156e-05,9.444950410397723e-05,0.0,1000,1000,1000,1000,12600,0,0.0029274350963532925,0.002638142555952072,0.0026717819273471832,10,{}
attack_corridor_base_15,1,alt_yawl_spoof,28082,0.0009179346379823983,0.0006779449759051204,-0.06213156133890152,-35.3632621,149.1652374,0.001,-0.01,0.01,0.0,-9.942198084900156e-05,9.444950410397723e-05,0.0,1000,1000,1000,1000,12600,0,0.0028718651738017797,0.0029466140549629927,0.00266543822363019,10,{}
attack_corridor_base_15,1,alt_yawl_spoof,28414,0.0009281598031520844,0.0006898007122799754,-0.06264263391494751,-35.3632621,149.1652374,0.001,-0.01,0.01,0.0,-9.942202450474724e-05,9.444956958759576e-05,0.0,1000,1000,1000,1000,12600,0,0.0028128398116678,0.0027957006823271513,0.002918531186878681,10,{}
attack_corridor_base_15,1,alt_yawl_spoof,28746,0.0009438193519599736,0.000708992884028703,-0.06327401846647263,-35.3632621,149.1652374,0.0,-0.01,0.01,0.0,-9.942211909219623e-05,9.444961324334145e-05,0.0,1000,1000,1000,1000,12600,0,0.00273150485008955,0.002812112681567669,0.0030676580499857664,10,{}
attack_corridor_base_15,1,alt_yawl_spoof,29079,0.0009525427594780922,0.0007234006188809872,-0.06375311315059662,-35.3632621,149.1652374,0.0,-0.01,0.01,0.0,-9.942211909219623e-05,9.444961324334145e-05,0.0,1000,1000,1000,1000,12600,0,0.0026727612130343914,0.0027720185462385416,0.0025169008877128363,10,{}
attack_corridor_base_15,1,alt_yawl_spoof,29414,0.0009664878598414361,0.0007376299472525716,-0.06422487646341324,-35.3632621,149.1652374,0.0,-0.01,0.01,0.0,-9.942224278347567e-05,9.444968600291759e-05,0.0,1000,1000,1000,1000,12600,0,0.002686405321583152,0.0026971865445375443,0.0026417425833642483,10,{}
attack_corridor_base_15,1,alt_yawl_spoof,29747,0.000979200704023242,0.0007488193805329502,-0.06487220525741577,-35.3632621,149.1652374,0.0,-0.01,0.02,0.0,-9.942231554305181e-05,9.44496932788752e-05,0.0,1000,1000,1000,1000,12600,0,0.0027993619441986084,0.0031811706721782684,0.002816356485709548,10,{}
attack_corridor_base_15,1,alt_yawl_spoof,30079,0.0009897660929709673,0.0007619484094902873,-0.06534692645072937,-35.3632621,149.1652374,0.0,-0.01,0.02,0.0,-9.942231554305181e-05,9.44496932788752e-05,0.0,1000,1000,1000,1000,12600,0,0.002869334537535906,0.002843814669176936,0.003016006201505661,10,{}
attack_corridor_base_15,1,alt_yawl_spoof,30354,0.0009897660929709673,0.0007619484094902873,-0.06534692645072937,-35.3632621,149.1652374,-0.001,-0.01,0.02,0.0,-9.942231554305181e-05,9.44496932788752e-05,0.0,1000,1000,1000,1000,12600,0,0.002589619252830744,0.002788862446323037,0.0029025739058852196,10,{}
attack_corridor_base_15,1,alt_yawl_spoof,30604,0.0010006652446463704,0.000779214664362371,-0.06611143052577972,-35.3632621,149.1652374,-0.001,-0.01,0.02,0.0,-9.942236647475511e-05,9.444978059036657e-05,0.0,1000,1000,1000,1000,12600,0,0.002589619252830744,0.002788862446323037,0.0029025739058852196,10,{}
attack_corridor_base_15,1,alt_yawl_spoof,30854,0.001012204447761178,0.000787668046541512,-0.06656527519226074,-35.3632621,149.1652374,-0.001,-0.01,0.02,0.0,-9.942244651028886e-05,9.444986062590033e-05,0.0,1000,1000,1000,1000,12600,0,0.002649520756676793,0.002705460647121072,0.0029449232388287783,10,{}
attack_corridor_base_15,1,alt_yawl_spoof,31104,0.0010157935321331024,0.0007928489940240979,-0.06686805188655853,-35.3632621,149.1652374,-0.002,-0.01,0.02,0.0,-9.942250471794978e-05,9.444988972973078e-05,0.0,1000,1000,1000,1000,12600,0,0.0026380515191704035,0.0026918735820800066,0.0029353960417211056,10,{}
attack_corridor_base_15,1,alt_yawl_spoof,31354,0.0010298399720340967,0.0007988007855601609,-0.06732223927974701,-35.3632621,149.1652374,-0.002,-0.01,0.02,0.0,-9.942250471794978e-05,9.444991883356124e-05,0.0,1000,1000,1000,1000,12600,0,0.002714283997192979,0.0029571945779025555,0.0028449641540646553,10,{}
attack_corridor_base_15,1,alt_yawl_spoof,31604,0.0010361341992393136,0.0008042212575674057,-0.06761202961206436,-35.3632621,149.1652374,-0.002,-0.01,0.02,0.0,-9.942253382178023e-05,9.444995521334931e-05,0.0,1000,1000,1000,1000,12600,0,0.0028324590530246496,0.0027257215697318316,0.0029652761295437813,10,{}
attack_corridor_base_15,1,alt_yawl_spoof,31854,0.0010433860588818789,0.0008075071382336318,-0.06797297298908234,-35.3632621,149.1652374,-0.003,-0.01,0.02,0.0,-9.942250471794978e-05,9.444991883356124e-05,0.0,1000,1000,1000,1000,12600,0,0.0028324590530246496,0.0027257215697318316,0.0029652761295437813,10,{}
attack_corridor_base_15,1,alt_yawl_spoof,32104,0.0010427410015836358,0.0008105813758447766,-0.06827390193939209,-35.3632621,149.1652374,-0.003,-0.01,0.02,0.0,-9.942249016603455e-05,9.444988972973078e-05,0.0,1000,1000,1000,1000,12600,0,0.0027269492857158184,0.002894836477935314,0.0027681617066264153,10,{}
attack_corridor_base_15,1,alt_yawl_spoof,32354,0.0010551211889833212,0.0008187172934412956,-0.06870941072702408,-35.3632621,149.1652374,-0.003,-0.01,0.02,0.0,-9.942247561411932e-05,9.44499479373917e-05,0.0,1000,1000,1000,1000,12600,0,0.002954449038952589,0.0028542003128677607,0.0027928228955715895,10,{}
attack_corridor_base_15,1,alt_yawl_spoof,32604,0.0010611478937789798,0.000823873735498637,-0.06902313232421875,-35.3632621,149.1652374,-0.003,-0.01,0.02,0.0,-9.942247561411932e-05,9.44499479373917e-05,0.0,1000,1000,1000,1000,12600,0,0.0028060234617441893,0.0027614710852503777,0.003175159450620413,10,{}
attack_corridor_base_15,1,alt_yawl_spoof,32854,0.0010679656406864524,0.0008397120400331914,-0.06944868713617325,-35.3632621,149.1652374,-0.004,-0.01,0.02,0.0,-9.942254109773785e-05,9.444997704122216e-05,0.0,1000,1000,1000,1000,12600,0,0.0028060234617441893,0.0027614710852503777,0.003175159450620413,10,{}
attack_corridor_base_15,1,alt_yawl_spoof,33104,0.0010743776801973581,0.0008457185467705131,-0.0697331577539444,-35.3632621,149.1652374,-0.004,-0.01,0.02,0.0,-9.942254109773785e-05,9.444997704122216e-05,0.0,1000,1000,1000,1000,12600,0,0.002778768539428711,0.002755159279331565,0.0028480386827141047,10,{}
attack_corridor_base_15,1,alt_yawl_spoof,33559,0.001096014166250825,0.000863334396854043,-0.07045137137174606,-35.3632621,149.1652374,-0.004,-0.01,0.02,0.0,-9.942255564965308e-05,9.444992610951886e-05,0.0,1000,1000,1000,1000,12600,0,0.0028007247019559145,0.0027928112540394068,0.002743234159424901,10,{}
attack_corridor_base_15,1,alt_yawl_spoof,33892,0.0011101504787802696,0.0008751250570639968,-0.07088176161050797,-35.3632621,149.1652374,-0.004,-0.02,0.02,0.0,-9.942253382178023e-05,9.444995521334931e-05,0.0,1000,1000,1000,1000,12600,0,0.0027546666096895933,0.002901421394199133,0.0028593793977051973,10,{}
attack_corridor_base_15,1,alt_yawl_spoof,34224,0.0011178464628756046,0.0008822229574434459,-0.07128813117742538,-35.3632621,149.1652374,-0.005,-0.02,0.02,0.0,-9.942253382178023e-05,9.444995521334931e-05,0.0,1000,1000,1000,1000,12600,0,0.0033170534297823906,0.0025014111306518316,0.0027312315069139004,10,{}
attack_corridor_base_15,1,alt_yawl_spoof,34557,0.001129975076764822,0.0008994895615614951,-0.0718284323811531,-35.3632621,149.1652374,-0.005,-0.02,0.02,0.0,-9.942246833816171e-05,9.444998431717977e-05,0.0,1000,1000,1000,1000,12600,0,0.0027514961548149586,0.0028900213073939085,0.002908168127760291,10,{}
attack_corridor_base_15,1,alt_yawl_spoof,34889,0.001137303188443184,0.0009122758638113737,-0.0722319707274437,-35.3632621,149.1652374,-0.005,-0.02,0.02,0.0,-9.942239557858557e-05,9.444998431717977e-05,0.0,1000,1000,1000,1000,12600,0,0.0024954164400696754,0.0028211495373398066,0.002915607765316963,10,{}
attack_corridor_base_15,1,alt_yawl_spoof,35224,0.0011469031451269984,0.0009180533234030008,-0.07262012362480164,-35.3632621,149.1652374,-0.005,-0.02,0.02,0.0,-9.942239557858557e-05,9.444998431717977e-05,0.0,1000,1000,1000,1000,12600,0,0.002980418037623167,0.0028637638315558434,0.00259229214861989,10,{}
attack_corridor_base_15,1,alt_yawl_spoof,35556,0.0011572359362617135,0.0009314659982919693,-0.07314678281545639,-35.3632621,149.1652374,-0.005,-0.02,0.02,0.0,-9.942233737092465e-05,9.444995521334931e-05,0.0,1000,1000,1000,1000,12600,0,0.002554708393290639,0.002839292399585247,0.002668859902769327,10,{}
attack_corridor_base_15,1,alt_yawl_spoof,35889,0.0011604034807533026,0.0009308394510298967,-0.07355216145515442,-35.3632621,149.1652374,-0.005,-0.02,0.02,0.0,-9.942235192283988e-05,9.444991155760363e-05,0.0,1000,1000,1000,1000,12600,0,0.002708320738747716,0.002808799734339118,0.002907603746280074,10,{}
attack_corridor_base_15,1,alt_yawl_spoof,36222,0.001167704351246357,0.0009425238240510225,-0.07383798807859421,-35.3632621,149.1652374,-0.005,-0.02,0.02,0.0,-9.942235192283988e-05,9.444991155760363e-05,0.0,1000,1000,1000,1000,12600,0,0.002999899908900261,0.0027804789133369923,0.0027782421093434095,10,{}
attack_corridor_base_15,1,alt_yawl_spoof,36554,0.0011807658011093736,0.000960394274443388,-0.07435255497694016,-35.3632621,149.1652374,-0.005,-0.02,0.02,0.0,-9.942230099113658e-05,9.444992610951886e-05,0.0,1000,1000,1000,1000,12600,0,0.002916779601946473,0.0025756543036550283,0.002794696716591716,10,{}
attack_corridor_base_15,1,alt_yawl_spoof,36889,0.0011885145213454962,0.0009761492256075144,-0.07472315430641174,-35.3632621,149.1652374,-0.005,-0.02,0.02,0.0,-9.942233009496704e-05,9.444991883356124e-05,0.0,1000,1000,1000,1000,12600,0,0.0025282236747443676,0.0027307593263685703,0.002568567404523492,10,{}
attack_corridor_base_15,1,alt_yawl_spoof,37221,0.0011957921087741852,0.0009889714419841766,-0.07507944852113724,-35.3632621,149.1652374,-0.005,-0.02,0.02,0.0,-9.942233009496704e-05,9.444991883356124e-05,0.0,1000,1000,1000,1000,12600,0,0.0030726364348083735,0.002812302904203534,0.0027079028077423573,10,{}
attack_corridor_base_15,1,alt_yawl_spoof,37554,0.0012077342253178358,0.0010035522282123566,-0.07556800544261932,-35.3632621,149.1652374,-0.005,-0.02,0.02,0.0,-9.942232281900942e-05,9.444986790185794e-05,0.0,1000,1000,1000,1000,12600,0,0.0028330208733677864,0.0024584585335105658,0.0026628656778484583,10,{}
attack_corridor_base_15,1,alt_yawl_spoof,37887,0.0012125204084441066,0.0010163693223148584,-0.0759194940328598,-35.3632621,149.1652374,-0.006,-0.02,0.02,0.0,-9.942233737092465e-05,9.444988245377317e-05,0.0,1000,1000,1000,1000,12600,0,0.0027038580738008022,0.002664706204086542,0.0027716245967894793,10,{}
attack_corridor_base_15,1,alt_yawl_spoof,38219,0.001222817343659699,0.0010323096066713333,-0.07628427445888519,-35.3632621,149.1652374,-0.006,-0.02,0.02,0.0,-9.942233737092465e-05,9.444988245377317e-05,0.0,1000,1000,1000,1000,12600,0,0.002895026933401823,0.0027120260056108236,0.0026372731663286686,10,{}
attack_corridor_base_15,1,alt_yawl_spoof,38552,0.001234291004948318,0.0010430108522996306,-0.07674548029899597,-35.3632621,149.1652374,-0.006,-0.02,0.02,0.0,-9.942233737092465e-05,9.444986062590033e-05,0.0,1000,1000,1000,1000,12600,0,0.003049383172765374,0.003050176426768303,0.0028406784404069185,10,{}
attack_corridor_base_15,1,alt_yawl_spoof,38886,0.00124233472160995,0.001050705905072391,-0.07709939032793045,-35.3632621,149.1652374,-0.006,-0.02,0.02,0.0,-9.942228643922135e-05,9.444985334994271e-05,0.0,1000,1000,1000,1000,12600,0,0.002715524984523654,0.0029559005051851273,0.0029246488120406866,10,{}
attack_corridor_base_15,1,alt_yawl_spoof,39219,0.0012484777253121138,0.0010645120637491345,-0.07743784040212631,-35.3632621,149.1652374,-0.006,-0.02,0.02,0.0,-9.942228643922135e-05,9.444985334994271e-05,0.0,1000,1000,1000,1000,12600,0,0.0026354151777923107,0.0028053121641278267,0.0027934450190514326,10,{}
attack_corridor_base_15,1,alt_yawl_spoof,39551,0.0012467014603316784,0.0010736515978351235,-0.0778927281498909,-35.3632621,149.1652374,-0.006,-0.02,0.02,0.0,-9.942227916326374e-05,9.444988245377317e-05,0.0,1000,1000,1000,1000,12600,0,0.002726626815274358,0.002779379952698946,0.0028373044915497303,10,{}
attack_corridor_base_15,1,alt_yawl_spoof,39884,0.001257139490917325,0.0010787490755319595,-0.07820972055196762,-35.3632621,149.1652374,-0.006,-0.02,0.02,0.0,-9.942226461134851e-05,9.444988972973078e-05,0.0,1000,1000,1000,1000,12600,0,0.002799401991069317,0.003012699307873845,0.0025370754301548004,10,{}
attack_corridor_base_15,1,alt_yawl_spoof,40217,0.0012631600257009268,0.0010835175635293126,-0.07855150103569031,-35.3632621,149.1652374,-0.006,-0.02,0.02,0.0,-9.942226461134851e-05,9.444988972973078e-05,0.0,1000,1000,1000,1000,12600,0,0.002856062026694417,0.0032277011778205633,0.0029613985680043697,10,{}
attack_corridor_base_15,1,alt_yawl_spoof,40552,0.0012759666424244642,0.0010926201939582825,-0.07895807176828384,-35.3632621,149.1652374,-0.006,-0.02,0.02,0.0,-9.942228643922135e-05,9.444993338547647e-05,0.0,1000,1000,1000,1000,12600,0,0.0026521028485149145,0.002828385215252638,0.002651817863807082,10,{}
attack_corridor_base_15,1,alt_yawl_spoof,40884,0.0012831108178943396,0.001093650353141129,-0.0792509913444519,-35.3632621,149.1652374,-0.006,-0.02,0.02,0.0,-9.94222573353909e-05,9.444992610951886e-05,0.0,1000,1000,1000,1000,12600,0,0.002708274405449629,0.0025988928973674774,0.0025830967351794243,10,{}
attack_corridor_base_15,1,alt_yawl_spoof,41216,0.0012889532372355461,0.0011078849202021956,-0.07952210307121277,-35.3632621,149.1652374,-0.006,-0.02,0.02,0.0,-9.94222573353909e-05,9.444992610951886e-05,0.0,1000,1000,1000,1000,12600,0,0.0028789765201509,0.0030669996049255133,0.0027866580057889223,10,{}
attack_corridor_base_15,1,alt_yawl_spoof,41549,0.0012990962713956833,0.0011185866314917803,-0.07993388921022415,-35.3632621,149.1652374,-0.006,-0.02,0.02,0.0,-9.942227916326374e-05,9.444992610951886e-05,0.0,1000,1000,1000,1000,12600,0,0.00303956912830472,0.0030033753719180822,0.002694787923246622,10,{}
attack_corridor_base_15,1,alt_yawl_spoof,41884,0.0013269602786749601,0.001149964751675725,-0.08023575693368912,-35.3632621,149.1652374,-0.006,0.0,0.0,0.0,-9.942232281900942e-05,9.444991155760363e-05,0.0,1000,1000,1000,1000,12600,0,0.0029467493295669556,0.0027015446685254574,0.002966090338304639,10,{}
attack_corridor_base_15,1,alt_yawl_spoof,42217,0.0014092292403802276,0.0012290874728932977,-0.08054327964782715,-35.3632621,149.1652374,-0.006,0.0,0.0,0.0,-9.942232281900942e-05,9.444991155760363e-05,0.0,1000,1000,1000,1000,12600,0,0.002707725390791893,0.0026071530301123857,0.0027639404870569706,10,{}
attack_corridor_base_15,1,alt_yawl_spoof,42549,0.0014972994104027748,0.0013204766437411308,-0.08094439655542374,-35.3632621,149.1652374,-0.006,0.0,0.0,0.0,-9.942229371517897e-05,9.444992610951886e-05,0.0,1000,1000,1000,1000,12600,0,0.00300715328194201,0.002854746300727129,0.0027666424866765738,10,{}
attack_corridor_base_15,1,alt_yawl_spoof,42882,0.0015579292085021734,0.0013807360082864761,-0.08124661445617676,-35.3632621,149.1652374,-0.006,0.0,0.01,0.0,-9.942231554305181e-05,9.444992610951886e-05,0.0,1000,1000,1000,1000,12600,0,0.0026525252033025026,0.00259786075912416,0.002652849070727825,10,{}
attack_corridor_base_15,1,alt_yawl_spoof,43214,0.0016101206419989467,0.001431608572602272,-0.08155740797519684,-35.3632621,149.1652374,-0.006,-0.01,0.01,0.0,-9.942231554305181e-05,9.444992610951886e-05,0.0,1000,1000,1000,1000,12600,0,0.002994190203025937,0.002676773350685835,0.0027068713679909706,10,{}
attack_corridor_base_15,1,alt_yawl_spoof,43549,0.0016489215195178986,0.0014664067421108484,-0.081968754529953,-35.3632621,149.1652374,-0.006,-0.01,0.01,0.0,-9.942233737092465e-05,9.444988972973078e-05,0.0,1000,1000,1000,1000,12600,0,0.0027793864719569683,0.0030467244796454906,0.002689225832000375,10,{}
attack_corridor_base_15,1,alt_yawl_spoof,43881,0.0016605060081928968,0.0014787333784624934,-0.08227388560771942,-35.3632621,149.1652374,-0.006,-0.01,0.01,0.0,-9.942236647475511e-05,9.444988972973078e-05,0.0,1000,1000,1000,1000,12600,0,0.0029823509976267815,0.0028868643566966057,0.0025270560290664434,10,{}
attack_corridor_base_15,1,alt_yawl_spoof,44214,0.0016468975227326155,0.0014658481813967228,-0.0825791135430336,-35.3632621,149.1652374,-0.006,-0.01,0.01,0.0,-9.942236647475511e-05,9.444988972973078e-05,0.0,1000,1000,1000,1000,12600,0,0.0027519832365214825,0.0028153376188129187,0.003083990653976798,10,{}
attack_corridor_base_15,1,alt_yawl_spoof,44547,0.001616662135347724,0.0014275053981691599,-0.0829649493098259,-35.3632621,149.1652375,-0.006,-0.01,0.02,0.0,-9.942238830262795e-05,9.444990428164601e-05,0.0,1000,1000,1000,1000,12600,0,0.002869958756491542,0.002827954478561878,0.0026376426685601473,10,{}
attack_corridor_base_15,1,alt_yawl_spoof,44879,0.0015780177200213075,0.001396341249346733,-0.08323808014392853,-35.3632621,149.1652375,-0.006,-0.01,0.02,0.0,-9.942233009496704e-05,9.444986062590033e-05,0.0,1000,1000,1000,1000,12600,0,0.0025114614982157946,0.0029007180128246546,0.002594944555312395,10,{}
attack_corridor_base_15,1,alt_yawl_spoof,45354,0.0014804797247052193,0.0012993920827284455,-0.08371040970087051,-35.3632621,149.1652375,-0.006,-0.01,0.02,0.0,-9.942233009496704e-05,9.444986062590033e-05,0.0,1000,1000,1000,1000,12600,0,0.0027469133492559195,0.0029148899484425783,0.0025933985598385334,10,{}
attack_corridor_base_15,1,alt_yawl_spoof,45604,0.0014411400770768523,0.0012627006508409977,-0.0839231014251709,-35.3632622,149.1652375,-0.006,-0.01,0.02,0.0,-9.942233737092465e-05,9.444988972973078e-05,0.0,1000,1000,1000,1000,12600,0,0.0027469133492559195,0.0029148899484425783,0.0025933985598385334,10,{}
attack_corridor_base_15,1,alt_yawl_spoof,45854,0.0013846403453499079,0.0012035705149173737,-0.08412586897611618,-35.3632622,149.1652375,-0.006,-0.01,0.02,0.0,-9.942232281900942e-05,9.444987517781556e-05,0.0,1000,1000,1000,1000,12600,0,0.0030863878782838583,0.0027566668577492237,0.002908692229539156,10,{}
attack_corridor_base_15,1,alt_yawl_spoof,46104,0.0013428085949271917,0.001158235245384276,-0.08433030545711517,-35.3632622,149.1652375,-0.006,-0.01,0.01,0.0,-9.942230099113658e-05,9.444988245377317e-05,0.0,1000,1000,1000,1000,12600,0,0.002984887221828103,0.0028086963575333357,0.0028126961551606655,10,{}
attack_corridor_base_15,1,alt_yawl_spoof,46354,0.0013024138752371073,0.0011126159224659204,-0.08450206369161606,-35.3632622,149.1652375,-0.006,-0.01,0.01,0.0,-9.942228643922135e-05,9.444988245377317e-05,0.0,1000,1000,1000,1000,12600,0,0.00257099443115294,0.002707461826503277,0.0028636532370001078,10,{}
attack_corridor_base_15,1,alt_yawl_spoof,46604,0.0012766898144036531,0.0010916851460933685,-0.08466178178787231,-35.3632622,149.1652375,-0.006,-0.01,0.01,0.0,-9.942231554305181e-05,9.444991883356124e-05,0.0,1000,1000,1000,1000,12600,0,0.002620919141918421,0.002777625108137727,0.002617625752463937,10,{}
attack_corridor_base_15,1,alt_yawl_spoof,46854,0.001230591326020658,0.001052033738233149,-0.08486263453960419,-35.3632622,149.1652375,-0.006,-0.01,0.01,0.0,-9.942226461134851e-05,9.444991155760363e-05,0.0,1000,1000,1000,1000,12600,0,0.002952817128971219,0.0026925774291157722,0.0024197085294872522,10,{}
attack_corridor_base_15,1,alt_yawl_spoof,47104,0.0011975904926657677,0.001022713491693139,-0.08504047244787216,-35.3632621,149.1652375,-0.006,-0.01,0.01,0.0,-9.942224278347567e-05,9.444992610951886e-05,0.0,1000,1000,1000,1000,12600,0,0.0028693967033177614,0.0027131151873618364,0.002412908710539341,10,{}
attack_corridor_base_15,1,alt_yawl_spoof,47354,0.0011719116009771824,0.001000384334474802,-0.08522963523864746,-35.3632621,149.1652375,-0.006,-0.01,0.01,0.0,-9.942221367964521e-05,9.44498970056884e-05,0.0,1000,1000,1000,1000,12600,0,0.00298507884144783,0.0028518245089799166,0.0027925963513553143,10,{}
attack_corridor_base_15,1,alt_yawl_spoof,47604,0.0011588070774450898,0.000987262581475079,-0.08539555966854095,-35.3632621,149.1652375,-0.006,-0.01,0.01,0.0,-9.942217729985714e-05,9.444986062590033e-05,0.0,1000,1000,1000,1000,12600,0,0.0027651889249682426,0.00278066867031157,0.002833001781255007,10,{}
attack_corridor_base_15,1,alt_yawl_spoof,47854,0.001132429693825543,0.0009647379629313946,-0.08558318018913269,-35.3632621,149.1652375,-0.006,-0.01,0.01,0.0,-9.942214819602668e-05,9.444982424611226e-05,0.0,1000,1000,1000,1000,12600,0,0.0028726437594741583,0.002711338922381401,0.0027382494881749153,10,{}
attack_corridor_base_15,1,alt_yawl_spoof,48104,0.0011169440113008022,0.0009482037858106196,-0.08573798090219498,-35.3632621,149.1652375,-0.006,-0.01,0.01,0.0,-9.942211909219623e-05,9.444982424611226e-05,0.0,1000,1000,1000,1000,12600,0,0.0030948978383094072,0.0027696487959474325,0.002795629668980837,10,{}
attack_corridor_base_15,1,alt_yawl_spoof,48354,0.0011058682575821877,0.0009368909522891045,-0.08592379093170166,-35.3632621,149.1652375,-0.006,-0.01,0.01,0.0,-9.9422104540281e-05,9.444980969419703e-05,0.0,1000,1000,1000,1000,12600,0,0.0026993537321686745,0.0029867307748645544,0.002863135654479265,10,{}
attack_corridor_base_15,1,alt_yawl_spoof,48604,0.0010995513293892145,0.0009312676847912371,-0.08608142286539078,-35.3632621,149.1652375,-0.006,-0.01,0.01,0.0,-9.942207543645054e-05,9.444980969419703e-05,0.0,1000,1000,1000,1000,12600,0,0.002893059281632304,0.0027123545296490192,0.0029777023009955883,10,{}
attack_corridor_base_15,1,alt_yawl_spoof,48854,0.0010902679059654474,0.0009226369438692927,-0.086240254342556,-35.3632621,149.1652375,-0.006,-0.01,0.01,0.0,-9.942206816049293e-05,9.444978786632419e-05,0.0,1000,1000,1000,1000,12600,0,0.0028329838532954454,0.0030252898577600718,0.0027380716055631638,10,{}
attack_corridor_base_15,1,alt_yawl_spoof,49104,0.0010844389908015728,0.0009157435270026326,-0.08641047775745392,-35.3632621,149.1652375,-0.006,-0.01,0.01,0.0,-9.942201722878963e-05,9.444976603845134e-05,0.0,1000,1000,1000,1000,12600,0,0.0029291175305843353,0.003083036979660392,0.0026995802763849497,10,{}
attack_corridor_base_15,1,alt_yawl_spoof,49354,0.0010827458463609219,0.0009113935520872474,-0.08656544238328934,-35.3632621,149.1652375,-0.006,-0.01,0.01,0.0,-9.942198812495917e-05,9.444975876249373e-05,0.0,1000,1000,1000,1000,12600,0,0.002702003810554743,0.002649150090292096,0.0028011698741465807,10,{}
attack_corridor_base_15,1,alt_yawl_spoof,49604,0.001083318260498345,0.0009119200403802097,-0.08671832084655762,-35.3632621,149.1652375,-0.006,-0.01,0.01,0.0,-9.942197357304394e-05,9.444972238270566e-05,0.0,1000,1000,1000,1000,12600,0,0.002705017104744911,0.0028584597166627645,0.002694720169529319,10,{}
attack_corridor_base_15,1,alt_yawl_spoof,49854,0.0010778730502352118,0.0009135783184319735,-0.08688031882047653,-35.3632621,149.1652375,-0.006,-0.01,0.01,0.0,-9.942198812495917e-05,9.444972238270566e-05,0.0,1000,1000,1000,1000,12600,0,0.0026668154168874025,0.002837886568158865,0.002634619129821658,10,{}
attack_corridor_base_15,1,alt_yawl_spoof,50104,0.001077523222193122,0.0009146906668320298,-0.08703603595495224,-35.3632621,149.1652375,-0.006,-0.01,0.01,0.0,-9.942198812495917e-05,9.444970055483282e-05,0.0,1000,1000,1000,1000,12600,0,0.0028905768413096666,0.0027850077021867037,0.0027597155421972275,10,{}
attack_corridor_base_15,1,alt_yawl_spoof,50354,0.001080995425581932,0.0009159547043964267,-0.08718706667423248,-35.3632621,149.1652375,-0.006,-0.01,0.01,0.0,-9.94219517451711e-05,9.444964962312952e-05,0.0,1000,1000,1000,1000,12600,0,0.0024053682573139668,0.002637889701873064,0.002970012603327632,10,{}
attack_corridor_base_15,1,alt_yawl_spoof,50604,0.0010840295581147075,0.0009139911853708327,-0.08734746277332306,-35.3632621,149.1652375,-0.006,-0.01,0.01,0.0,-9.942197357304394e-05,9.444961324334145e-05,0.0,1000,1000,1000,1000,12600,0,0.0028041983023285866,0.002979018958285451,0.0027300340589135885,10,{}
attack_corridor_base_15,1,alt_yawl_spoof,50854,0.0010853197891265154,0.0009125409997068346,-0.08749181777238846,-35.3632621,149.1652375,-0.006,-0.01,0.01,0.0,-9.94219517451711e-05,9.444958413951099e-05,0.0,1000,1000,1000,1000,12600,0,0.0027916368562728167,0.0030360035598278046,0.0029243880417197943,10,{}
attack_corridor_base_15,1,alt_yawl_spoof,51104,0.001085422933101654,0.0009122409392148256,-0.08764086663722992,-35.3632621,149.1652375,-0.006,-0.01,0.01,0.0,-9.942192264134064e-05,9.444954775972292e-05,0.0,1000,1000,1000,1000,12600,0,0.0027790528256446123,0.002731712069362402,0.00267804809845984,10,{}
attack_corridor_base_15,1,alt_yawl_spoof,51354,0.0010858133900910616,0.0009175768354907632,-0.08778438717126846,-35.3632621,149.1652375,-0.006,-0.01,0.01,0.0,-9.942189353751019e-05,9.444952593185008e-05,0.0,1000,1000,1000,1000,12600,0,0.0028894292190670967,0.002777308924123645,0.002556513762101531,10,{}
attack_corridor_base_15,1,alt_yawl_spoof,51604,0.0010916340397670865,0.0009184255613945425,-0.08792717009782791,-35.3632621,149.1652375,-0.006,-0.01,0.01,0.0,-9.942188626155257e-05,9.444950410397723e-05,0.0,1000,1000,1000,1000,12600,0,0.002893341239541769,0.0029222385492175817,0.0029246697667986155,10,{}
attack_corridor_base_15,1,alt_yawl_spoof,51854,0.0010946730617433786,0.0009140240726992488,-0.08806680142879486,-35.3632621,149.1652375,-0.006,-0.01,0.01,0.0,-9.942190808942541e-05,9.444951865589246e-05,0.0,1000,1000,1000,1000,12600,0,0.002978250617161393,0.002636110410094261,0.0029025685507804155,10,{}
attack_corridor_base_15,1,alt_yawl_spoof,52104,0.001099464832805097,0.0009063141187652946,-0.08821365237236023,-35.3632621,149.1652375,-0.006,-0.01,0.01,0.0,-9.94219008134678e-05,9.4449489552062e-05,0.0,1000,1000,1000,1000,12600,0,0.002980356104671955,0.0025234532076865435,0.0028609002474695444,10,{}
attack_corridor_base_15,1,alt_yawl_spoof,52354,0.0011040210956707597,0.0009052871610037982,-0.08834532648324966,-35.3632621,149.1652375,-0.006,-0.01,0.01,0.0,-9.942187898559496e-05,9.4449489552062e-05,0.0,1000,1000,1000,1000,12600,0,0.0027319409418851137,0.002879194915294647,0.0028401061426848173,10,{}
attack_corridor_base_15,1,alt_yawl_spoof,52604,0.0011083127465099096,0.0009164477814920247,-0.08845674991607666,-35.3632621,149.1652375,-0.006,-0.01,0.01,0.0,-9.942186443367973e-05,9.444945317227393e-05,0.0,1000,1000,1000,1000,12600,0,0.003151178127154708,0.0027405773289501667,0.002797189634293318,10,{}
attack_corridor_base_15,1,alt_yawl_spoof,52854,0.001110413228161633,0.0009184700320474803,-0.08859589695930481,-35.3632621,149.1652375,-0.006,-0.01,0.01,0.0,-9.942185715772212e-05,9.44494386203587e-05,0.0,1000,1000,1000,1000,12600,0,0.002894546603783965,0.003078615292906761,0.002956736832857132,10,{}
attack_corridor_base_15,1,alt_yawl_spoof,53104,0.0011105206795036793,0.0009143298375420272,-0.08872396498918533,-35.3632621,149.1652375,-0.006,-0.01,0.01,0.0,-9.942186443367973e-05,9.44494386203587e-05,0.0,1000,1000,1000,1000,12600,0,0.00268617644906044,0.0027981665916740894,0.002734322566539049,10,{}
attack_corridor_base_15,1,alt_yawl_spoof,53354,0.0011169607751071453,0.0009218837949447334,-0.08887330442667007,-35.3632621,149.1652375,-0.006,-0.01,0.01,0.0,-9.942185715772212e-05,9.444944589631632e-05,0.0,1000,1000,1000,1000,12600,0,0.0027527203783392906,0.002606996800750494,0.002653568284586072,10,{}
attack_corridor_base_15,1,alt_yawl_spoof,53604,0.0011289530666545033,0.0009298947406932712,-0.08899985998868942,-35.3632621,149.1652375,-0.006,-0.01,0.01,0.0,-9.942184260580689e-05,9.444943134440109e-05,0.0,1000,1000,1000,1000,12600,0,0.0027636028826236725,0.003063402371481061,0.0027509357314556837,10,{}
attack_corridor_base_15,1,alt_yawl_spoof,53854,0.0011316254967823625,0.0009272624738514423,-0.08913362771272659,-35.3632621,149.1652375,-0.006,-0.01,0.01,0.0,-9.942180622601882e-05,9.444941679248586e-05,0.0,1000,1000,1000,1000,12600,0,0.002527629490941763,0.002687640953809023,0.002939477562904358,10,{}
attack_corridor_base_15,1,alt_yawl_spoof,54104,0.0011331761488690972,0.000935543270315975,-0.08926473557949066,-35.3632621,149.1652375,-0.006,-0.01,0.01,0.0,-9.942177712218836e-05,9.444940951652825e-05,0.0,1000,1000,1000,1000,12600,0,0.003024512203410268,0.0028088903054594994,0.00287444656714797,10,{}
attack_corridor_base_15,1,alt_yawl_spoof,54354,0.0011349148117005825,0.000939006800763309,-0.08939656615257263,-35.3632621,149.1652375,-0.006,-0.01,0.01,0.0,-9.94217480183579e-05,9.444936586078256e-05,0.0,1000,1000,1000,1000,12600,0,0.0028915447182953358,0.00294332392513752,0.0030009583570063114,10,{}
attack_corridor_base_15,1,alt_yawl_spoof,54604,0.0011451811296865344,0.0009487511706538498,-0.08951857686042786,-35.3632621,149.1652375,-0.006,-0.01,0.01,0.0,-9.942172619048506e-05,9.444937313674018e-05,0.0,1000,1000,1000,1000,12600,0,0.00264536845497787,0.0027557071298360825,0.002671495545655489,10,{}
attack_corridor_base_15,1,alt_yawl_spoof,54854,0.0011447860160842538,0.0009474707767367363,-0.08964414894580841,-35.3632621,149.1652375,-0.006,-0.01,0.01,0.0,-9.942174074240029e-05,9.444933675695211e-05,0.0,1000,1000,1000,1000,12600,0,0.0031946594826877117,0.002871209755539894,0.002958940574899316,10,{}
attack_corridor_base_15,1,alt_yawl_spoof,55104,0.0011465268908068538,0.0009494362166151404,-0.08976765722036362,-35.3632621,149.1652375,-0.006,-0.01,0.01,0.0,-9.942172619048506e-05,9.444929310120642e-05,0.0,1000,1000,1000,1000,12600,0,0.0027622513007372618,0.002842006739228964,0.0025625121779739857,10,{}
attack_corridor_base_15,1,alt_yawl_spoof,55354,0.001145709422416985,0.0009513864060863853,-0.08989137411117554,-35.3632621,149.1652375,-0.006,-0.01,0.01,0.0,-9.942171891452745e-05,9.44492785492912e-05,0.0,1000,1000,1000,1000,12600,0,0.0025743211153894663,0.002526539610698819,0.002598595805466175,10,{}
attack_corridor_base_15,1,alt_yawl_spoof,55604,0.0011502888519316912,0.000956373056396842,-0.09001854807138443,-35.3632621,149.1652375,-0.006,-0.01,0.01,0.0,-9.942168981069699e-05,9.444925672141835e-05,0.0,1000,1000,1000,1000,12600,0,0.0027310329023748636,0.0030370140448212624,0.002656299155205488,10,{}
attack_corridor_base_15,1,alt_yawl_spoof,55854,0.0011466194409877062,0.0009505181224085391,-0.09014086425304413,-35.3632621,149.1652375,-0.006,-0.01,0.01,0.0,-9.942168253473938e-05,9.444926399737597e-05,0.0,1000,1000,1000,1000,12600,0,0.0026970626786351204,0.002862347289919853,0.0025826371274888515,10,{}
attack_corridor_base_15,1,alt_yawl_spoof,56104,0.0011461584363132715,0.0009513688273727894,-0.0902649387717247,-35.3632621,149.1652375,-0.006,-0.01,0.01,0.0,-9.942168253473938e-05,9.444926399737597e-05,0.0,1000,1000,1000,1000,12600,0,0.002768162405118346,0.0028675596695393324,0.0030393858905881643,10,{}
attack_corridor_base_15,1,alt_yawl_spoof,56354,0.0011502844281494617,0.0009554664720781147,-0.09038625657558441,-35.3632621,149.1652375,-0.006,-0.01,0.01,0.0,-9.942167525878176e-05,9.444924216950312e-05,0.0,1000,1000,1000,1000,12600,0,0.0027056431863456964,0.0029029136057943106,0.0030944880563765764,10,{}
attack_corridor_base_15,1,alt_yawl_spoof,56604,0.0011520669795572758,0.0009616498136892915,-0.09050621092319489,-35.3632621,149.1652375,-0.006,-0.01,0.01,0.0,-9.94216970866546e-05,9.44492785492912e-05,0.0,1000,1000,1000,1000,12600,0,0.002758015412837267,0.002629471942782402,0.0027786518912762403,10,{}
attack_corridor_base_15,1,alt_yawl_spoof,56854,0.0011378041235730052,0.0009589302353560925,-0.09059517085552216,-35.3632621,149.1652375,-0.006,-0.01,0.01,0.0,-9.94217480183579e-05,9.444930037716404e-05,0.0,1000,1000,1000,1000,12600,0,0.0028746500611305237,0.0027444204315543175,0.0027303637471050024,10,{}
attack_corridor_base_15,1,alt_yawl_spoof,57104,0.0011330507695674896,0.0009548586676828563,-0.09070738404989243,-35.3632621,149.1652375,-0.006,-0.01,0.01,0.0,-9.942180622601882e-05,9.444932220503688e-05,0.0,1000,1000,1000,1000,12600,0,0.0027636894956231117,0.0029823353979736567,0.002821451285853982,10,{}
attack_corridor_base_15,1,alt_yawl_spoof,57354,0.0011411132290959358,0.0009567404049448669,-0.09082932025194168,-35.3632621,149.1652375,-0.006,-0.01,0.01,0.0,-9.942182805389166e-05,9.444934403290972e-05,0.0,1000,1000,1000,1000,12600,0,0.0028101527132093906,0.00288074160926044,0.0027481201104819775,10,{}
attack_corridor_base_15,1,alt_yawl_spoof,57604,0.0011460911482572556,0.0009644821984693408,-0.09094139188528061,-35.3632622,149.1652375,-0.006,-0.01,0.01,0.0,-9.942180622601882e-05,9.444935130886734e-05,0.0,1000,1000,1000,1000,12600,0,0.0026839966885745525,0.002638594014570117,0.0024834731593728065,10,{}
attack_corridor_base_15,1,alt_yawl_spoof,57854,0.0011466119904071093,0.000962508434895426,-0.0910528376698494,-35.3632621,149.1652375,-0.006,-0.01,0.01,0.0,-9.942181350197643e-05,9.444936586078256e-05,0.0,1000,1000,1000,1000,12600,0,0.0026802695356309414,0.0025301838759332895,0.0026132501661777496,10,{}
attack_corridor_base_15,1,alt_yawl_spoof,58104,0.0011502383276820183,0.0009602914215065539,-0.09115958958864212,-35.3632621,149.1652375,-0.006,-0.01,0.01,0.0,-9.942185715772212e-05,9.444939496461302e-05,0.0,1000,1000,1000,1000,12600,0,0.0026224867906421423,0.002778815571218729,0.002571041928604245,10,{}
attack_corridor_base_15,1,alt_yawl_spoof,58354,0.0011542538413777947,0.0009660207433626056,-0.09127738326787949,-35.3632621,149.1652375,-0.006,-0.01,0.01,0.0,-9.942185715772212e-05,9.444938041269779e-05,0.0,1000,1000,1000,1000,12600,0,0.0030612251721322536,0.0027113177347928286,0.002757216105237603,10,{}
attack_corridor_base_15,1,alt_yawl_spoof,58604,0.0011546610621735454,0.0009717983193695545,-0.09138084948062897,-35.3632622,149.1652375,-0.006,-0.01,0.01,0.0,-9.942191536538303e-05,9.444943134440109e-05,0.0,1000,1000,1000,1000,12600,0,0.003133420366793871,0.003081529401242733,0.0028623209800571203,10,{}
attack_corridor_base_15,1,alt_yawl_spoof,58854,0.0011546151945367455,0.0009683403768576682,-0.09149707108736038,-35.3632621,149.1652375,-0.006,-0.01,0.01,0.0,-9.942192991729826e-05,9.44494386203587e-05,0.0,1000,1000,1000,1000,12600,0,0.0029170187190175056,0.0027995863929390907,0.002555648796260357,10,{}
attack_corridor_base_15,1,alt_yawl_spoof,59104,0.0011554536176845431,0.0009693910251371562,-0.09160121530294418,-35.3632621,149.1652375,-0.006,-0.01,0.01,0.0,-9.942192264134064e-05,9.444939496461302e-05,0.0,1000,1000,1000,1000,12600,0,0.002669022884219885,0.0027965314220637083,0.00266708480194211,10,{}
attack_corridor_base_15,1,alt_yawl_spoof,59354,0.0011581500293686986,0.0009752632468007505,-0.09170494228601456,-35.3632621,149.1652375,-0.006,-0.01,0.01,0.0,-9.942192991729826e-05,9.444938041269779e-05,0.0,1000,1000,1000,1000,12600,0,0.0029818303883075714,0.0025442561600357294,0.0026877284981310368,10,{}
attack_corridor_base_15,1,alt_yawl_spoof,59604,0.0011625707847997546,0.000980509095825255,-0.09181113541126251,-35.3632622,149.1652375,-0.006,-0.01,0.01,0.0,-9.942192264134064e-05,9.444933675695211e-05,0.0,1000,1000,1000,1000,12600,0,0.0030010531190782785,0.002750415587797761,0.002713508438318968,10,{}
attack_corridor_base_15,1,alt_yawl_spoof,59854,0.0011516455560922623,0.0009753592894412577,-0.09191368520259857,-35.3632621,149.1652375,-0.006,-0.01,0.01,0.0,-9.942198812495917e-05,9.444939496461302e-05,0.0,1000,1000,1000,1000,12600,0,0.0026662040036171675,0.002803605981171131,0.002736208261922002,10,{}
attack_corridor_base_15,1,alt_yawl_spoof,60104,0.0011504569556564093,0.0009703016839921474,-0.09201113879680634,-35.3632621,149.1652375,-0.006,-0.01,0.01,0.0,-9.942199540091679e-05,9.444936586078256e-05,0.0,1000,1000,1000,1000,12600,0,0.0030158718582242727,0.0027474574744701385,0.002700456418097019,10,{}
attack_corridor_base_15,1,alt_yawl_spoof,60354,0.0011522154090926051,0.0009683694806881249,-0.09211692214012146,-35.3632622,149.1652375,-0.006,-0.01,0.01,0.0,-9.942202450474724e-05,9.444936586078256e-05,0.0,1000,1000,1000,1000,12600,0,0.0026820385828614235,0.002776504959911108,0.0027320347726345062,10,{}
attack_corridor_base_15,1,alt_yawl_spoof,60604,0.0011581178987398744,0.0009714451734907925,-0.0922129899263382,-35.3632622,149.1652375,-0.006,-0.01,0.01,0.0,-9.942203905666247e-05,9.444936586078256e-05,0.0,1000,1000,1000,1000,12600,0,0.002713428344577551,0.0028823455795645714,0.002858642488718033,10,{}
attack_corridor_base_15,1,alt_yawl_spoof,60854,0.001150410738773644,0.0009578220779076219,-0.09232048690319061,-35.3632621,149.1652375,-0.006,-0.01,0.01,0.0,-9.942202450474724e-05,9.444935858482495e-05,0.0,1000,1000,1000,1000,12600,0,0.0028073571156710386,0.0027939474675804377,0.0025490240659564734,10,{}
attack_corridor_base_15,1,alt_yawl_spoof,61104,0.0011544468579813838,0.0009534537675790489,-0.09241681545972824,-35.3632621,149.1652375,-0.006,-0.01,0.01,0.0,-9.94220536085777e-05,9.444938041269779e-05,0.0,1000,1000,1000,1000,12600,0,0.0024771462194621563,0.002921856939792633,0.002871362492442131,10,{}
attack_corridor_base_15,1,alt_yawl_spoof,61354,0.0011568383779376745,0.0009573406423442066,-0.09250973165035248,-35.3632622,149.1652375,-0.006,-0.01,0.01,0.0,-9.942203905666247e-05,9.444936586078256e-05,0.0,1000,1000,1000,1000,12600,0,0.0030547152273356915,0.003092537634074688,0.0030781265813857317,10,{}
attack_corridor_base_15,1,alt_yawl_spoof,61604,0.0011642789468169212,0.0009606921812519431,-0.09260385483503342,-35.3632622,149.1652375,-0.006,-0.01,0.01,0.0,-9.942208998836577e-05,9.444937313674018e-05,0.0,1000,1000,1000,1000,12600,0,0.002779454691335559,0.002832135884091258,0.002989922184497118,10,{}
attack_corridor_base_15,1,alt_yawl_spoof,61854,0.0011553490767255425,0.0009530881070531905,-0.09267980605363846,-35.3632622,149.1652375,-0.006,-0.01,0.01,0.0,-9.942208998836577e-05,9.444940951652825e-05,0.0,1000,1000,1000,1000,12600,0,0.002935419324785471,0.0027865516021847725,0.0030348747968673706,10,{}
attack_corridor_base_15,1,alt_yawl_spoof,62104,0.001157258404418826,0.0009556295699439943,-0.09276822954416275,-35.3632621,149.1652375,-0.006,-0.01,0.01,0.0,-9.942209726432338e-05,9.444942406844348e-05,0.0,1000,1000,1000,1000,12600,0,0.002529751742258668,0.0028320522978901863,0.002814509440213442,10,{}
attack_corridor_base_15,1,alt_yawl_spoof,62354,0.0011614286340773106,0.0009541811887174845,-0.09286416321992874,-35.3632622,149.1652375,-0.006,-0.01,0.01,0.0,-9.942213364411145e-05,9.444946044823155e-05,0.0,1000,1000,1000,1000,12600,0,0.002675029681995511,0.002683610888198018,0.002634878735989332,10,{}
attack_corridor_base_15,1,alt_yawl_spoof,62604,0.001163510256446898,0.0009637571638450027,-0.09294836223125458,-35.3632622,149.1652375,-0.006,-0.01,0.01,0.0,-9.942212636815384e-05,9.444947500014678e-05,0.0,1000,1000,1000,1000,12600,0,0.0026495237834751606,0.0029550199396908283,0.0028511269483715296,10,{}
attack_corridor_base_15,1,alt_yawl_spoof,62854,0.0011605904437601566,0.0009622889338061213,-0.09304437786340714,-35.3632621,149.1652375,-0.006,-0.01,0.01,0.0,-9.942213364411145e-05,9.4449489552062e-05,0.0,1000,1000,1000,1000,12600,0,0.0026120177935808897,0.0031740327831357718,0.0026498541701585054,10,{}
attack_corridor_base_15,1,alt_yawl_spoof,63104,0.0011594954412430525,0.0009676155168563128,-0.09313931316137314,-35.3632621,149.1652375,-0.006,-0.01,0.01,0.0,-9.942211181623861e-05,9.44494386203587e-05,0.0,1000,1000,1000,1000,12600,0,0.0029464049730449915,0.002858156571164727,0.002694616559892893,10,{}
attack_corridor_base_15,1,alt_yawl_spoof,63354,0.0011588280322030187,0.0009658740018494427,-0.09323497116565704,-35.3632622,149.1652375,-0.006,-0.01,0.01,0.0,-9.942212636815384e-05,9.444942406844348e-05,0.0,1000,1000,1000,1000,12600,0,0.0027962704189121723,0.002633239608258009,0.002851770492270589,10,{}
attack_corridor_base_15,1,alt_yawl_spoof,63604,0.001162234926596284,0.0009747346048243344,-0.09331740438938141,-35.3632622,149.1652375,-0.006,-0.01,0.01,0.0,-9.942211181623861e-05,9.44493876886554e-05,0.0,1000,1000,1000,1000,12600,0,0.0028849670197814703,0.002517062472179532,0.002650013891980052,10,{}
attack_corridor_base_15,1,alt_yawl_spoof,63854,0.0011584690073505044,0.0009707882418297231,-0.09340238571166992,-35.3632622,149.1652375,-0.006,-0.01,0.01,0.0,-9.942208998836577e-05,9.444940951652825e-05,0.0,1000,1000,1000,1000,12600,0,0.002952449256554246,0.0029838234186172485,0.002890804084017873,10,{}
attack_corridor_base_15,1,alt_yawl_spoof,64104,0.0011628748616203666,0.0009624826489016414,-0.09348593652248383,-35.3632622,149.1652375,-0.006,-0.01,0.01,0.0,-9.942211909219623e-05,9.444942406844348e-05,0.0,1000,1000,1000,1000,12600,0,0.0027495338581502438,0.0030118876602500677,0.0031028869561851025,10,{}
attack_corridor_base_15,1,alt_yawl_spoof,64354,0.0011642989702522755,0.0009641905198805034,-0.09357450902462006,-35.3632622,149.1652375,-0.006,-0.01,0.01,0.0,-9.94221554719843e-05,9.44494386203587e-05,0.0,1000,1000,1000,1000,12600,0,0.0029476762283593416,0.0028871356043964624,0.002852474106475711,10,{}
attack_corridor_base_15,1,alt_yawl_spoof,64604,0.0011741885682567954,0.0009669042192399502,-0.09365779906511307,-35.3632622,149.1652375,-0.006,-0.01,0.01,0.0,-9.942217002389953e-05,9.444946044823155e-05,0.0,1000,1000,1000,1000,12600,0,0.002898129168897867,0.0029549153987318277,0.002889412920922041,10,{}
attack_corridor_base_15,1,alt_yawl_spoof,64854,0.001171768642961979,0.0009591298294253647,-0.09374520927667618,-35.3632622,149.1652375,-0.006,-0.01,0.01,0.0,-9.94222064036876e-05,9.444946044823155e-05,0.0,1000,1000,1000,1000,12600,0,0.0028465164359658957,0.00294336024671793,0.002842680085450411,10,{}
attack_corridor_base_15,1,alt_yawl_spoof,65104,0.0011643279576674104,0.0009521925821900368,-0.09382952749729156,-35.3632622,149.1652375,-0.006,-0.01,0.01,0.0,-9.942217729985714e-05,9.444944589631632e-05,0.0,1000,1000,1000,1000,12600,0,0.002917112782597542,0.0030844872817397118,0.002727409591898322,10,{}
attack_corridor_base_15,1,alt_yawl_spoof,65354,0.0011631908128038049,0.0009588183602318168,-0.09391146153211594,-35.3632622,149.1652375,-0.006,-0.01,0.01,0.0,-9.942219185177237e-05,9.444948227610439e-05,0.0,1000,1000,1000,1000,12600,0,0.0027859716210514307,0.0027978583239018917,0.0029240730218589306,10,{}
attack_corridor_base_15,1,alt_yawl_spoof,65604,0.0011660548625513911,0.0009660825016908348,-0.09399561583995819,-35.3632622,149.1652375,-0.006,-0.01,0.01,0.0,-9.942219185177237e-05,9.4449489552062e-05,0.0,1000,1000,1000,1000,12600,0,0.0027187808882445097,0.0025703967548906803,0.0027245362289249897,10,{}
attack_corridor_base_15,1,alt_yawl_spoof,65854,0.0011631697416305542,0.0009609948610886931,-0.09408164024353027,-35.3632621,149.1652375,-0.006,-0.01,0.01,0.0,-9.942218457581475e-05,9.4449489552062e-05,0.0,1000,1000,1000,1000,12600,0,0.0027193487621843815,0.003015837399289012,0.00267512584105134,10,{}
attack_corridor_base_15,1,alt_yawl_spoof,66104,0.0011659893207252026,0.0009625441743992269,-0.09415919333696365,-35.3632621,149.1652375,-0.006,-0.01,0.01,0.0,-9.942219912772998e-05,9.4449489552062e-05,0.0,1000,1000,1000,1000,12600,0,0.0026407046243548393,0.0029035003390163183,0.0028565218672156334,10,{}
attack_corridor_base_15,1,alt_yawl_spoof,66354,0.0011718731839209795,0.0009609108092263341,-0.0942363440990448,-35.3632621,149.1652375,-0.006,-0.01,0.01,0.0,-9.942219912772998e-05,9.444950410397723e-05,0.0,1000,1000,1000,1000,12600,0,0.0027958459686487913,0.00286304485052824,0.0027418937534093857,10,{}
attack_corridor_base_15,1,alt_yawl_spoof,66604,0.0011726110242307186,0.0009753918275237083,-0.09431953728199005,-35.3632621,149.1652375,-0.006,-0.01,0.01,0.0,-9.942219912772998e-05,9.444949682801962e-05,0.0,1000,1000,1000,1000,12600,0,0.0029651187360286713,0.0026440012734383345,0.002666248008608818,10,{}
attack_corridor_base_15,1,alt_yawl_spoof,66854,0.0011725417571142316,0.0009709883597679436,-0.09439033269882202,-35.3632621,149.1652375,-0.006,-0.01,0.01,0.0,-9.94221554719843e-05,9.444948227610439e-05,0.0,1000,1000,1000,1000,12600,0,0.0024607828818261623,0.0028213772457093,0.0029791288543492556,10,{}
