flight_id,label,attack_type,timestamp,att_roll,att_pitch,att_yaw,pos_lat,pos_lon,pos_alt_rel,pos_vx,pos_vy,pos_vz,nav_roll,nav_pitch,nav_alt_error,servo1_raw,servo2_raw,servo3_raw,servo4_raw,sys_voltage_battery,sys_load,vib_x,vib_y,vib_z,gps_sats_visible,attack_params_json
normal_corridor_base_12,0,none,10111,0.000190781443961896,-4.105456901015714e-05,-0.34561067819595337,-35.3632621,149.1652374,0.0,0.0,0.0,-0.03,-9.942173346644267e-05,9.444946044823155e-05,0.0,1000,1000,1000,1000,12600,0,0.0029945431742817163,0.0027328000869601965,0.0028513846918940544,3,{}
normal_corridor_base_12,0,none,10444,0.00019830529345199466,-3.126108640572056e-05,-0.32135072350502014,-35.3632621,149.1652374,0.0,0.0,0.0,-0.03,-9.942168253473938e-05,9.444936586078256e-05,0.0,1000,1000,1000,1000,12600,0,0.0027236375026404858,0.0029971764888614416,0.0027437738608568907,10,{}
normal_corridor_base_12,0,none,10777,0.00020223279716446996,-2.182633579650428e-05,-0.2812674343585968,-35.3632621,149.1652374,0.0,0.0,0.0,-0.03,-9.942168253473938e-05,9.444936586078256e-05,0.0,1000,1000,1000,1000,12600,0,0.002936981152743101,0.0026990105397999287,0.0030080312862992287,10,{}
normal_corridor_base_12,0,none,11109,0.0002045514265773818,-1.3981329175294377e-05,-0.25578999519348145,-35.3632621,149.1652374,0.0,0.0,0.0,-0.03,-9.942165343090892e-05,9.444937313674018e-05,0.0,1000,1000,1000,1000,12600,0,0.0026167379692196846,0.0026496623177081347,0.002777101704850793,10,{}
normal_corridor_base_12,0,none,11442,0.00020907704310957342,-5.3779108384333085e-06,-0.23170457780361176,-35.3632621,149.1652374,0.0,0.0,0.0,-0.03,-9.9421595223248e-05,9.444938041269779e-05,0.0,1000,1000,1000,1000,12600,0,0.00292648165486753,0.0027029039338231087,0.0026662019081413746,10,{}
normal_corridor_base_12,0,none,11776,0.00021798191301058978,3.159728976243059e-06,-0.2028505802154541,-35.3632621,149.1652374,0.0,0.0,0.0,-0.03,-9.9421595223248e-05,9.444938041269779e-05,0.0,1000,1000,1000,1000,12600,0,0.00307382270693779,0.002574334619566798,0.002478667302057147,10,{}
normal_corridor_base_12,0,none,12109,0.00022102725051809102,1.574721682118252e-05,-0.18405508995056152,-35.3632621,149.1652374,0.0,0.0,0.0,-0.02,-9.942157339537516e-05,9.444939496461302e-05,0.0,1000,1000,1000,1000,12600,0,0.003086699405685067,0.0029116671066731215,0.00279593444429338,10,{}
normal_corridor_base_12,0,none,12441,0.00022747910406906158,2.3202057491289452e-05,-0.16726437211036682,-35.3632621,149.1652374,0.0,0.0,0.0,-0.02,-9.942166798282415e-05,9.444940951652825e-05,0.0,1000,1000,1000,1000,12600,0,0.002696191193535924,0.002953797113150358,0.0028555316384881735,10,{}
normal_corridor_base_12,0,none,12774,0.0002373255993006751,3.506781649775803e-05,-0.14768683910369873,-35.3632621,149.1652374,0.0,0.0,0.0,-0.02,-9.942166798282415e-05,9.444940951652825e-05,0.0,1000,1000,1000,1000,12600,0,0.0029847146943211555,0.00281728059053421,0.0028939649928361177,10,{}
normal_corridor_base_12,0,none,13107,0.00024547686916776,3.703739639604464e-05,-0.1350124627351761,-35.3632621,149.1652374,0.0,0.0,0.0,-0.02,-9.94216461549513e-05,9.444936586078256e-05,0.0,1000,1000,1000,1000,12600,0,0.002802817849442363,0.0026616130489856005,0.0028761134017258883,10,{}
normal_corridor_base_12,0,none,13442,0.0002553132944740355,4.350167728262022e-05,-0.12381405383348465,-35.3632621,149.1652374,0.0,0.0,0.0,-0.01,-9.942163887899369e-05,9.444939496461302e-05,0.0,1000,1000,1000,1000,12600,0,0.0025155949406325817,0.0025825307238847017,0.0028201418463140726,10,{}
normal_corridor_base_12,0,none,13774,0.0002668333472684026,5.63504290767014e-05,-0.11083433777093887,-35.3632621,149.1652374,0.0,0.0,0.0,-0.01,-9.942163887899369e-05,9.444939496461302e-05,0.0,1000,1000,1000,1000,12600,0,0.002751291263848543,0.0025570346042513847,0.002654328942298889,10,{}
normal_corridor_base_12,0,none,14106,0.00027506411424838006,6.426700565498322e-05,-0.10256087779998779,-35.3632621,149.1652374,0.0,0.0,0.0,-0.01,-9.942155884345993e-05,9.444938041269779e-05,0.0,1000,1000,1000,1000,12600,0,0.002659844234585762,0.002684412058442831,0.0028586811386048794,10,{}
normal_corridor_base_12,0,none,14439,0.0002816470223478973,7.559493678854778e-05,-0.09531483054161072,-35.3632621,149.1652374,0.0,0.0,0.0,-0.01,-9.942151518771425e-05,9.444933675695211e-05,0.0,1000,1000,1000,1000,12600,0,0.002810132224112749,0.00294885435141623,0.0025170487351715565,10,{}
normal_corridor_base_12,0,none,14774,0.0003014462999999523,9.041570592671633e-05,-0.08708494156599045,-35.3632621,149.1652374,0.0,0.0,0.0,-0.01,-9.942151518771425e-05,9.444933675695211e-05,0.0,1000,1000,1000,1000,12600,0,0.0027717493940144777,0.002765318378806114,0.0027167543303221464,10,{}
normal_corridor_base_12,0,none,15349,0.0003205524990335107,0.00010664091678336263,-0.07729026675224304,-35.3632621,149.1652374,0.0,0.0,0.0,-0.01,-9.942147153196856e-05,9.444930037716404e-05,0.0,1000,1000,1000,1000,12600,0,0.0029491332825273275,0.0026346691884100437,0.0027181031182408333,10,{}
normal_corridor_base_12,0,none,15599,0.00033095263643190265,0.00011201849702047184,-0.07388126105070114,-35.3632621,149.1652374,0.0,0.0,0.0,-0.01,-9.942147153196856e-05,9.444930037716404e-05,0.0,1000,1000,1000,1000,12600,0,0.0029491332825273275,0.0026346691884100437,0.0027181031182408333,10,{}
normal_corridor_base_12,0,none,15849,0.00033672197605483234,0.00012038844579365104,-0.07100557535886765,-35.3632621,149.1652374,0.0,0.0,0.0,0.0,-9.942148608388379e-05,9.444936586078256e-05,0.0,1000,1000,1000,1000,12600,0,0.0027457731775939465,0.0027920063585042953,0.0025851186364889145,10,{}
normal_corridor_base_12,0,none,16099,0.00034511275589466095,0.00013030838454142213,-0.06830140203237534,-35.3632621,149.1652374,0.0,0.0,0.0,0.0,-9.942148608388379e-05,9.444936586078256e-05,0.0,1000,1000,1000,1000,12600,0,0.002653883071616292,0.0029825179371982813,0.002498398767784238,10,{}
normal_corridor_base_12,0,none,16449,0.00035294689587317407,0.00013775407569482923,-0.06601767987012863,-35.3632621,149.1652374,0.0,0.0,0.0,0.0,-9.942147880792618e-05,9.444935858482495e-05,0.0,1000,1000,1000,1000,12600,0,0.0031063947826623917,0.0028827935457229614,0.0026899180375039577,10,{}
normal_corridor_base_12,0,none,16784,0.00036556413397192955,0.0001451339921914041,-0.06393253058195114,-35.3632621,149.1652374,0.0,0.0,0.0,0.0,-9.94214933598414e-05,9.444938041269779e-05,0.0,1000,1000,1000,1000,12600,0,0.003083069808781147,0.0026461174711585045,0.002665248466655612,10,{}
normal_corridor_base_12,0,none,17117,0.0003866468614432961,0.00015785201685503125,-0.06078854203224182,-35.3632621,149.1652374,0.0,0.0,0.0,0.0,-9.94214933598414e-05,9.444938041269779e-05,0.0,1000,1000,1000,1000,12600,0,0.0028824140317738056,0.0028947254177182913,0.002837640233337879,10,{}
normal_corridor_base_12,0,none,17449,0.00039598075090907514,0.00016818726726341993,-0.05916174501180649,-35.3632621,149.1652374,0.0,0.0,0.0,0.0,-9.942150791175663e-05,9.444936586078256e-05,0.0,1000,1000,1000,1000,12600,0,0.0029653243254870176,0.0026881631929427385,0.0030038056429475546,10,{}
normal_corridor_base_12,0,none,17782,0.0004120526136830449,0.00018316622299607843,-0.057342611253261566,-35.3632621,149.1652374,0.0,0.0,0.0,0.0,-9.9421595223248e-05,9.444937313674018e-05,0.0,1000,1000,1000,1000,12600,0,0.0027544619515538216,0.002797184744849801,0.0026503675617277622,10,{}
normal_corridor_base_12,0,none,18114,0.00042272143764421344,0.00019986093684565276,-0.056249573826789856,-35.3632621,149.1652374,0.0,0.0,0.0,0.0,-9.9421595223248e-05,9.444937313674018e-05,0.0,1000,1000,1000,1000,12600,0,0.0030271471478044987,0.00275028427131474,0.0026815058663487434,10,{}
normal_corridor_base_12,0,none,18449,0.0004360733728390187,0.00021074965479783714,-0.05533202737569809,-35.3632621,149.1652374,0.0,0.0,0.0,0.0,-9.942168253473938e-05,9.444936586078256e-05,0.0,1000,1000,1000,1000,12600,0,0.0025862609036266804,0.002716438379138708,0.0027368473820388317,10,{}
normal_corridor_base_12,0,none,18781,0.00045208208030089736,0.00022998331405688077,-0.054404404014348984,-35.3632621,149.1652374,0.0,0.0,0.0,0.0,-9.9421595223248e-05,9.444927127333358e-05,0.0,1000,1000,1000,1000,12600,0,0.0023649530485272408,0.0029357203748077154,0.0029297075234353542,10,{}
normal_corridor_base_12,0,none,19114,0.0004715971590485424,0.00024600743199698627,-0.053855109959840775,-35.3632621,149.1652374,0.0,0.0,0.0,0.0,-9.9421595223248e-05,9.444927127333358e-05,0.0,1000,1000,1000,1000,12600,0,0.003042439464479685,0.0033596165012568235,0.00261434237472713,10,{}
normal_corridor_base_12,0,none,19447,0.0004836409061681479,0.0002548346819821745,-0.05346730723977089,-35.3632621,149.1652374,0.0,0.0,0.0,0.0,-9.942161705112085e-05,9.444930037716404e-05,0.0,1000,1000,1000,1000,12600,0,0.0029662447050213814,0.002745550824329257,0.0031380392611026764,10,{}
normal_corridor_base_12,0,none,19779,0.00050473737064749,0.00027280894573777914,-0.05305275693535805,-35.3632621,149.1652374,0.0,0.0,0.0,0.0,-9.942163160303608e-05,9.444932948099449e-05,0.0,1000,1000,1000,1000,12600,0,0.003033393295481801,0.0025994679890573025,0.002603647531941533,10,{}
normal_corridor_base_12,0,none,20114,0.0005284379003569484,0.00028864172054454684,-0.05273432284593582,-35.3632621,149.1652374,0.006,0.0,0.0,0.0,-9.942163160303608e-05,9.444932948099449e-05,0.0,1000,1000,1000,1000,12600,0,0.0028168000280857086,0.0029219486750662327,0.002752639353275299,10,{}
normal_corridor_base_12,0,none,20446,0.000537962419912219,0.00030602733022533357,-0.052629850804805756,-35.3632621,149.1652374,-0.008,0.0,0.0,0.0,-9.942174074240029e-05,9.444937313674018e-05,0.0,1000,1000,1000,1000,12600,0,0.002922794548794627,0.0028395350091159344,0.0027670005802065134,10,{}
normal_corridor_base_12,0,none,20779,0.0005573842208832502,0.00032534965430386364,-0.052688371390104294,-35.3632621,149.1652374,-0.007,0.0,0.0,0.0,-9.94217480183579e-05,9.444942406844348e-05,0.0,1000,1000,1000,1000,12600,0,0.0027554272674024105,0.0025816583074629307,0.0029378002509474754,10,{}
normal_corridor_base_12,0,none,21111,0.0005716541199944913,0.000341476610628888,-0.05278940498828888,-35.3632621,149.1652374,-0.006,0.0,0.0,0.0,-9.94217480183579e-05,9.444942406844348e-05,0.0,1000,1000,1000,1000,12600,0,0.0028503225184977055,0.002779742470011115,0.003106513526290655,10,{}
normal_corridor_base_12,0,none,21444,0.0005907176528126001,0.00035506347194314003,-0.052961014211177826,-35.3632621,149.1652374,-0.004,0.0,0.0,0.0,-9.942179167410359e-05,9.444939496461302e-05,0.0,1000,1000,1000,1000,12600,0,0.0027665155939757824,0.002880652667954564,0.002946410793811083,10,{}
normal_corridor_base_12,0,none,21777,0.0006157777970656753,0.0003778706886805594,-0.05321364477276802,-35.3632621,149.1652374,-0.003,0.0,0.0,0.0,-9.942178439814597e-05,9.444934403290972e-05,0.0,1000,1000,1000,1000,12600,0,0.0028747450560331345,0.002795524662360549,0.002803472802042961,10,{}
normal_corridor_base_12,0,none,22111,0.0006351059419102967,0.0003932792169507593,-0.05347543954849243,-35.3632621,149.1652374,-0.001,0.0,0.01,0.0,-9.942178439814597e-05,9.444934403290972e-05,0.0,1000,1000,1000,1000,12600,0,0.002959363628178835,0.0028097021859139204,0.002849629847332835,10,{}
normal_corridor_base_12,0,none,22444,0.0006519039743579924,0.00041207383037544787,-0.05377569794654846,-35.3632621,149.1652374,0.0,0.0,0.01,0.0,-9.942184260580689e-05,9.444941679248586e-05,0.0,1000,1000,1000,1000,12600,0,0.0026349069084972143,0.002968538086861372,0.00281947641633451,10,{}
normal_corridor_base_12,0,none,22776,0.0006754405912943184,0.00043938803719356656,-0.05422259494662285,-35.3632621,149.1652374,0.0,0.0,0.01,0.0,-9.942196629708633e-05,9.4449489552062e-05,0.0,1000,1000,1000,1000,12600,0,0.0025747024919837713,0.0027336080092936754,0.0026329997926950455,10,{}
normal_corridor_base_12,0,none,23109,0.0006944321794435382,0.0004587020957842469,-0.05458054691553116,-35.3632621,149.1652374,0.001,-0.01,0.01,0.0,-9.942196629708633e-05,9.4449489552062e-05,0.0,1000,1000,1000,1000,12600,0,0.0029860998038202524,0.0025420531164854765,0.002779157366603613,10,{}
normal_corridor_base_12,0,none,23442,0.0007071369327604771,0.0004751414235215634,-0.054996900260448456,-35.3632621,149.1652374,0.001,-0.01,0.01,0.0,-9.942192991729826e-05,9.444944589631632e-05,0.0,1000,1000,1000,1000,12600,0,0.0028339943382889032,0.002814431441947818,0.0028801870066672564,10,{}
normal_corridor_base_12,0,none,23777,0.0007262327708303928,0.0004960205405950546,-0.055500734597444534,-35.3632621,149.1652374,0.002,-0.01,0.01,0.0,-9.942183532984927e-05,9.444942406844348e-05,0.0,1000,1000,1000,1000,12600,0,0.002760831033810973,0.0027959716971963644,0.002792046405375004,10,{}
normal_corridor_base_12,0,none,24109,0.0007414416177198291,0.000514271087013185,-0.05592181161046028,-35.3632621,149.1652374,0.002,-0.01,0.01,0.0,-9.942183532984927e-05,9.444942406844348e-05,0.0,1000,1000,1000,1000,12600,0,0.00295012048445642,0.0030487251933664083,0.0026392494328320026,10,{}
normal_corridor_base_12,0,none,24441,0.0007534923497587442,0.0005284282960928977,-0.05637047439813614,-35.3632621,149.1652374,0.002,-0.01,0.01,0.0,-9.942186443367973e-05,9.444941679248586e-05,0.0,1000,1000,1000,1000,12600,0,0.0026648547500371933,0.002704920480027795,0.002564628841355443,10,{}
normal_corridor_base_12,0,none,24774,0.0007742479792796075,0.000552117358893156,-0.056944094598293304,-35.3632621,149.1652374,0.003,-0.01,0.01,0.0,-9.942188626155257e-05,9.444945317227393e-05,0.0,1000,1000,1000,1000,12600,0,0.003022202756255865,0.0028200121596455574,0.002635172801092267,10,{}
normal_corridor_base_12,0,none,25109,0.0007923318771645427,0.0005688188248313963,-0.05740451440215111,-35.3632621,149.1652374,0.003,-0.01,0.01,0.0,-9.942188626155257e-05,9.444945317227393e-05,0.0,1000,1000,1000,1000,12600,0,0.002757113426923752,0.0028004185296595097,0.0026726634241640568,10,{}
normal_corridor_base_12,0,none,25442,0.0008023889386095107,0.0005791790317744017,-0.05785072594881058,-35.3632621,149.1652374,0.003,-0.01,0.01,0.0,-9.942192264134064e-05,9.444953320780769e-05,0.0,1000,1000,1000,1000,12600,0,0.0028141734655946493,0.0029965147841721773,0.0030111391097307205,10,{}
normal_corridor_base_12,0,none,25774,0.0008220034651458263,0.0006034892285242677,-0.05835883691906929,-35.3632621,149.1652374,0.003,-0.01,0.01,0.0,-9.942190808942541e-05,9.444952593185008e-05,0.0,1000,1000,1000,1000,12600,0,0.002750328043475747,0.002990604378283024,0.0029237507842481136,10,{}
normal_corridor_base_12,0,none,26107,0.0008376507321372628,0.0006185439415276051,-0.058847930282354355,-35.3632621,149.1652374,0.002,-0.01,0.01,0.0,-9.942190808942541e-05,9.444952593185008e-05,0.0,1000,1000,1000,1000,12600,0,0.0029084051493555307,0.0026225419715046883,0.003122099209576845,10,{}
normal_corridor_base_12,0,none,26439,0.0008529369370080531,0.0006222206284292042,-0.05934545770287514,-35.3632621,149.1652374,0.002,-0.01,0.01,0.0,-9.94219008134678e-05,9.444946772418916e-05,0.0,1000,1000,1000,1000,12600,0,0.0024853975046426058,0.002808647695928812,0.00277660577557981,10,{}
normal_corridor_base_12,0,none,26774,0.0008709964458830655,0.0006324886344373226,-0.0599963515996933,-35.3632621,149.1652374,0.002,-0.01,0.01,0.0,-9.942190808942541e-05,9.444944589631632e-05,0.0,1000,1000,1000,1000,12600,0,0.0025355499237775803,0.0028357121627777815,0.0025186161510646343,10,{}
normal_corridor_base_12,0,none,27106,0.0008798674680292606,0.0006457478739321232,-0.06049758568406105,-35.3632621,149.1652374,0.002,-0.01,0.01,0.0,-9.942190808942541e-05,9.444944589631632e-05,0.0,1000,1000,1000,1000,12600,0,0.003057031659409404,0.0031000918243080378,0.003033478045836091,10,{}
normal_corridor_base_12,0,none,27439,0.0008961819112300873,0.0006548145902343094,-0.060988955199718475,-35.3632621,149.1652374,0.002,-0.01,0.01,0.0,-9.942198812495917e-05,9.444950410397723e-05,0.0,1000,1000,1000,1000,12600,0,0.002705236431211233,0.002791258040815592,0.002918601967394352,10,{}
normal_corridor_base_12,0,none,27772,0.0009085144265554845,0.0006679657381027937,-0.06166905537247658,-35.3632621,149.1652374,0.001,-0.01,0.01,0.0,-9.942195902112871e-05,9.444949682801962e-05,0.0,1000,1000,1000,1000,12600,0,0.0029409343842417,0.0024663610383868217,0.002618452999740839,10,{}
normal_corridor_base_12,0,none,28104,0.0009184865630231798,0.0006803253199905157,-0.06214921176433563,-35.3632621,149.1652374,0.001,-0.01,0.01,0.0,-9.942195902112871e-05,9.444949682801962e-05,0.0,1000,1000,1000,1000,12600,0,0.0027896047104150057,0.0031265586148947477,0.00281012081541121,10,{}
normal_corridor_base_12,0,none,28439,0.0009297449723817408,0.0006912761018611491,-0.06266115605831146,-35.3632621,149.1652374,0.001,-0.01,0.01,0.0,-9.942203905666247e-05,9.444957686355338e-05,0.0,1000,1000,1000,1000,12600,0,0.0028174156323075294,0.002697666408494115,0.0028310406487435102,10,{}
normal_corridor_base_12,0,none,28771,0.0009440077119506896,0.0007106679258868098,-0.06329479068517685,-35.3632621,149.1652374,0.0,-0.01,0.01,0.0,-9.9422104540281e-05,9.444962779525667e-05,0.0,1000,1000,1000,1000,12600,0,0.002899352228268981,0.002739762421697378,0.002936062403023243,10,{}
normal_corridor_base_12,0,none,29104,0.0009535555727779865,0.0007272745133377612,-0.06378049403429031,-35.3632621,149.1652374,0.0,-0.01,0.01,0.0,-9.9422104540281e-05,9.444962779525667e-05,0.0,1000,1000,1000,1000,12600,0,0.0027906408067792654,0.002655034651979804,0.002567696152254939,10,{}
normal_corridor_base_12,0,none,29436,0.0009702077368274331,0.0007377756992354989,-0.06425374001264572,-35.3632621,149.1652374,0.0,-0.01,0.01,0.0,-9.942224278347567e-05,9.444970055483282e-05,0.0,1000,1000,1000,1000,12600,0,0.0027512589003890753,0.00261367904022336,0.0028550545684993267,10,{}
normal_corridor_base_12,0,none,29769,0.0009819482220336795,0.0007511000148952007,-0.06489104777574539,-35.3632621,149.1652374,0.0,-0.01,0.02,0.0,-9.942232281900942e-05,9.444971510674804e-05,0.0,1000,1000,1000,1000,12600,0,0.0030504597816616297,0.003214585827663541,0.002874392317607999,10,{}
normal_corridor_base_12,0,none,30446,0.0009987344965338707,0.00077628722647205,-0.06582152843475342,-35.3632621,149.1652374,-0.001,-0.01,0.02,0.0,-9.942238102667034e-05,9.44497951422818e-05,0.0,1000,1000,1000,1000,12600,0,0.0029143784195184708,0.0027102059684693813,0.002842535264790058,10,{}
normal_corridor_base_12,0,none,30779,0.0010023090289905667,0.0007827761000953615,-0.06619567424058914,-35.3632621,149.1652374,-0.001,-0.01,0.02,0.0,-9.942243923433125e-05,9.444986062590033e-05,0.0,1000,1000,1000,1000,12600,0,0.002648950321599841,0.0027311062440276146,0.002976092277094722,10,{}
normal_corridor_base_12,0,none,31111,0.0010156867792829871,0.0007935324101708829,-0.06688246130943298,-35.3632621,149.1652374,-0.002,-0.01,0.02,0.0,-9.942252654582262e-05,9.444993338547647e-05,0.0,1000,1000,1000,1000,12600,0,0.002726208185777068,0.0030055996030569077,0.00292607001028955,10,{}
normal_corridor_base_12,0,none,31444,0.0010337206767871976,0.0008012381149455905,-0.06747827678918839,-35.3632621,149.1652374,-0.002,-0.01,0.02,0.0,-9.942250471794978e-05,9.444992610951886e-05,0.0,1000,1000,1000,1000,12600,0,0.002876394661143422,0.002777603454887867,0.002847544616088271,10,{}
normal_corridor_base_12,0,none,31777,0.001041989540681243,0.0008101232815533876,-0.0678538978099823,-35.3632621,149.1652374,-0.002,-0.01,0.02,0.0,-9.942250471794978e-05,9.444992610951886e-05,0.0,1000,1000,1000,1000,12600,0,0.0026787722017616034,0.0029108014423400164,0.0029528187587857246,10,{}
normal_corridor_base_12,0,none,32112,0.001043469994328916,0.0008114015217870474,-0.06829798221588135,-35.3632621,149.1652374,-0.003,-0.01,0.02,0.0,-9.942247561411932e-05,9.444993338547647e-05,0.0,1000,1000,1000,1000,12600,0,0.0027664804365485907,0.0030486523173749447,0.0026776576414704323,10,{}
normal_corridor_base_12,0,none,32444,0.0010575292399153113,0.0008213513647206128,-0.06889177858829498,-35.3632621,149.1652374,-0.003,-0.01,0.02,0.0,-9.942244651028886e-05,9.444993338547647e-05,0.0,1000,1000,1000,1000,12600,0,0.0030057565309107304,0.0029345352668315172,0.0028191276360303164,10,{}
normal_corridor_base_12,0,none,32776,0.0010678402613848448,0.0008342090295627713,-0.06932243704795837,-35.3632621,149.1652374,-0.004,-0.01,0.02,0.0,-9.9422519269865e-05,9.444996976526454e-05,0.0,1000,1000,1000,1000,12600,0,0.0027807855512946844,0.002762842457741499,0.002959632547572255,10,{}
normal_corridor_base_12,0,none,33109,0.0010738769778981805,0.0008461323450319469,-0.06975017488002777,-35.3632621,149.1652374,-0.004,-0.01,0.02,0.0,-9.9422519269865e-05,9.444996976526454e-05,0.0,1000,1000,1000,1000,12600,0,0.002670297399163246,0.0025528345722705126,0.002826814539730549,10,{}
normal_corridor_base_12,0,none,33444,0.0010937334736809134,0.000864408619236201,-0.07032108306884766,-35.3632621,149.1652374,-0.004,-0.01,0.02,0.0,-9.94225702015683e-05,9.444994066143408e-05,0.0,1000,1000,1000,1000,12600,0,0.0026301320176571608,0.0025768326595425606,0.002805015305057168,10,{}
normal_corridor_base_12,0,none,33777,0.0011073463829234242,0.0008719387114979327,-0.07074862718582153,-35.3632621,149.1652374,-0.004,-0.01,0.02,0.0,-9.942254837369546e-05,9.444995521334931e-05,0.0,1000,1000,1000,1000,12600,0,0.0029911010060459375,0.0027505657635629177,0.0028736505191773176,10,{}
normal_corridor_base_12,0,none,34109,0.0011170399375259876,0.0008764348458498716,-0.07117390632629395,-35.3632621,149.1652374,-0.005,-0.02,0.02,0.0,-9.942254837369546e-05,9.444995521334931e-05,0.0,1000,1000,1000,1000,12600,0,0.0026264593470841646,0.0027484865859150887,0.002770058810710907,10,{}
normal_corridor_base_12,0,none,34442,0.0011207113275304437,0.0008886904106475413,-0.07157678157091141,-35.3632621,149.1652374,-0.005,-0.02,0.02,0.0,-9.942249744199216e-05,9.444998431717977e-05,0.0,1000,1000,1000,1000,12600,0,0.0026197130791842937,0.0027245169039815664,0.002743419259786606,10,{}
normal_corridor_base_12,0,none,34774,0.0011357460170984268,0.0009070951491594315,-0.07211215794086456,-35.3632621,149.1652374,-0.005,-0.02,0.02,0.0,-9.942241740645841e-05,9.444996248930693e-05,0.0,1000,1000,1000,1000,12600,0,0.0027685603126883507,0.0027070469222962856,0.003012235974892974,10,{}
normal_corridor_base_12,0,none,35109,0.001146532129496336,0.0009186655515804887,-0.07250596582889557,-35.3632621,149.1652374,-0.005,-0.02,0.02,0.0,-9.942241740645841e-05,9.444996248930693e-05,0.0,1000,1000,1000,1000,12600,0,0.002742262091487646,0.0029212108347564936,0.002667405176907778,10,{}
normal_corridor_base_12,0,none,35441,0.0011514134239405394,0.0009284758125431836,-0.07289955019950867,-35.3632621,149.1652374,-0.005,-0.02,0.02,0.0,-9.942232281900942e-05,9.44499479373917e-05,0.0,1000,1000,1000,1000,12600,0,0.0024827010929584503,0.002983104670420289,0.0025194156914949417,10,{}
normal_corridor_base_12,0,none,35774,0.0011623917380347848,0.000931014190427959,-0.07342804968357086,-35.3632621,149.1652374,-0.005,-0.02,0.02,0.0,-9.942238102667034e-05,9.44499479373917e-05,0.0,1000,1000,1000,1000,12600,0,0.0025372414384037256,0.002966016996651888,0.0028105019591748714,10,{}
normal_corridor_base_12,0,none,36107,0.0011666876962408423,0.0009388420730829239,-0.07374388724565506,-35.3632621,149.1652374,-0.005,-0.02,0.02,0.0,-9.942238102667034e-05,9.44499479373917e-05,0.0,1000,1000,1000,1000,12600,0,0.00289216754026711,0.0026348568499088287,0.003084334544837475,10,{}
normal_corridor_base_12,0,none,36439,0.0011754627339541912,0.000951219059061259,-0.07410893589258194,-35.3632621,149.1652374,-0.005,-0.02,0.02,0.0,-9.942229371517897e-05,9.444992610951886e-05,0.0,1000,1000,1000,1000,12600,0,0.0030833170749247074,0.002783413976430893,0.002811593934893608,10,{}
normal_corridor_base_12,0,none,36774,0.0011847550049424171,0.0009703210671432316,-0.07462075352668762,-35.3632621,149.1652374,-0.005,-0.02,0.02,0.0,-9.942231554305181e-05,9.444991883356124e-05,0.0,1000,1000,1000,1000,12600,0,0.002693283138796687,0.002764564473181963,0.002995518734678626,10,{}
normal_corridor_base_12,0,none,37106,0.0011963844299316406,0.0009866810869425535,-0.07497234642505646,-35.3632621,149.1652374,-0.005,-0.02,0.02,0.0,-9.942231554305181e-05,9.444991883356124e-05,0.0,1000,1000,1000,1000,12600,0,0.0028736554086208344,0.0028021633625030518,0.002773282350972295,10,{}
normal_corridor_base_12,0,none,37439,0.0012046208139508963,0.0009989927057176828,-0.07533764094114304,-35.3632621,149.1652374,-0.005,-0.02,0.02,0.0,-9.942234464688227e-05,9.444990428164601e-05,0.0,1000,1000,1000,1000,12600,0,0.003083915216848254,0.002946332097053528,0.0025367361959069967,10,{}
normal_corridor_base_12,0,none,37771,0.0012130549876019359,0.0010105313267558813,-0.07581546902656555,-35.3632621,149.1652374,-0.005,-0.02,0.02,0.0,-9.942232281900942e-05,9.444988972973078e-05,0.0,1000,1000,1000,1000,12600,0,0.002946050837635994,0.0028307700995355844,0.0026342698838561773,10,{}
normal_corridor_base_12,0,none,38104,0.001216358970850706,0.001027777441777289,-0.07618232071399689,-35.3632621,149.1652374,-0.006,-0.02,0.02,0.0,-9.942232281900942e-05,9.444988972973078e-05,0.0,1000,1000,1000,1000,12600,0,0.0030901797581464052,0.002782550174742937,0.00250507821328938,10,{}
normal_corridor_base_12,0,none,38437,0.00122954195830971,0.0010374978883191943,-0.07653196156024933,-35.3632621,149.1652374,-0.006,-0.02,0.02,0.0,-9.942234464688227e-05,9.444986062590033e-05,0.0,1000,1000,1000,1000,12600,0,0.0031423261389136314,0.003147694282233715,0.0030472311191260815,10,{}
normal_corridor_base_12,0,none,38771,0.001242477330379188,0.001043548691086471,-0.07699165493249893,-35.3632621,149.1652374,-0.006,-0.02,0.02,0.0,-9.942230099113658e-05,9.444986062590033e-05,0.0,1000,1000,1000,1000,12600,0,0.002694731345400214,0.002934133168309927,0.0027819115202873945,10,{}
normal_corridor_base_12,0,none,39104,0.0012477688724175096,0.0010639437241479754,-0.07733704149723053,-35.3632621,149.1652374,-0.006,-0.02,0.02,0.0,-9.942230099113658e-05,9.444986062590033e-05,0.0,1000,1000,1000,1000,12600,0,0.0029157595708966255,0.002976618707180023,0.002603288972750306,10,{}
normal_corridor_base_12,0,none,39436,0.0012509283842518926,0.0010662269778549671,-0.07767922431230545,-35.3632621,149.1652374,-0.006,-0.02,0.02,0.0,-9.942226461134851e-05,9.444986062590033e-05,0.0,1000,1000,1000,1000,12600,0,0.0026656202971935272,0.0027209073305130005,0.0027712287846952677,10,{}
normal_corridor_base_12,0,none,39769,0.001254958682693541,0.0010764570906758308,-0.078116275370121,-35.3632621,149.1652374,-0.006,-0.02,0.02,0.0,-9.942228643922135e-05,9.44498970056884e-05,0.0,1000,1000,1000,1000,12600,0,0.00286278547719121,0.0028242904227226973,0.0025482962373644114,10,{}
normal_corridor_base_12,0,none,40102,0.001261556288227439,0.0010765597689896822,-0.07845565676689148,-35.3632621,149.1652374,-0.006,-0.02,0.02,0.0,-9.942228643922135e-05,9.44498970056884e-05,0.0,1000,1000,1000,1000,12600,0,0.0026991881895810366,0.0028656255453824997,0.0027540239971131086,10,{}
normal_corridor_base_12,0,none,40437,0.0012716208584606647,0.0010898252949118614,-0.07876423001289368,-35.3632621,149.1652374,-0.006,-0.02,0.02,0.0,-9.942224278347567e-05,9.444991155760363e-05,0.0,1000,1000,1000,1000,12600,0,0.0027382804546505213,0.002743446035310626,0.002971755340695381,10,{}
normal_corridor_base_12,0,none,40769,0.0012799864634871483,0.0010950189316645265,-0.0791824534535408,-35.3632621,149.1652374,-0.006,-0.02,0.02,0.0,-9.942224278347567e-05,9.444991883356124e-05,0.0,1000,1000,1000,1000,12600,0,0.002717686118558049,0.0028302569407969713,0.0026527815498411655,10,{}
normal_corridor_base_12,0,none,41101,0.0012871851213276386,0.001101569621823728,-0.07943573594093323,-35.3632621,149.1652374,-0.006,-0.02,0.02,0.0,-9.942224278347567e-05,9.444991883356124e-05,0.0,1000,1000,1000,1000,12600,0,0.0027047949843108654,0.002880202606320381,0.0030031506903469563,10,{}
normal_corridor_base_12,0,none,41434,0.0012943531619384885,0.0011121887946501374,-0.07974163442850113,-35.3632621,149.1652374,-0.006,-0.02,0.02,0.0,-9.942227188730612e-05,9.444994066143408e-05,0.0,1000,1000,1000,1000,12600,0,0.0027327474672347307,0.003071316285058856,0.002789275487884879,10,{}
normal_corridor_base_12,0,none,41769,0.0013117658672854304,0.001134975696913898,-0.08014623075723648,-35.3632621,149.1652374,-0.006,0.0,0.0,0.0,-9.942233009496704e-05,9.444991883356124e-05,0.0,1000,1000,1000,1000,12600,0,0.002626512199640274,0.0029696731362491846,0.0029415804892778397,10,{}
normal_corridor_base_12,0,none,42102,0.0013843607157468796,0.0012038423446938396,-0.08044552803039551,-35.3632621,149.1652374,-0.006,0.0,0.0,0.0,-9.942233009496704e-05,9.444991883356124e-05,0.0,1000,1000,1000,1000,12600,0,0.0028071734122931957,0.0027203375939279795,0.002715251874178648,10,{}
normal_corridor_base_12,0,none,42434,0.001457412145100534,0.0012786161387339234,-0.08076043426990509,-35.3632621,149.1652374,-0.006,0.0,0.0,0.0,-9.942230099113658e-05,9.444990428164601e-05,0.0,1000,1000,1000,1000,12600,0,0.0029918141663074493,0.002886290894821286,0.0026408154517412186,10,{}
normal_corridor_base_12,0,none,42767,0.0015396253438666463,0.0013630009489133954,-0.08115885406732559,-35.3632621,149.1652374,-0.006,0.0,0.0,0.0,-9.942230099113658e-05,9.444992610951886e-05,0.0,1000,1000,1000,1000,12600,0,0.0028017149306833744,0.0028897873125970364,0.0025504850782454014,10,{}
normal_corridor_base_12,0,none,43099,0.0015989345265552402,0.001420085784047842,-0.08146609365940094,-35.3632621,149.1652374,-0.006,-0.01,0.01,0.0,-9.942230099113658e-05,9.444992610951886e-05,0.0,1000,1000,1000,1000,12600,0,0.0027835548389703035,0.0029093350749462843,0.002828761702403426,10,{}
normal_corridor_base_12,0,none,43434,0.0016352917300537229,0.0014515431830659509,-0.08177826553583145,-35.3632621,149.1652374,-0.006,-0.01,0.01,0.0,-9.942230099113658e-05,9.44498970056884e-05,0.0,1000,1000,1000,1000,12600,0,0.002489564474672079,0.003066303441300988,0.002857938641682267,10,{}
normal_corridor_base_12,0,none,43766,0.0016603540861979127,0.0014719238970428705,-0.0821821391582489,-35.3632621,149.1652374,-0.006,-0.01,0.01,0.0,-9.942236647475511e-05,9.444987517781556e-05,0.0,1000,1000,1000,1000,12600,0,0.0027979789301753044,0.0028227956499904394,0.0026833186857402325,10,{}
normal_corridor_base_12,0,none,44099,0.0016576166963204741,0.0014757869066670537,-0.08249282091856003,-35.3632621,149.1652374,-0.006,-0.01,0.01,0.0,-9.942236647475511e-05,9.444987517781556e-05,0.0,1000,1000,1000,1000,12600,0,0.0028728756587952375,0.0029889692086726427,0.0028341372963041067,10,{}
normal_corridor_base_12,0,none,44432,0.0016335721593350172,0.0014504729770123959,-0.0827895924448967,-35.3632621,149.1652375,-0.006,-0.01,0.01,0.0,-9.942239557858557e-05,9.44498970056884e-05,0.0,1000,1000,1000,1000,12600,0,0.0027096951380372047,0.0030114620458334684,0.0027451524510979652,10,{}
normal_corridor_base_12,0,none,44764,0.00158679427113384,0.0014000516384840012,-0.08316124975681305,-35.3632621,149.1652375,-0.006,-0.01,0.02,0.0,-9.942235192283988e-05,9.444986790185794e-05,0.0,1000,1000,1000,1000,12600,0,0.0029544576536864042,0.0027432201895862818,0.002677947049960494,10,{}
normal_corridor_base_12,0,none,45099,0.0015238828491419554,0.0013412660919129848,-0.08348703384399414,-35.3632621,149.1652375,-0.006,-0.01,0.02,0.0,-9.942235192283988e-05,9.444986790185794e-05,0.0,1000,1000,1000,1000,12600,0,0.0027966629713773727,0.0027947404887527227,0.0030097616836428642,10,{}
normal_corridor_base_12,0,none,45349,0.001480915118008852,0.0012994544813409448,-0.08370784670114517,-35.3632622,149.1652375,-0.006,-0.01,0.02,0.0,-9.942233009496704e-05,9.444988245377317e-05,0.0,1000,1000,1000,1000,12600,0,0.0027966629713773727,0.0027947404887527227,0.0030097616836428642,10,{}
normal_corridor_base_12,0,none,45599,0.0014405346009880304,0.001262218109332025,-0.08391604572534561,-35.3632622,149.1652375,-0.006,-0.01,0.02,0.0,-9.942233737092465e-05,9.444988245377317e-05,0.0,1000,1000,1000,1000,12600,0,0.002592322416603565,0.002952429000288248,0.0026482287794351578,10,{}
normal_corridor_base_12,0,none,45849,0.001386490766890347,0.0012049786746501923,-0.0841238722205162,-35.3632622,149.1652375,-0.006,-0.01,0.02,0.0,-9.942231554305181e-05,9.444987517781556e-05,0.0,1000,1000,1000,1000,12600,0,0.003088782075792551,0.0027363940607756376,0.002993425354361534,10,{}
normal_corridor_base_12,0,none,46099,0.0013442246709018946,0.001159172155894339,-0.08432229608297348,-35.3632622,149.1652375,-0.006,-0.01,0.01,0.0,-9.942233009496704e-05,9.44498970056884e-05,0.0,1000,1000,1000,1000,12600,0,0.0030297802295535803,0.0028660455718636513,0.00279131974093616,10,{}
normal_corridor_base_12,0,none,46349,0.0013024050276726484,0.0011122266296297312,-0.08450102806091309,-35.3632622,149.1652375,-0.006,-0.01,0.01,0.0,-9.942228643922135e-05,9.444987517781556e-05,0.0,1000,1000,1000,1000,12600,0,0.0025270935148000717,0.0027053847443312407,0.0028783800080418587,10,{}
normal_corridor_base_12,0,none,46599,0.0012775317300111055,0.0010924104135483503,-0.08465419709682465,-35.3632622,149.1652375,-0.006,-0.01,0.01,0.0,-9.942231554305181e-05,9.444991155760363e-05,0.0,1000,1000,1000,1000,12600,0,0.002664012834429741,0.002852905308827758,0.0026281792670488358,10,{}
normal_corridor_base_12,0,none,46849,0.0012318677036091685,0.0010532421292737126,-0.08485962450504303,-35.3632622,149.1652375,-0.006,-0.01,0.01,0.0,-9.94222573353909e-05,9.444990428164601e-05,0.0,1000,1000,1000,1000,12600,0,0.002940886188298464,0.0026536479126662016,0.0024708842393010855,10,{}
normal_corridor_base_12,0,none,47099,0.0011983633739873767,0.001023520715534687,-0.08503301441669464,-35.3632621,149.1652375,-0.006,-0.01,0.01,0.0,-9.942224278347567e-05,9.444992610951886e-05,0.0,1000,1000,1000,1000,12600,0,0.002763683907687664,0.0026690212544053793,0.002361132763326168,10,{}
normal_corridor_base_12,0,none,47349,0.0011717947199940681,0.001000848482362926,-0.08522751927375793,-35.3632621,149.1652375,-0.006,-0.01,0.01,0.0,-9.94222064036876e-05,9.444990428164601e-05,0.0,1000,1000,1000,1000,12600,0,0.002841681707650423,0.0028901328332722187,0.002860627369955182,10,{}
normal_corridor_base_12,0,none,47599,0.0011593011440709233,0.0009873741073533893,-0.08538762480020523,-35.3632621,149.1652375,-0.006,-0.01,0.01,0.0,-9.942219912772998e-05,9.444988972973078e-05,0.0,1000,1000,1000,1000,12600,0,0.002782628405839205,0.002813581144437194,0.0028620525263249874,10,{}
normal_corridor_base_12,0,none,47849,0.0011334321461617947,0.0009646622929722071,-0.08558156341314316,-35.3632621,149.1652375,-0.006,-0.01,0.01,0.0,-9.942214092006907e-05,9.444981697015464e-05,0.0,1000,1000,1000,1000,12600,0,0.002883435459807515,0.0027397130616009235,0.002712616231292486,10,{}
normal_corridor_base_12,0,none,48099,0.0011176792904734612,0.0009488839423283935,-0.08573062717914581,-35.3632621,149.1652375,-0.006,-0.01,0.01,0.0,-9.942211181623861e-05,9.444982424611226e-05,0.0,1000,1000,1000,1000,12600,0,0.003085050731897354,0.002853984711691737,0.002771845320239663,10,{}
normal_corridor_base_12,0,none,48349,0.0011058085365220904,0.0009369782055728137,-0.08592233061790466,-35.3632621,149.1652375,-0.006,-0.01,0.01,0.0,-9.942211181623861e-05,9.444981697015464e-05,0.0,1000,1000,1000,1000,12600,0,0.0026740131434053183,0.0030020454432815313,0.002921429695561528,10,{}
normal_corridor_base_12,0,none,48599,0.0010995562188327312,0.0009305615094490349,-0.08607569336891174,-35.3632621,149.1652375,-0.006,-0.01,0.01,0.0,-9.942207543645054e-05,9.444980969419703e-05,0.0,1000,1000,1000,1000,12600,0,0.002894609933719039,0.0027596254367381334,0.003001974429935217,10,{}
normal_corridor_base_12,0,none,48849,0.0010891668498516083,0.0009229592978954315,-0.08623988926410675,-35.3632621,149.1652375,-0.006,-0.01,0.01,0.0,-9.942206816049293e-05,9.444978786632419e-05,0.0,1000,1000,1000,1000,12600,0,0.0028394279070198536,0.003025021171197295,0.002737385453656316,10,{}
normal_corridor_base_12,0,none,49099,0.0010843812488019466,0.0009160158806480467,-0.08640387654304504,-35.3632621,149.1652375,-0.006,-0.01,0.01,0.0,-9.942202450474724e-05,9.444977331440896e-05,0.0,1000,1000,1000,1000,12600,0,0.0028087380342185497,0.00311942957341671,0.002748527331277728,10,{}
normal_corridor_base_12,0,none,49349,0.0010828597005456686,0.0009110383689403534,-0.08656376600265503,-35.3632621,149.1652375,-0.006,-0.01,0.01,0.0,-9.942198812495917e-05,9.444975148653612e-05,0.0,1000,1000,1000,1000,12600,0,0.0027117040008306503,0.0026644126046448946,0.0028289607726037502,10,{}
normal_corridor_base_12,0,none,49599,0.0010826298967003822,0.0009118407615460455,-0.08671213686466217,-35.3632621,149.1652375,-0.006,-0.01,0.01,0.0,-9.942196629708633e-05,9.444972238270566e-05,0.0,1000,1000,1000,1000,12600,0,0.0027036191895604134,0.002868114970624447,0.0027398124802857637,10,{}
normal_corridor_base_12,0,none,49849,0.0010782195022329688,0.0009141312330029905,-0.08687809109687805,-35.3632621,149.1652375,-0.006,-0.01,0.01,0.0,-9.942199540091679e-05,9.444972238270566e-05,0.0,1000,1000,1000,1000,12600,0,0.0026578984688967466,0.002903699642047286,0.00265492987819016,10,{}
normal_corridor_base_12,0,none,50099,0.0010777150746434927,0.0009150251280516386,-0.08702941983938217,-35.3632621,149.1652375,-0.006,-0.01,0.01,0.0,-9.942198812495917e-05,9.444970055483282e-05,0.0,1000,1000,1000,1000,12600,0,0.0028842403553426266,0.002777610206976533,0.0027812616899609566,10,{}
normal_corridor_base_12,0,none,50349,0.0010808074148371816,0.0009151012636721134,-0.08718529343605042,-35.3632621,149.1652375,-0.006,-0.01,0.01,0.0,-9.942198084900156e-05,9.444967145100236e-05,0.0,1000,1000,1000,1000,12600,0,0.0024522447492927313,0.0026970817707479,0.00282614235766232,10,{}
normal_corridor_base_12,0,none,50599,0.001082750502973795,0.0009135975269600749,-0.08734181523323059,-35.3632621,149.1652375,-0.006,-0.01,0.01,0.0,-9.942196629708633e-05,9.444960596738383e-05,0.0,1000,1000,1000,1000,12600,0,0.002847909927368164,0.0029264832846820354,0.002789747668430209,10,{}
normal_corridor_base_12,0,none,50849,0.0010855748550966382,0.0009122975170612335,-0.08749054372310638,-35.3632621,149.1652375,-0.006,-0.01,0.01,0.0,-9.94219517451711e-05,9.444958413951099e-05,0.0,1000,1000,1000,1000,12600,0,0.0028282799758017063,0.003085465868934989,0.002998657524585724,10,{}
normal_corridor_base_12,0,none,51099,0.0010857123415917158,0.0009118136949837208,-0.08763550966978073,-35.3632621,149.1652375,-0.006,-0.01,0.01,0.0,-9.942191536538303e-05,9.444954775972292e-05,0.0,1000,1000,1000,1000,12600,0,0.002703998703509569,0.002636257791891694,0.002700277604162693,10,{}
normal_corridor_base_12,0,none,51349,0.001084419316612184,0.0009175015729852021,-0.08778294175863266,-35.3632621,149.1652375,-0.006,-0.01,0.01,0.0,-9.942189353751019e-05,9.444951865589246e-05,0.0,1000,1000,1000,1000,12600,0,0.0029446531552821398,0.0027701875660568476,0.0025821842718869448,10,{}
normal_corridor_base_12,0,none,51599,0.0010909802513197064,0.0009173830621875823,-0.08792219310998917,-35.3632621,149.1652375,-0.006,-0.01,0.01,0.0,-9.942188626155257e-05,9.444950410397723e-05,0.0,1000,1000,1000,1000,12600,0,0.0028324308805167675,0.0029541002586483955,0.0028079517651349306,10,{}
normal_corridor_base_12,0,none,51849,0.001094386214390397,0.0009140634210780263,-0.0880662277340889,-35.3632621,149.1652375,-0.006,-0.01,0.01,0.0,-9.942190808942541e-05,9.444952593185008e-05,0.0,1000,1000,1000,1000,12600,0,0.0029923729598522186,0.0026811230927705765,0.0026642787270247936,10,{}
normal_corridor_base_12,0,none,52099,0.0010996173368766904,0.0009069029474630952,-0.0882083922624588,-35.3632621,149.1652375,-0.006,-0.01,0.01,0.0,-9.942189353751019e-05,9.4449489552062e-05,0.0,1000,1000,1000,1000,12600,0,0.0029275210108608007,0.0025587957352399826,0.00278479210101068,10,{}
normal_corridor_base_12,0,none,52349,0.001103962422348559,0.0009056145790964365,-0.0883442685008049,-35.3632621,149.1652375,-0.006,-0.01,0.01,0.0,-9.942185715772212e-05,9.444946044823155e-05,0.0,1000,1000,1000,1000,12600,0,0.0027090166695415974,0.0029490513261407614,0.0027905404567718506,10,{}
normal_corridor_base_12,0,none,52599,0.0011078707175329328,0.0009154166909866035,-0.08845231682062149,-35.3632621,149.1652375,-0.006,-0.01,0.01,0.0,-9.942186443367973e-05,9.444945317227393e-05,0.0,1000,1000,1000,1000,12600,0,0.003143147798255086,0.0028058921452611685,0.0028524084482342005,10,{}
normal_corridor_base_12,0,none,52849,0.0011106627061963081,0.0009185139206238091,-0.08859473466873169,-35.3632621,149.1652375,-0.006,-0.01,0.01,0.0,-9.942183532984927e-05,9.444942406844348e-05,0.0,1000,1000,1000,1000,12600,0,0.0029256076086312532,0.003056429559364915,0.002903770189732313,10,{}
normal_corridor_base_12,0,none,53099,0.001110147568397224,0.0009143711649812758,-0.0887192115187645,-35.3632621,149.1652375,-0.006,-0.01,0.01,0.0,-9.942186443367973e-05,9.444943134440109e-05,0.0,1000,1000,1000,1000,12600,0,0.002660764381289482,0.0028459944296628237,0.0027156553696841,10,{}
normal_corridor_base_12,0,none,53349,0.0011167015181854367,0.0009214628371410072,-0.08887118846178055,-35.3632621,149.1652375,-0.006,-0.01,0.01,0.0,-9.942186443367973e-05,9.444944589631632e-05,0.0,1000,1000,1000,1000,12600,0,0.0027408646419644356,0.002518413122743368,0.0025785001926124096,10,{}
normal_corridor_base_12,0,none,53599,0.0011283847270533442,0.0009282734827138484,-0.0889943316578865,-35.3632621,149.1652375,-0.006,-0.01,0.01,0.0,-9.942183532984927e-05,9.444942406844348e-05,0.0,1000,1000,1000,1000,12600,0,0.00283890962600708,0.0030658759642392397,0.0027596207801252604,10,{}
normal_corridor_base_12,0,none,53849,0.001131257857196033,0.0009283452527597547,-0.08913173526525497,-35.3632621,149.1652375,-0.006,-0.01,0.01,0.0,-9.942181350197643e-05,9.444942406844348e-05,0.0,1000,1000,1000,1000,12600,0,0.0025670684408396482,0.0026471063029021025,0.002869723830372095,10,{}
normal_corridor_base_12,0,none,54099,0.0011325135128572583,0.0009352745255455375,-0.08926012367010117,-35.3632621,149.1652375,-0.006,-0.01,0.01,0.0,-9.942177712218836e-05,9.444940951652825e-05,0.0,1000,1000,1000,1000,12600,0,0.0030751926824450493,0.002764867153018713,0.0028985498938709497,10,{}
normal_corridor_base_12,0,none,54349,0.0011354067828506231,0.0009386258316226304,-0.08939551562070847,-35.3632621,149.1652375,-0.006,-0.01,0.01,0.0,-9.94217480183579e-05,9.444937313674018e-05,0.0,1000,1000,1000,1000,12600,0,0.0029659231659024954,0.003010276472195983,0.0029721278697252274,10,{}
normal_corridor_base_12,0,none,54599,0.0011445266427472234,0.0009478639694862068,-0.0895131379365921,-35.3632621,149.1652375,-0.006,-0.01,0.01,0.0,-9.942172619048506e-05,9.444936586078256e-05,0.0,1000,1000,1000,1000,12600,0,0.002651829971000552,0.0027206677477806807,0.002739939372986555,10,{}
normal_corridor_base_12,0,none,54849,0.001144313719123602,0.0009475372498854995,-0.08964302390813828,-35.3632621,149.1652375,-0.006,-0.01,0.01,0.0,-9.942174074240029e-05,9.444934403290972e-05,0.0,1000,1000,1000,1000,12600,0,0.0032171159982681274,0.0028612541500478983,0.0029339371249079704,10,{}
normal_corridor_base_12,0,none,55099,0.0011468896409496665,0.0009499044390395284,-0.08976329863071442,-35.3632621,149.1652375,-0.006,-0.01,0.01,0.0,-9.94216970866546e-05,9.444927127333358e-05,0.0,1000,1000,1000,1000,12600,0,0.002821853617206216,0.002817851956933737,0.002584314439445734,10,{}
normal_corridor_base_12,0,none,55349,0.0011459080269560218,0.0009506685310043395,-0.08989071100950241,-35.3632621,149.1652375,-0.006,-0.01,0.01,0.0,-9.942172619048506e-05,9.444927127333358e-05,0.0,1000,1000,1000,1000,12600,0,0.0025713297072798014,0.0025286348536610603,0.0025958982296288013,10,{}
normal_corridor_base_12,0,none,55599,0.0011496644001454115,0.0009556954028084874,-0.09001412987709045,-35.3632621,149.1652375,-0.006,-0.01,0.01,0.0,-9.942168253473938e-05,9.444924944546074e-05,0.0,1000,1000,1000,1000,12600,0,0.002740894677117467,0.0031046774238348007,0.0026979967951774597,10,{}
normal_corridor_base_12,0,none,55849,0.0011465932475402951,0.0009513087570667267,-0.09014023840427399,-35.3632621,149.1652375,-0.006,-0.01,0.01,0.0,-9.942168253473938e-05,9.444927127333358e-05,0.0,1000,1000,1000,1000,12600,0,0.0027256289031356573,0.0028316043317317963,0.002585282549262047,10,{}
normal_corridor_base_12,0,none,56099,0.0011464310809969902,0.0009513511322438717,-0.09026014804840088,-35.3632621,149.1652375,-0.006,-0.01,0.01,0.0,-9.942168253473938e-05,9.444926399737597e-05,0.0,1000,1000,1000,1000,12600,0,0.0028033151756972075,0.002911134622991085,0.0030542416498064995,10,{}
normal_corridor_base_12,0,none,56349,0.001149665331467986,0.0009558778838254511,-0.09038448333740234,-35.3632621,149.1652375,-0.006,-0.01,0.01,0.0,-9.942166798282415e-05,9.444924216950312e-05,0.0,1000,1000,1000,1000,12600,0,0.0027465210296213627,0.0029747565276920795,0.0031156623736023903,10,{}
normal_corridor_base_12,0,none,56599,0.0011526799062266946,0.0009616988245397806,-0.09050171077251434,-35.3632621,149.1652375,-0.006,-0.01,0.01,0.0,-9.94216970866546e-05,9.444928582524881e-05,0.0,1000,1000,1000,1000,12600,0,0.002794457133859396,0.0026231654919683933,0.002755114808678627,10,{}
normal_corridor_base_12,0,none,56849,0.001138420426286757,0.000959491531830281,-0.09059447795152664,-35.3632621,149.1652375,-0.006,-0.01,0.01,0.0,-9.94217480183579e-05,9.444930037716404e-05,0.0,1000,1000,1000,1000,12600,0,0.002918591722846031,0.002788696438074112,0.002802238566800952,10,{}
normal_corridor_base_12,0,none,57099,0.0011334349401295185,0.0009541885228827596,-0.09070233255624771,-35.3632621,149.1652375,-0.006,-0.01,0.01,0.0,-9.94217989500612e-05,9.444932220503688e-05,0.0,1000,1000,1000,1000,12600,0,0.0028153592720627785,0.002956842537969351,0.0028323305305093527,10,{}
normal_corridor_base_12,0,none,57349,0.0011405443074181676,0.0009564872598275542,-0.0908273458480835,-35.3632621,149.1652375,-0.006,-0.01,0.01,0.0,-9.942182805389166e-05,9.444934403290972e-05,0.0,1000,1000,1000,1000,12600,0,0.0028170831501483917,0.002901268657296896,0.002790650585666299,10,{}
normal_corridor_base_12,0,none,57599,0.001145355636253953,0.0009641789365559816,-0.09093643724918365,-35.3632622,149.1652375,-0.006,-0.01,0.01,0.0,-9.942182805389166e-05,9.444936586078256e-05,0.0,1000,1000,1000,1000,12600,0,0.0026638987474143505,0.0026676023844629526,0.002494435990229249,10,{}
normal_corridor_base_12,0,none,57849,0.0011470603058114648,0.0009624443482607603,-0.09105227142572403,-35.3632621,149.1652375,-0.006,-0.01,0.01,0.0,-9.942181350197643e-05,9.444936586078256e-05,0.0,1000,1000,1000,1000,12600,0,0.00269463867880404,0.0025787660852074623,0.00266822287812829,10,{}
normal_corridor_base_12,0,none,58099,0.001150913187302649,0.000960438628681004,-0.09115610271692276,-35.3632621,149.1652375,-0.006,-0.01,0.01,0.0,-9.942185715772212e-05,9.444939496461302e-05,0.0,1000,1000,1000,1000,12600,0,0.0026298181619495153,0.002713153138756752,0.002606766764074564,10,{}
normal_corridor_base_12,0,none,58349,0.0011536111123859882,0.0009649429703131318,-0.09127655625343323,-35.3632621,149.1652375,-0.006,-0.01,0.01,0.0,-9.942186443367973e-05,9.44493876886554e-05,0.0,1000,1000,1000,1000,12600,0,0.0029470266308635473,0.0025987650733441114,0.002791263163089752,10,{}
normal_corridor_base_12,0,none,58599,0.0011541076237335801,0.0009712363826110959,-0.09137612581253052,-35.3632622,149.1652375,-0.006,-0.01,0.01,0.0,-9.942188626155257e-05,9.444941679248586e-05,0.0,1000,1000,1000,1000,12600,0,0.0031560456845909357,0.0030254614539444447,0.0029283741023391485,10,{}
normal_corridor_base_12,0,none,58849,0.001153874327428639,0.0009684329852461815,-0.09149602800607681,-35.3632621,149.1652375,-0.006,-0.01,0.01,0.0,-9.942192991729826e-05,9.444944589631632e-05,0.0,1000,1000,1000,1000,12600,0,0.00288398377597332,0.0027981456369161606,0.0025856506545096636,10,{}
normal_corridor_base_12,0,none,59099,0.00115562928840518,0.0009701147791929543,-0.09159691631793976,-35.3632621,149.1652375,-0.006,-0.01,0.01,0.0,-9.942193719325587e-05,9.444942406844348e-05,0.0,1000,1000,1000,1000,12600,0,0.0026713500265032053,0.0027162041515111923,0.0025498359464108944,10,{}
normal_corridor_base_12,0,none,59349,0.0011575915850698948,0.000974818249233067,-0.09170455485582352,-35.3632621,149.1652375,-0.006,-0.01,0.01,0.0,-9.942193719325587e-05,9.444938041269779e-05,0.0,1000,1000,1000,1000,12600,0,0.0029836588073521852,0.00259498693048954,0.0026846553664654493,10,{}
normal_corridor_base_12,0,none,59599,0.001161652966402471,0.0009798003593459725,-0.09180731326341629,-35.3632622,149.1652375,-0.006,-0.01,0.01,0.0,-9.942192264134064e-05,9.444934403290972e-05,0.0,1000,1000,1000,1000,12600,0,0.003025761805474758,0.0027817704249173403,0.0027660788036882877,10,{}
normal_corridor_base_12,0,none,59849,0.0011521808337420225,0.0009752957266755402,-0.09191260486841202,-35.3632621,149.1652375,-0.006,-0.01,0.01,0.0,-9.942195902112871e-05,9.444937313674018e-05,0.0,1000,1000,1000,1000,12600,0,0.002700047567486763,0.002741828327998519,0.0026733563281595707,10,{}
normal_corridor_base_12,0,none,60099,0.0011511953780427575,0.0009705082047730684,-0.09200707077980042,-35.3632621,149.1652375,-0.006,-0.01,0.01,0.0,-9.942198812495917e-05,9.444937313674018e-05,0.0,1000,1000,1000,1000,12600,0,0.0030460855923593044,0.0027624608483165503,0.002772417850792408,10,{}
normal_corridor_base_12,0,none,60349,0.0011519021354615688,0.0009684207034297287,-0.09211611747741699,-35.3632621,149.1652375,-0.006,-0.01,0.01,0.0,-9.942203178070486e-05,9.444937313674018e-05,0.0,1000,1000,1000,1000,12600,0,0.002673257840797305,0.002840104978531599,0.002733260625973344,10,{}
normal_corridor_base_12,0,none,60599,0.0011571085778996348,0.0009710173471830785,-0.09220888465642929,-35.3632622,149.1652375,-0.006,-0.01,0.01,0.0,-9.942203905666247e-05,9.444936586078256e-05,0.0,1000,1000,1000,1000,12600,0,0.002711785491555929,0.0029453416354954243,0.0028472142294049263,10,{}
normal_corridor_base_12,0,none,60849,0.0011501966509968042,0.0009587492095306516,-0.09231957048177719,-35.3632621,149.1652375,-0.006,-0.01,0.01,0.0,-9.942203178070486e-05,9.444935130886734e-05,0.0,1000,1000,1000,1000,12600,0,0.0027259238995611668,0.0027787324506789446,0.0024699498899281025,10,{}
normal_corridor_base_12,0,none,61099,0.0011549227638170123,0.0009530592360533774,-0.0924132764339447,-35.3632622,149.1652375,-0.006,-0.01,0.01,0.0,-9.94220536085777e-05,9.444938041269779e-05,0.0,1000,1000,1000,1000,12600,0,0.002525246934965253,0.002934668678790331,0.002706952625885606,10,{}
normal_corridor_base_12,0,none,61349,0.0011565221939235926,0.0009571259142830968,-0.09250956028699875,-35.3632622,149.1652375,-0.006,-0.01,0.01,0.0,-9.942203905666247e-05,9.444935858482495e-05,0.0,1000,1000,1000,1000,12600,0,0.0029021946247667074,0.003052924759685993,0.002936183474957943,10,{}
normal_corridor_base_12,0,none,61599,0.001164709683507681,0.0009607392712496221,-0.09260092675685883,-35.3632622,149.1652375,-0.006,-0.01,0.01,0.0,-9.942208271240816e-05,9.444937313674018e-05,0.0,1000,1000,1000,1000,12600,0,0.00275523797608912,0.0028306262101978064,0.0029252180829644203,10,{}
normal_corridor_base_12,0,none,61849,0.001155114034190774,0.0009538772283121943,-0.09267888963222504,-35.3632622,149.1652375,-0.006,-0.01,0.01,0.0,-9.942209726432338e-05,9.444941679248586e-05,0.0,1000,1000,1000,1000,12600,0,0.00290154037065804,0.0028003952465951443,0.002973160706460476,10,{}
normal_corridor_base_12,0,none,62099,0.0011577971745282412,0.0009561532642692327,-0.09276425838470459,-35.3632622,149.1652375,-0.006,-0.01,0.01,0.0,-9.942208998836577e-05,9.444942406844348e-05,0.0,1000,1000,1000,1000,12600,0,0.0025844399351626635,0.002884168876335025,0.0027559015434235334,10,{}
normal_corridor_base_12,0,none,62349,0.0011606004554778337,0.0009546565706841648,-0.09286271780729294,-35.3632622,149.1652375,-0.006,-0.01,0.01,0.0,-9.942213364411145e-05,9.444946044823155e-05,0.0,1000,1000,1000,1000,12600,0,0.0027301509398967028,0.0027070092037320137,0.0026406622491776943,10,{}
normal_corridor_base_12,0,none,62599,0.0011632294626906514,0.0009637568728066981,-0.09294450283050537,-35.3632622,149.1652375,-0.006,-0.01,0.01,0.0,-9.942213364411145e-05,9.444948227610439e-05,0.0,1000,1000,1000,1000,12600,0,0.0026698647998273373,0.0028768398333340883,0.002873052842915058,10,{}
normal_corridor_base_12,0,none,62849,0.0011607735650613904,0.0009624682134017348,-0.0930432602763176,-35.3632621,149.1652375,-0.006,-0.01,0.01,0.0,-9.942212636815384e-05,9.4449489552062e-05,0.0,1000,1000,1000,1000,12600,0,0.0025832965038716793,0.00319016445428133,0.002693414920940995,10,{}
normal_corridor_base_12,0,none,63099,0.0011604714673012495,0.0009675004403106868,-0.09313571453094482,-35.3632621,149.1652375,-0.006,-0.01,0.01,0.0,-9.942211181623861e-05,9.44494386203587e-05,0.0,1000,1000,1000,1000,12600,0,0.0029692407697439194,0.002827592194080353,0.00272301584482193,10,{}
normal_corridor_base_12,0,none,63349,0.0011585537577047944,0.0009651080472394824,-0.0932340919971466,-35.3632622,149.1652375,-0.006,-0.01,0.01,0.0,-9.9422104540281e-05,9.444940951652825e-05,0.0,1000,1000,1000,1000,12600,0,0.002820048714056611,0.002628064714372158,0.0028346905019134283,10,{}
normal_corridor_base_12,0,none,63599,0.0011621180456131697,0.0009740110253915191,-0.0933147519826889,-35.3632622,149.1652375,-0.006,-0.01,0.01,0.0,-9.942211181623861e-05,9.444938041269779e-05,0.0,1000,1000,1000,1000,12600,0,0.0028760344721376896,0.0025742819998413324,0.0025630455929785967,10,{}
normal_corridor_base_12,0,none,63849,0.0011593427043408155,0.0009697705390863121,-0.09340167045593262,-35.3632622,149.1652375,-0.006,-0.01,0.01,0.0,-9.942208998836577e-05,9.444940951652825e-05,0.0,1000,1000,1000,1000,12600,0,0.0029901007656008005,0.0029552208725363016,0.0029705078341066837,10,{}
normal_corridor_base_12,0,none,64099,0.0011628898791968822,0.0009627971448935568,-0.09348277747631073,-35.3632621,149.1652375,-0.006,-0.01,0.01,0.0,-9.942211181623861e-05,9.444942406844348e-05,0.0,1000,1000,1000,1000,12600,0,0.002713153138756752,0.0030386655125766993,0.0031778626143932343,10,{}
normal_corridor_base_12,0,none,64349,0.0011632635723799467,0.0009637497132644057,-0.09357375651597977,-35.3632622,149.1652375,-0.006,-0.01,0.01,0.0,-9.94221554719843e-05,9.444943134440109e-05,0.0,1000,1000,1000,1000,12600,0,0.002934702206403017,0.002853366546332836,0.0029209183994680643,10,{}
normal_corridor_base_12,0,none,64599,0.0011730603873729706,0.000966414634604007,-0.09365414083003998,-35.3632622,149.1652375,-0.006,-0.01,0.01,0.0,-9.942217002389953e-05,9.444945317227393e-05,0.0,1000,1000,1000,1000,12600,0,0.002848023548722267,0.0029201204888522625,0.0027910256758332253,10,{}
normal_corridor_base_12,0,none,64849,0.0011726892553269863,0.0009595387382432818,-0.09374397248029709,-35.3632622,149.1652375,-0.006,-0.01,0.01,0.0,-9.94222064036876e-05,9.444945317227393e-05,0.0,1000,1000,1000,1000,12600,0,0.0027691188734024763,0.00275934929959476,0.002879355102777481,10,{}
normal_corridor_base_12,0,none,65099,0.001164178247563541,0.0009519890299998224,-0.09382539242506027,-35.3632621,149.1652375,-0.006,-0.01,0.01,0.0,-9.942217729985714e-05,9.444944589631632e-05,0.0,1000,1000,1000,1000,12600,0,0.0029717418365180492,0.0030190946999937296,0.00274201319552958,10,{}
normal_corridor_base_12,0,none,65349,0.0011633092071861029,0.0009582769707776606,-0.09391079843044281,-35.3632621,149.1652375,-0.006,-0.01,0.01,0.0,-9.94222064036876e-05,9.444947500014678e-05,0.0,1000,1000,1000,1000,12600,0,0.002780627692118287,0.0026549240574240685,0.0029310642275959253,10,{}
normal_corridor_base_12,0,none,65599,0.0011651564855128527,0.0009651173604652286,-0.09399230033159256,-35.3632622,149.1652375,-0.006,-0.01,0.01,0.0,-9.942219185177237e-05,9.4449489552062e-05,0.0,1000,1000,1000,1000,12600,0,0.0027274335734546185,0.00252160569652915,0.002771197585389018,10,{}
normal_corridor_base_12,0,none,65849,0.0011630819644778967,0.000961674377322197,-0.09408098459243774,-35.3632621,149.1652375,-0.006,-0.01,0.01,0.0,-9.942218457581475e-05,9.4449489552062e-05,0.0,1000,1000,1000,1000,12600,0,0.002741989679634571,0.0030157393775880337,0.0026777442544698715,10,{}
normal_corridor_base_12,0,none,66099,0.0011668541701510549,0.0009632055298425257,-0.09415646642446518,-35.3632621,149.1652375,-0.006,-0.01,0.01,0.0,-9.942219185177237e-05,9.4449489552062e-05,0.0,1000,1000,1000,1000,12600,0,0.0026820464991033077,0.002886176109313965,0.0029227803461253643,10,{}
normal_corridor_base_12,0,none,66349,0.0011711689876392484,0.0009608957916498184,-0.09423577785491943,-35.3632621,149.1652375,-0.006,-0.01,0.01,0.0,-9.94222064036876e-05,9.444950410397723e-05,0.0,1000,1000,1000,1000,12600,0,0.002753873821347952,0.002692167880013585,0.0027167408261448145,10,{}
normal_corridor_base_12,0,none,66599,0.0011721366317942739,0.0009750686585903168,-0.09431611001491547,-35.3632622,149.1652375,-0.006,-0.01,0.01,0.0,-9.942219912772998e-05,9.444949682801962e-05,0.0,1000,1000,1000,1000,12600,0,0.0030321653466671705,0.0027141158934682608,0.0026983078569173813,10,{}
normal_corridor_base_12,0,none,66849,0.0011729877442121506,0.0009713947074487805,-0.09438854455947876,-35.3632621,149.1652375,-0.006,-0.01,0.01,0.0,-9.942214819602668e-05,9.444947500014678e-05,0.0,1000,1000,1000,1000,12600,0,0.002527802251279354,0.0028170552104711533,0.002972671762108803,10,{}
normal_corridor_base_12,0,none,67099,0.001172331627458334,0.0009709184523671865,-0.09444867819547653,-35.3632621,149.1652375,-0.006,-0.01,0.01,0.0,-9.942216274794191e-05,9.444951137993485e-05,0.0,1000,1000,1000,1000,12600,0,0.0029843307565897703,0.0025801092851907015,0.0030496108811348677,10,{}
normal_corridor_base_12,0,none,67349,0.0011734194122254848,0.000973349844571203,-0.09451239556074142,-35.3632622,149.1652375,-0.006,-0.01,0.01,0.0,-9.942216274794191e-05,9.444949682801962e-05,0.0,1000,1000,1000,1000,12600,0,0.0029554201755672693,0.002869606716558337,0.0029541149269789457,10,{}
normal_corridor_base_12,0,none,67599,0.0011777865001931787,0.0009823805885389447,-0.09458296746015549,-35.3632622,149.1652375,-0.006,-0.01,0.01,0.0,-9.94222064036876e-05,9.444949682801962e-05,0.0,1000,1000,1000,1000,12600,0,0.002532153856009245,0.002934803022071719,0.0027330818120390177,10,{}
normal_corridor_base_12,0,none,67849,0.0011764327064156532,0.0009816373931244016,-0.09466564655303955,-35.3632622,149.1652375,-0.006,-0.01,0.01,0.0,-9.942214092006907e-05,9.444946044823155e-05,0.0,1000,1000,1000,1000,12600,0,0.0026749465614557266,0.0029412293806672096,0.002770055551081896,10,{}
normal_corridor_base_12,0,none,68099,0.001176989171653986,0.0009816366946324706,-0.09472924470901489,-35.3632622,149.1652375,-0.006,-0.01,0.01,0.0,-9.942217002389953e-05,9.444952593185008e-05,0.0,1000,1000,1000,1000,12600,0,0.0030720883514732122,0.002730513922870159,0.002502339892089367,10,{}
normal_corridor_base_12,0,none,68349,0.0011823097011074424,0.000990044791251421,-0.09480919688940048,-35.3632622,149.1652375,-0.006,-0.01,0.01,0.0,-9.942217002389953e-05,9.444948227610439e-05,0.0,1000,1000,1000,1000,12600,0,0.003049563616514206,0.0027741286903619766,0.0027721570804715157,10,{}
normal_corridor_base_12,0,none,68599,0.0011912164045497775,0.0009966189973056316,-0.09487402439117432,-35.3632622,149.1652375,-0.006,-0.01,0.01,0.0,-9.942212636815384e-05,9.44494386203587e-05,0.0,1000,1000,1000,1000,12600,0,0.0027677591424435377,0.0031487424857914448,0.003059439593926072,10,{}
normal_corridor_base_12,0,none,68849,0.0011921684490516782,0.0009893809910863638,-0.094950832426548,-35.3632622,149.1652375,-0.006,-0.01,0.01,0.0,-9.942212636815384e-05,9.44493876886554e-05,0.0,1000,1000,1000,1000,12600,0,0.0028031845577061176,0.002640538616105914,0.002776769222691655,10,{}
normal_corridor_base_12,0,none,69099,0.0011959777912124991,0.0009909867076203227,-0.09501872211694717,-35.3632622,149.1652375,-0.006,-0.01,0.01,0.0,-9.942217729985714e-05,9.444942406844348e-05,0.0,1000,1000,1000,1000,12600,0,0.002786983037367463,0.0026758781168609858,0.0026023206301033497,10,{}
normal_corridor_base_12,0,none,69349,0.0011991376522928476,0.0009887464111670852,-0.09509454667568207,-35.3632622,149.1652375,-0.006,-0.01,0.01,0.0,-9.94222064036876e-05,9.444946044823155e-05,0.0,1000,1000,1000,1000,12600,0,0.0028962953947484493,0.0027751466259360313,0.0028039352037012577,10,{}
