flight_id,label,attack_type,timestamp,att_roll,att_pitch,att_yaw,pos_lat,pos_lon,pos_alt_rel,pos_vx,pos_vy,pos_vz,nav_roll,nav_pitch,nav_alt_error,servo1_raw,servo2_raw,servo3_raw,servo4_raw,sys_voltage_battery,sys_load,vib_x,vib_y,vib_z,gps_sats_visible,attack_params_json
normal_corridor_base_5,0,none,10204,0.00019454912398941815,-3.797787940129638e-05,-0.34038814902305603,-35.363261,149.1652299,0.0,0.0,0.0,-0.03,-9.942168253473938e-05,9.444944589631632e-05,0.0,1000,1000,1000,1000,12600,0,0.0028675561770796776,0.0029772287234663963,0.0027860975824296474,10,{}
normal_corridor_base_5,0,none,10536,0.00019946147222071886,-2.8413054678821936e-05,-0.30950045585632324,-35.363261,149.1652299,0.0,0.0,0.0,-0.03,-9.942168253473938e-05,9.444944589631632e-05,0.0,1000,1000,1000,1000,12600,0,0.002643662504851818,0.0027377114165574312,0.0030474369414150715,10,{}
normal_corridor_base_5,0,none,10869,0.00020193566160742193,-2.1120275050634518e-05,-0.2803114652633667,-35.363261,149.1652299,0.0,0.0,0.0,-0.03,-9.942171163856983e-05,9.444940951652825e-05,0.0,1000,1000,1000,1000,12600,0,0.0025596574414521456,0.00256520789116621,0.0027807275764644146,10,{}
normal_corridor_base_5,0,none,11202,0.00020514620700851083,-1.0788807230710518e-05,-0.2464565634727478,-35.363261,149.1652299,0.0,0.0,0.0,-0.03,-9.942158794729039e-05,9.444938041269779e-05,0.0,1000,1000,1000,1000,12600,0,0.002664396073669195,0.0027099926955997944,0.0030754113104194403,10,{}
normal_corridor_base_5,0,none,11534,0.0002098420081892982,-4.286737578240718e-07,-0.22320666909217834,-35.363261,149.1652299,0.0,0.0,0.0,-0.03,-9.942158794729039e-05,9.444938041269779e-05,0.0,1000,1000,1000,1000,12600,0,0.003086324315518141,0.002729385159909725,0.0029041895177215338,10,{}
normal_corridor_base_5,0,none,11869,0.00022093406005296856,3.89309252568637e-06,-0.20210911333560944,-35.363261,149.1652299,0.0,0.0,0.0,-0.02,-9.942158067133278e-05,9.444940224057063e-05,0.0,1000,1000,1000,1000,12600,0,0.003028291277587414,0.002609644317999482,0.0026846867986023426,10,{}
normal_corridor_base_5,0,none,12201,0.00022302263823803514,1.927107950905338e-05,-0.17758210003376007,-35.363261,149.1652299,0.0,0.0,0.0,-0.02,-9.94216461549513e-05,9.444939496461302e-05,0.0,1000,1000,1000,1000,12600,0,0.0029450845904648304,0.0026060710661113262,0.0029119292739778757,10,{}
normal_corridor_base_5,0,none,12534,0.0002311996795469895,2.5546481992932968e-05,-0.16146229207515717,-35.363261,149.1652299,0.0,0.0,0.0,-0.02,-9.94216461549513e-05,9.444939496461302e-05,0.0,1000,1000,1000,1000,12600,0,0.0028534745797514915,0.003115403465926647,0.0028567027766257524,10,{}
normal_corridor_base_5,0,none,12867,0.00023882384994067252,3.527367880451493e-05,-0.14715319871902466,-35.363261,149.1652299,0.0,0.0,0.0,-0.02,-9.942166070686653e-05,9.444937313674018e-05,0.0,1000,1000,1000,1000,12600,0,0.0026706946082413197,0.0029354833532124758,0.0027871839702129364,10,{}
normal_corridor_base_5,0,none,13199,0.0002469272294547409,4.079690916114487e-05,-0.13058100640773773,-35.363261,149.1652299,0.0,0.0,0.0,-0.02,-9.942163160303608e-05,9.444936586078256e-05,0.0,1000,1000,1000,1000,12600,0,0.0027065137401223183,0.0027123400941491127,0.002810284961014986,10,{}
normal_corridor_base_5,0,none,13532,0.00025818424182944,4.6270215534605086e-05,-0.1198815405368805,-35.363261,149.1652299,0.0,0.0,0.0,-0.01,-9.942163160303608e-05,9.444936586078256e-05,0.0,1000,1000,1000,1000,12600,0,0.002790022874251008,0.002652977127581835,0.002924981527030468,10,{}
normal_corridor_base_5,0,none,13866,0.0002677571901585907,5.632330430671573e-05,-0.11046017706394196,-35.363261,149.1652299,0.0,0.0,0.0,-0.01,-9.942163160303608e-05,9.444940224057063e-05,0.0,1000,1000,1000,1000,12600,0,0.0029537410009652376,0.0027013998478651047,0.002717008115723729,10,{}
normal_corridor_base_5,0,none,14199,0.0002782234223559499,6.539437163155526e-05,-0.09971003234386444,-35.363261,149.1652299,0.0,0.0,0.0,-0.01,-9.942152246367186e-05,9.444936586078256e-05,0.0,1000,1000,1000,1000,12600,0,0.002758793067187071,0.0027501750737428665,0.0027629267424345016,10,{}
normal_corridor_base_5,0,none,14531,0.00028721976559609175,7.729626668151468e-05,-0.09281208366155624,-35.363261,149.1652299,0.0,0.0,0.0,-0.01,-9.942152246367186e-05,9.444936586078256e-05,0.0,1000,1000,1000,1000,12600,0,0.0027488756459206343,0.0028161455411463976,0.0023218425922095776,10,{}
normal_corridor_base_5,0,none,14864,0.00030165459611453116,9.013641101773828e-05,-0.08679626137018204,-35.363261,149.1652299,0.0,0.0,0.0,-0.01,-9.942152973962948e-05,9.444933675695211e-05,0.0,1000,1000,1000,1000,12600,0,0.0028279456309974194,0.0027563583571463823,0.0028011230751872063,10,{}
normal_corridor_base_5,0,none,15357,0.0003206520341336727,0.00010651929187588394,-0.07719778269529343,-35.363261,149.1652299,0.0,0.0,0.0,-0.01,-9.942152973962948e-05,9.444933675695211e-05,0.0,1000,1000,1000,1000,12600,0,0.0027023665606975555,0.0027013954240828753,0.002471613697707653,10,{}
normal_corridor_base_5,0,none,15607,0.00033108144998550415,0.00011128994083264843,-0.0738343894481659,-35.363261,149.1652299,0.0,0.0,0.0,-0.01,-9.942150063579902e-05,9.444935130886734e-05,0.0,1000,1000,1000,1000,12600,0,0.0026842181105166674,0.0028208987787365913,0.0028050923720002174,10,{}
normal_corridor_base_5,0,none,15859,0.0003363890282344073,0.00012000498827546835,-0.07087501883506775,-35.363261,149.1652299,0.0,0.0,0.0,0.0,-9.942148608388379e-05,9.444936586078256e-05,0.0,1000,1000,1000,1000,12600,0,0.0026842181105166674,0.0028208987787365913,0.0028050923720002174,10,{}
normal_corridor_base_5,0,none,16109,0.00034575845347717404,0.00012983879423700273,-0.06822995096445084,-35.363261,149.1652299,0.0,0.0,0.0,0.0,-9.942147153196856e-05,9.444935858482495e-05,0.0,1000,1000,1000,1000,12600,0,0.0026219275314360857,0.002749236300587654,0.002636825433000922,10,{}
normal_corridor_base_5,0,none,16359,0.00035378028405830264,0.0001375292195007205,-0.06591206789016724,-35.363261,149.1652299,0.0,0.0,0.0,0.0,-9.942147880792618e-05,9.444936586078256e-05,0.0,1000,1000,1000,1000,12600,0,0.0031219490338116884,0.0025889179669320583,0.002885975409299135,10,{}
normal_corridor_base_5,0,none,16609,0.00036622723564505577,0.0001452677242923528,-0.06388644129037857,-35.363261,149.1652299,0.0,0.0,0.0,0.0,-9.942147880792618e-05,9.444936586078256e-05,0.0,1000,1000,1000,1000,12600,0,0.003223448758944869,0.002749244449660182,0.0025721481069922447,10,{}
normal_corridor_base_5,0,none,16859,0.0003762731794267893,0.00015426664322149009,-0.062099505215883255,-35.363261,149.1652299,0.0,0.0,0.0,0.0,-9.942150063579902e-05,9.444940951652825e-05,0.0,1000,1000,1000,1000,12600,0,0.003223448758944869,0.002749244449660182,0.0025721481069922447,10,{}
normal_corridor_base_5,0,none,17107,0.0003876704431604594,0.00015917117707431316,-0.06052391231060028,-35.363261,149.1652299,0.0,0.0,0.0,0.0,-9.942150063579902e-05,9.444940951652825e-05,0.0,1000,1000,1000,1000,12600,0,0.00281738699413836,0.002777023706585169,0.0027384813874959946,10,{}
normal_corridor_base_5,0,none,17554,0.00039584419573657215,0.00016780977603048086,-0.059199802577495575,-35.363261,149.1652299,0.0,0.0,0.0,0.0,-9.942155156750232e-05,9.444937313674018e-05,0.0,1000,1000,1000,1000,12600,0,0.002808624878525734,0.0026906831189990044,0.0029932179022580385,10,{}
normal_corridor_base_5,0,none,17887,0.0004170166503172368,0.00018795504001900554,-0.05686793103814125,-35.363261,149.1652299,0.0,0.0,0.0,0.0,-9.942160977516323e-05,9.444932220503688e-05,0.0,1000,1000,1000,1000,12600,0,0.002800244139507413,0.0027958734426647425,0.0026383106596767902,10,{}
normal_corridor_base_5,0,none,18219,0.00042726239189505577,0.00020434800535440445,-0.05582809075713158,-35.363261,149.1652299,0.0,0.0,0.0,0.0,-9.942160977516323e-05,9.444932220503688e-05,0.0,1000,1000,1000,1000,12600,0,0.0028855926357209682,0.0028658579103648663,0.0030399176757782698,10,{}
normal_corridor_base_5,0,none,18554,0.0004398371384013444,0.00021510801161639392,-0.05498206242918968,-35.363261,149.1652299,0.0,0.0,0.0,0.0,-9.942166798282415e-05,9.444934403290972e-05,0.0,1000,1000,1000,1000,12600,0,0.002870244672521949,0.0029715541750192642,0.0029666046611964703,10,{}
normal_corridor_base_5,0,none,18886,0.0004601486725732684,0.00023459298245143145,-0.05413621664047241,-35.363261,149.1652299,0.0,0.0,0.0,0.0,-9.942162432707846e-05,9.444930765312165e-05,0.0,1000,1000,1000,1000,12600,0,0.0028662432450801134,0.002899250714108348,0.0029475283809006214,10,{}
normal_corridor_base_5,0,none,19219,0.0004770827654283494,0.00024930169456638396,-0.053654301911592484,-35.363261,149.1652299,0.0,0.0,0.0,0.0,-9.942162432707846e-05,9.444930765312165e-05,0.0,1000,1000,1000,1000,12600,0,0.0026907557621598244,0.0029767989180982113,0.002741398988291621,10,{}
normal_corridor_base_5,0,none,19552,0.00048642640467733145,0.00025918459868989885,-0.05330047756433487,-35.363261,149.1652299,0.0,0.0,0.0,0.0,-9.9421595223248e-05,9.444933675695211e-05,0.0,1000,1000,1000,1000,12600,0,0.0028668211307376623,0.0028846580535173416,0.002922694431617856,10,{}
normal_corridor_base_5,0,none,19884,0.0005123517476022243,0.0002776297915261239,-0.05293942615389824,-35.363261,149.1652299,0.0,0.0,0.0,0.0,-9.942166798282415e-05,9.444935858482495e-05,0.0,1000,1000,1000,1000,12600,0,0.002986100735142827,0.0026876486372202635,0.002959795296192169,10,{}
normal_corridor_base_5,0,none,20219,0.000530284596607089,0.00029820221243426204,-0.05262715369462967,-35.363261,149.1652299,-0.006,0.0,0.0,0.0,-9.942166798282415e-05,9.444935858482495e-05,0.0,1000,1000,1000,1000,12600,0,0.003048550570383668,0.0027875672094523907,0.002582498360425234,10,{}
normal_corridor_base_5,0,none,20551,0.000544561306014657,0.0003122978378087282,-0.052594881504774094,-35.363261,149.1652299,-0.008,0.0,0.0,0.0,-9.942175529431552e-05,9.444938041269779e-05,0.0,1000,1000,1000,1000,12600,0,0.002760328119620681,0.0029310162644833326,0.0026128285098820925,10,{}
normal_corridor_base_5,0,none,20884,0.0005650813109241426,0.00033373545738868415,-0.05268440768122673,-35.363261,149.1652299,-0.007,0.0,0.0,0.0,-9.942174074240029e-05,9.444939496461302e-05,0.0,1000,1000,1000,1000,12600,0,0.0029487176798284054,0.0028447250369936228,0.0030376503709703684,10,{}
normal_corridor_base_5,0,none,21217,0.0005794393946416676,0.0003483412438072264,-0.0527934655547142,-35.363261,149.1652299,-0.005,0.0,0.0,0.0,-9.942174074240029e-05,9.444939496461302e-05,0.0,1000,1000,1000,1000,12600,0,0.0029002767987549305,0.0025698260869830847,0.002779854228720069,10,{}
normal_corridor_base_5,0,none,21549,0.0005950406193733215,0.00036336161429062486,-0.05299128219485283,-35.363261,149.1652299,-0.004,0.0,0.0,0.0,-9.942179167410359e-05,9.444937313674018e-05,0.0,1000,1000,1000,1000,12600,0,0.0027506586629897356,0.0029060044325888157,0.0026817359030246735,10,{}
normal_corridor_base_5,0,none,21882,0.0006216979236342013,0.0003833383962046355,-0.053290270268917084,-35.363261,149.1652299,-0.002,0.0,0.0,0.0,-9.942179167410359e-05,9.444934403290972e-05,0.0,1000,1000,1000,1000,12600,0,0.0032421418000012636,0.00288716540671885,0.0028300052508711815,10,{}
normal_corridor_base_5,0,none,22216,0.0006401288555935025,0.0004004394868388772,-0.05355466529726982,-35.363261,149.1652299,-0.001,0.0,0.01,0.0,-9.942179167410359e-05,9.444934403290972e-05,0.0,1000,1000,1000,1000,12600,0,0.0028008923400193453,0.0026181249413639307,0.0028010187670588493,10,{}
normal_corridor_base_5,0,none,22549,0.00065844930941239,0.00041998119559139013,-0.053853780031204224,-35.363261,149.1652299,0.0,0.0,0.01,0.0,-9.942186443367973e-05,9.444946772418916e-05,0.0,1000,1000,1000,1000,12600,0,0.002745429752394557,0.002834024839103222,0.0029590423218905926,10,{}
normal_corridor_base_5,0,none,22881,0.0006830415222793818,0.0004470415588002652,-0.05432289466261864,-35.363261,149.1652299,0.0,0.0,0.01,0.0,-9.942193719325587e-05,9.444945317227393e-05,0.0,1000,1000,1000,1000,12600,0,0.0027020922861993313,0.00254657375626266,0.003103459719568491,10,{}
normal_corridor_base_5,0,none,23214,0.0006995823932811618,0.00046337750973179936,-0.05467468127608299,-35.363261,149.1652299,0.001,-0.01,0.01,0.0,-9.942193719325587e-05,9.444945317227393e-05,0.0,1000,1000,1000,1000,12600,0,0.0031550852581858635,0.002919123973697424,0.0027235231827944517,10,{}
normal_corridor_base_5,0,none,23547,0.0007121020462363958,0.00048371427692472935,-0.05510718747973442,-35.363261,149.1652299,0.001,-0.01,0.01,0.0,-9.942189353751019e-05,9.444942406844348e-05,0.0,1000,1000,1000,1000,12600,0,0.002669179579243064,0.002868229290470481,0.0027925812173634768,10,{}
normal_corridor_base_5,0,none,23882,0.000732449465431273,0.0005025421269237995,-0.05563324689865112,-35.363261,149.1652299,0.002,-0.01,0.01,0.0,-9.942183532984927e-05,9.444939496461302e-05,0.0,1000,1000,1000,1000,12600,0,0.0025607456918805838,0.002708432264626026,0.0026236295234411955,10,{}
normal_corridor_base_5,0,none,24214,0.000747059122659266,0.0005224252818152308,-0.056064289063215256,-35.363261,149.1652299,0.002,-0.01,0.01,0.0,-9.942183532984927e-05,9.444939496461302e-05,0.0,1000,1000,1000,1000,12600,0,0.0026608367916196585,0.0027349614538252354,0.0026122373528778553,10,{}
normal_corridor_base_5,0,none,24546,0.0007601308170706034,0.0005337616894394159,-0.056492358446121216,-35.363261,149.1652299,0.002,-0.01,0.01,0.0,-9.942187170963734e-05,9.444942406844348e-05,0.0,1000,1000,1000,1000,12600,0,0.0028304599691182375,0.002903766930103302,0.002738596173003316,10,{}
normal_corridor_base_5,0,none,24879,0.0007828072994016111,0.0005563986487686634,-0.057088423520326614,-35.363261,149.1652299,0.002,-0.01,0.01,0.0,-9.942192264134064e-05,9.444948227610439e-05,0.0,1000,1000,1000,1000,12600,0,0.0027717966586351395,0.0030272630974650383,0.002766666002571583,10,{}
normal_corridor_base_5,0,none,25214,0.0007940192590467632,0.000575206067878753,-0.05754430219531059,-35.363261,149.1652299,0.003,-0.01,0.01,0.0,-9.942192264134064e-05,9.444948227610439e-05,0.0,1000,1000,1000,1000,12600,0,0.0028530117124319077,0.002681095851585269,0.0026430166326463223,10,{}
normal_corridor_base_5,0,none,25547,0.0008085393346846104,0.0005865634302608669,-0.05802081525325775,-35.363261,149.1652299,0.003,-0.01,0.01,0.0,-9.942188626155257e-05,9.444949682801962e-05,0.0,1000,1000,1000,1000,12600,0,0.0025648721493780613,0.002829157281666994,0.0028951966669410467,10,{}
normal_corridor_base_5,0,none,25879,0.0008266427321359515,0.0006104956846684217,-0.05852600932121277,-35.363261,149.1652299,0.002,-0.01,0.01,0.0,-9.942189353751019e-05,9.444949682801962e-05,0.0,1000,1000,1000,1000,12600,0,0.002737416187301278,0.00297439843416214,0.0029722382314503193,10,{}
normal_corridor_base_5,0,none,26212,0.0008455323404632509,0.0006196027970872819,-0.0590127594769001,-35.363261,149.1652299,0.002,-0.01,0.01,0.0,-9.942189353751019e-05,9.444949682801962e-05,0.0,1000,1000,1000,1000,12600,0,0.0030498935375362635,0.0027842530980706215,0.0031041642650961876,10,{}
normal_corridor_base_5,0,none,26544,0.0008583093294873834,0.0006250111619010568,-0.059504903852939606,-35.363261,149.1652299,0.002,-0.01,0.01,0.0,-9.94219008134678e-05,9.444946044823155e-05,0.0,1000,1000,1000,1000,12600,0,0.0025588416028767824,0.002703001257032156,0.002973725786432624,10,{}
normal_corridor_base_5,0,none,26879,0.0008731030975468457,0.0006389777990989387,-0.06016070023179054,-35.363261,149.1652299,0.002,-0.01,0.01,0.0,-9.942192991729826e-05,9.444946044823155e-05,0.0,1000,1000,1000,1000,12600,0,0.0028751688078045845,0.0028230317402631044,0.0025919857434928417,10,{}
normal_corridor_base_5,0,none,27211,0.0008877161890268326,0.0006526180077344179,-0.06066387891769409,-35.363261,149.1652299,0.002,-0.01,0.01,0.0,-9.942192991729826e-05,9.444946044823155e-05,0.0,1000,1000,1000,1000,12600,0,0.0028235602658241987,0.002830269280821085,0.0028804729226976633,10,{}
normal_corridor_base_5,0,none,27544,0.0008963860454969108,0.0006559396861121058,-0.061165690422058105,-35.363261,149.1652299,0.001,-0.01,0.01,0.0,-9.942197357304394e-05,9.444953320780769e-05,0.0,1000,1000,1000,1000,12600,0,0.0026403749361634254,0.0027773198671638966,0.002697143703699112,10,{}
normal_corridor_base_5,0,none,27877,0.0009129554382525384,0.0006739950622431934,-0.06183219701051712,-35.363261,149.1652299,0.001,-0.01,0.01,0.0,-9.942198084900156e-05,9.444950410397723e-05,0.0,1000,1000,1000,1000,12600,0,0.0028007719665765762,0.0027024131268262863,0.0028017277363687754,10,{}
normal_corridor_base_5,0,none,28209,0.000921564525924623,0.0006860792636871338,-0.06230960786342621,-35.363261,149.1652299,0.001,-0.01,0.01,0.0,-9.942198084900156e-05,9.444950410397723e-05,0.0,1000,1000,1000,1000,12600,0,0.002748163416981697,0.002981490222737193,0.002772213891148567,10,{}
normal_corridor_base_5,0,none,28544,0.000934291398152709,0.0006964629865251482,-0.06281717121601105,-35.363261,149.1652299,0.0,-0.01,0.01,0.0,-9.942203178070486e-05,9.444956958759576e-05,0.0,1000,1000,1000,1000,12600,0,0.002614915370941162,0.002767277881503105,0.002911259653046727,10,{}
normal_corridor_base_5,0,none,28876,0.0009472504607401788,0.0007170547032728791,-0.06345197558403015,-35.363261,149.1652299,0.0,-0.01,0.01,0.0,-9.942211181623861e-05,9.444962051929906e-05,0.0,1000,1000,1000,1000,12600,0,0.003054305911064148,0.002892939606681466,0.0027818940579891205,10,{}
normal_corridor_base_5,0,none,29209,0.0009595277952030301,0.0007345224148593843,-0.06393423676490784,-35.363261,149.1652299,0.0,-0.01,0.01,0.0,-9.942211181623861e-05,9.444962051929906e-05,0.0,1000,1000,1000,1000,12600,0,0.002949067624285817,0.0025482350029051304,0.0023937844671308994,10,{}
normal_corridor_base_5,0,none,29542,0.0009744500275701284,0.0007404510397464037,-0.06439964473247528,-35.363261,149.1652299,0.0,-0.01,0.01,0.0,-9.942224278347567e-05,9.444967872695997e-05,0.0,1000,1000,1000,1000,12600,0,0.002805558731779456,0.0026198732666671276,0.0027244389057159424,10,{}
normal_corridor_base_5,0,none,29874,0.0009877500124275684,0.0007565683918073773,-0.06504836678504944,-35.363261,149.1652299,0.0,-0.01,0.02,0.0,-9.942230099113658e-05,9.444968600291759e-05,0.0,1000,1000,1000,1000,12600,0,0.0027454013470560312,0.0029920516535639763,0.0028439657762646675,10,{}
normal_corridor_base_5,0,none,30357,0.0009989721002057195,0.0007763414760120213,-0.06582410633563995,-35.363261,149.1652299,-0.001,-0.01,0.02,0.0,-9.942230099113658e-05,9.444968600291759e-05,0.0,1000,1000,1000,1000,12600,0,0.0029650661163032055,0.002758829155936837,0.0027487471234053373,10,{}
normal_corridor_base_5,0,none,30609,0.0010032141581177711,0.000782694376539439,-0.06622231006622314,-35.363261,149.1652299,-0.001,-0.01,0.02,0.0,-9.942230099113658e-05,9.444968600291759e-05,0.0,1000,1000,1000,1000,12600,0,0.002847646363079548,0.002629925962537527,0.002897900063544512,10,{}
normal_corridor_base_5,0,none,30859,0.0010150817688554525,0.000789501762483269,-0.06658732891082764,-35.363261,149.1652299,-0.001,-0.01,0.02,0.0,-9.942248289007694e-05,9.444988245377317e-05,0.0,1000,1000,1000,1000,12600,0,0.0027452956419438124,0.0027041237335652113,0.0029417253099381924,10,{}
normal_corridor_base_5,0,none,31109,0.0010174473281949759,0.0007945855031721294,-0.066986083984375,-35.363261,149.1652299,-0.002,-0.01,0.02,0.0,-9.942248289007694e-05,9.444988245377317e-05,0.0,1000,1000,1000,1000,12600,0,0.0025769108906388283,0.0027669810224324465,0.0030055949464440346,10,{}
normal_corridor_base_5,0,none,31564,0.0010302014416083694,0.0008001132518984377,-0.06734599173069,-35.363261,149.1652299,-0.002,-0.01,0.02,0.0,-9.942254109773785e-05,9.444995521334931e-05,0.0,1000,1000,1000,1000,12600,0,0.0028622495010495186,0.002820268040522933,0.002973902504891157,10,{}
normal_corridor_base_5,0,none,31897,0.0010420772014185786,0.000808591372333467,-0.06800622493028641,-35.363261,149.1652299,-0.003,-0.01,0.02,0.0,-9.942249016603455e-05,9.444988972973078e-05,0.0,1000,1000,1000,1000,12600,0,0.0027411088813096285,0.0029415511526167393,0.0027524519246071577,10,{}
normal_corridor_base_5,0,none,32229,0.001051034894771874,0.0008147870539687574,-0.06844957917928696,-35.363261,149.1652299,-0.003,-0.01,0.02,0.0,-9.942246833816171e-05,9.444996248930693e-05,0.0,1000,1000,1000,1000,12600,0,0.002918933518230915,0.002855700673535466,0.002673976356163621,10,{}
normal_corridor_base_5,0,none,32561,0.00106325326487422,0.0008255102438852191,-0.06905308365821838,-35.363261,149.1652299,-0.003,-0.01,0.02,0.0,-9.942246833816171e-05,9.444996248930693e-05,0.0,1000,1000,1000,1000,12600,0,0.0030758753418922424,0.002673085080459714,0.0028119629714637995,10,{}
normal_corridor_base_5,0,none,32894,0.0010681725107133389,0.0008420061785727739,-0.06947597116231918,-35.363261,149.1652299,-0.004,-0.01,0.02,0.0,-9.942253382178023e-05,9.444997704122216e-05,0.0,1000,1000,1000,1000,12600,0,0.0026606256142258644,0.002632409567013383,0.0029203230515122414,10,{}
normal_corridor_base_5,0,none,33229,0.0010776559356600046,0.0008538751862943172,-0.0699126347899437,-35.363261,149.1652299,-0.004,-0.01,0.02,0.0,-9.942258475348353e-05,9.444995521334931e-05,0.0,1000,1000,1000,1000,12600,0,0.0028562876395881176,0.002843425842002034,0.002838193904608488,10,{}
normal_corridor_base_5,0,none,33561,0.0010988410795107484,0.0008656997815705836,-0.07048055529594421,-35.363261,149.1652299,-0.004,-0.01,0.02,0.0,-9.942258475348353e-05,9.444995521334931e-05,0.0,1000,1000,1000,1000,12600,0,0.002779295900836587,0.0028370432555675507,0.00269269454292953,10,{}
normal_corridor_base_5,0,none,33894,0.0011117904214188457,0.0008751795394346118,-0.07090900838375092,-35.363261,149.1652299,-0.004,-0.01,0.02,0.0,-9.942254837369546e-05,9.444997704122216e-05,0.0,1000,1000,1000,1000,12600,0,0.0027921809814870358,0.0029136722441762686,0.0028593873139470816,10,{}
normal_corridor_base_5,0,none,34227,0.0011183889582753181,0.0008832549210637808,-0.07131178677082062,-35.363261,149.1652299,-0.005,-0.02,0.02,0.0,-9.942247561411932e-05,9.444998431717977e-05,0.0,1000,1000,1000,1000,12600,0,0.0032814948353916407,0.0024947109632194042,0.0027318985667079687,10,{}
normal_corridor_base_5,0,none,34559,0.0011280255857855082,0.0008962902356870472,-0.07171778380870819,-35.363261,149.1652299,-0.005,-0.02,0.02,0.0,-9.942247561411932e-05,9.444998431717977e-05,0.0,1000,1000,1000,1000,12600,0,0.0027297455817461014,0.0029519496019929647,0.0028980534989386797,10,{}
normal_corridor_base_5,0,none,34894,0.0011387360282242298,0.0009132294217124581,-0.07225397974252701,-35.363261,149.1652299,-0.005,-0.02,0.02,0.0,-9.94224101305008e-05,9.444998431717977e-05,0.0,1000,1000,1000,1000,12600,0,0.0025054910220205784,0.002874532015994191,0.0028768754564225674,10,{}
normal_corridor_base_5,0,none,35226,0.0011475887149572372,0.0009210649877786636,-0.07264593988656998,-35.363261,149.1652299,-0.005,-0.02,0.02,0.0,-9.942233009496704e-05,9.444995521334931e-05,0.0,1000,1000,1000,1000,12600,0,0.0030352759640663862,0.0028649689629673958,0.0025384980253875256,10,{}
normal_corridor_base_5,0,none,35559,0.001156393438577652,0.0009297862998209894,-0.07304153591394424,-35.363261,149.1652299,-0.005,-0.02,0.02,0.0,-9.942233009496704e-05,9.444995521334931e-05,0.0,1000,1000,1000,1000,12600,0,0.002541997702792287,0.0028218969237059355,0.002664721803739667,10,{}
normal_corridor_base_5,0,none,35892,0.0011638185242190957,0.0009319335804320872,-0.07357333600521088,-35.363261,149.1652299,-0.005,-0.02,0.02,0.0,-9.94223591987975e-05,9.444991883356124e-05,0.0,1000,1000,1000,1000,12600,0,0.002708600601181388,0.00278037553653121,0.002884162124246359,10,{}
normal_corridor_base_5,0,none,36224,0.0011675551068037748,0.0009463719907216728,-0.07386547327041626,-35.363261,149.1652299,-0.005,-0.02,0.02,0.0,-9.942230099113658e-05,9.444993338547647e-05,0.0,1000,1000,1000,1000,12600,0,0.0030257119797170162,0.0027613218408077955,0.002823470626026392,10,{}
normal_corridor_base_5,0,none,36557,0.0011781761422753334,0.0009576366282999516,-0.0742456465959549,-35.363261,149.1652299,-0.005,-0.02,0.02,0.0,-9.942230099113658e-05,9.444993338547647e-05,0.0,1000,1000,1000,1000,12600,0,0.0029454748146235943,0.002530390629544854,0.0027416988741606474,10,{}
normal_corridor_base_5,0,none,36891,0.0011897579533979297,0.0009774662321433425,-0.07474777847528458,-35.363261,149.1652299,-0.005,-0.02,0.02,0.0,-9.94223082670942e-05,9.44498970056884e-05,0.0,1000,1000,1000,1000,12600,0,0.002516076434403658,0.002690778113901615,0.002558968961238861,10,{}
normal_corridor_base_5,0,none,37224,0.001198686775751412,0.000991116976365447,-0.07510767877101898,-35.363261,149.1652299,-0.005,-0.02,0.02,0.0,-9.94223082670942e-05,9.44498970056884e-05,0.0,1000,1000,1000,1000,12600,0,0.003060134593397379,0.002844472648575902,0.0026899955701082945,10,{}
normal_corridor_base_5,0,none,37556,0.0012105621863156557,0.0010021704947575927,-0.07547487318515778,-35.363261,149.1652299,-0.005,-0.02,0.02,0.0,-9.942233737092465e-05,9.444990428164601e-05,0.0,1000,1000,1000,1000,12600,0,0.0028293852228671312,0.0024745564442127943,0.002642150269821286,10,{}
normal_corridor_base_5,0,none,37889,0.0012119034072384238,0.0010199063690379262,-0.07594241946935654,-35.363261,149.1652299,-0.006,-0.02,0.02,0.0,-9.94223082670942e-05,9.444986062590033e-05,0.0,1000,1000,1000,1000,12600,0,0.002669735811650753,0.0026798422913998365,0.00278818910010159,10,{}
normal_corridor_base_5,0,none,38222,0.0012234145542606711,0.0010344047332182527,-0.0763087123632431,-35.363261,149.1652299,-0.006,-0.02,0.02,0.0,-9.94223082670942e-05,9.444986062590033e-05,0.0,1000,1000,1000,1000,12600,0,0.0028612297028303146,0.0027907206676900387,0.002673342591151595,10,{}
normal_corridor_base_5,0,none,38557,0.0012307113502174616,0.001041397568769753,-0.07665424793958664,-35.363261,149.1652299,-0.006,-0.02,0.02,0.0,-9.942232281900942e-05,9.444986062590033e-05,0.0,1000,1000,1000,1000,12600,0,0.003018281888216734,0.0030696368776261806,0.00281439907848835,10,{}
normal_corridor_base_5,0,none,38889,0.0012454361421987414,0.0010535790352150798,-0.07712441682815552,-35.363261,149.1652299,-0.006,-0.02,0.02,0.0,-9.942227916326374e-05,9.444983879802749e-05,0.0,1000,1000,1000,1000,12600,0,0.002754160203039646,0.0028950562700629234,0.0029108538292348385,10,{}
normal_corridor_base_5,0,none,39221,0.0012493748217821121,0.001065284595824778,-0.07746351510286331,-35.363261,149.1652299,-0.006,-0.02,0.02,0.0,-9.942227916326374e-05,9.444983879802749e-05,0.0,1000,1000,1000,1000,12600,0,0.0026869219727814198,0.0028156102634966373,0.002773179206997156,10,{}
normal_corridor_base_5,0,none,39554,0.00124745920766145,0.0010703359730541706,-0.07780418545007706,-35.363261,149.1652299,-0.006,-0.02,0.02,0.0,-9.942225005943328e-05,9.444986062590033e-05,0.0,1000,1000,1000,1000,12600,0,0.002696624491363764,0.0027607351075857878,0.0028254850767552853,10,{}
normal_corridor_base_5,0,none,39889,0.001258102711290121,0.0010794928530231118,-0.07823223620653152,-35.363261,149.1652299,-0.006,-0.02,0.02,0.0,-9.942224278347567e-05,9.444988245377317e-05,0.0,1000,1000,1000,1000,12600,0,0.002856813371181488,0.0030006892047822475,0.002566347364336252,10,{}
normal_corridor_base_5,0,none,40222,0.0012645759852603078,0.0010840921895578504,-0.0785665288567543,-35.363261,149.1652299,-0.006,-0.02,0.02,0.0,-9.942224278347567e-05,9.444988245377317e-05,0.0,1000,1000,1000,1000,12600,0,0.002778333146125078,0.0032163141295313835,0.002970297820866108,10,{}
normal_corridor_base_5,0,none,40554,0.0012769736349582672,0.0010925984242931008,-0.07887048274278641,-35.363261,149.1652299,-0.006,-0.02,0.02,0.0,-9.942226461134851e-05,9.444991155760363e-05,0.0,1000,1000,1000,1000,12600,0,0.002642206149175763,0.002900110324844718,0.0027211690321564674,10,{}
normal_corridor_base_5,0,none,40886,0.0012831263011321425,0.0010959054343402386,-0.07926824688911438,-35.363261,149.1652299,-0.006,-0.02,0.02,0.0,-9.942224278347567e-05,9.444990428164601e-05,0.0,1000,1000,1000,1000,12600,0,0.0027323917020112276,0.0028187741991132498,0.002539609093219042,10,{}
normal_corridor_base_5,0,none,41219,0.001290339045226574,0.0011102042626589537,-0.07954574376344681,-35.363261,149.1652299,-0.006,-0.02,0.02,0.0,-9.942224278347567e-05,9.444990428164601e-05,0.0,1000,1000,1000,1000,12600,0,0.00283869169652462,0.0030389539897441864,0.002862795488908887,10,{}
normal_corridor_base_5,0,none,41554,0.0012985753128305078,0.0011155771790072322,-0.0798533484339714,-35.363261,149.1652299,-0.006,-0.02,0.02,0.0,-9.942227916326374e-05,9.444992610951886e-05,0.0,1000,1000,1000,1000,12600,0,0.003028340172022581,0.003050975501537323,0.002721346216276288,10,{}
normal_corridor_base_5,0,none,41886,0.001332340994849801,0.0011550175258889794,-0.08025965094566345,-35.363261,149.1652299,-0.006,0.0,0.0,0.0,-9.942232281900942e-05,9.444991883356124e-05,0.0,1000,1000,1000,1000,12600,0,0.0028793432284146547,0.002690957859158516,0.0030625094659626484,10,{}
normal_corridor_base_5,0,none,42219,0.0014166878536343575,0.0012378102401271462,-0.08056757599115372,-35.363261,149.1652299,-0.006,0.0,0.0,0.0,-9.942232281900942e-05,9.444991883356124e-05,0.0,1000,1000,1000,1000,12600,0,0.0027128690853714943,0.0025999697390943766,0.002750973915681243,10,{}
normal_corridor_base_5,0,none,42552,0.0014847628772258759,0.0013050104025751352,-0.08086737990379333,-35.363261,149.1652299,-0.006,0.0,0.0,0.0,-9.942228643922135e-05,9.444991883356124e-05,0.0,1000,1000,1000,1000,12600,0,0.002989140572026372,0.0028299561236053705,0.0027315139304846525,10,{}
normal_corridor_base_5,0,none,42884,0.0015617510071024299,0.001385183073580265,-0.08127078413963318,-35.363261,149.1652299,-0.006,0.0,0.01,0.0,-9.942231554305181e-05,9.444992610951886e-05,0.0,1000,1000,1000,1000,12600,0,0.0026448259595781565,0.0026562348939478397,0.002697392599657178,10,{}
normal_corridor_base_5,0,none,43219,0.0016153356991708279,0.0014360389905050397,-0.08158224821090698,-35.363261,149.1652299,-0.006,-0.01,0.01,0.0,-9.942231554305181e-05,9.444992610951886e-05,0.0,1000,1000,1000,1000,12600,0,0.0029772657435387373,0.002658145036548376,0.0026924533303827047,10,{}
normal_corridor_base_5,0,none,43551,0.0016462414059787989,0.0014627256896346807,-0.08188880234956741,-35.363261,149.1652299,-0.006,-0.01,0.01,0.0,-9.94223082670942e-05,9.444988245377317e-05,0.0,1000,1000,1000,1000,12600,0,0.002718358999118209,0.0030255524907261133,0.0027178581804037094,10,{}
normal_corridor_base_5,0,none,43884,0.0016583919059485197,0.0014770659618079662,-0.08229593187570572,-35.363261,149.1652299,-0.006,-0.01,0.01,0.0,-9.942233737092465e-05,9.444985334994271e-05,0.0,1000,1000,1000,1000,12600,0,0.0029475141782313585,0.0029171109199523926,0.0025344667956233025,10,{}
normal_corridor_base_5,0,none,44217,0.001645060139708221,0.001465811743400991,-0.08260276168584824,-35.363261,149.1652299,-0.006,-0.01,0.01,0.0,-9.942233737092465e-05,9.444985334994271e-05,0.0,1000,1000,1000,1000,12600,0,0.0027303649112582207,0.002833425533026457,0.0030765694100409746,10,{}
normal_corridor_base_5,0,none,44549,0.001625235308893025,0.0014379228232428432,-0.082890085875988,-35.363261,149.16523,-0.006,-0.01,0.02,0.0,-9.942238830262795e-05,9.44498970056884e-05,0.0,1000,1000,1000,1000,12600,0,0.0028386698104441166,0.0028467457741498947,0.0026146559976041317,10,{}
normal_corridor_base_5,0,none,44882,0.0015685777179896832,0.001386052230373025,-0.08325724303722382,-35.363261,149.16523,-0.006,-0.01,0.02,0.0,-9.942234464688227e-05,9.444986790185794e-05,0.0,1000,1000,1000,1000,12600,0,0.0024637847673147917,0.0028509993571788073,0.002582488115876913,10,{}
normal_corridor_base_5,0,none,45359,0.001479779719375074,0.0012987024383619428,-0.08371084183454514,-35.3632611,149.16523,-0.006,-0.01,0.02,0.0,-9.942234464688227e-05,9.444986790185794e-05,0.0,1000,1000,1000,1000,12600,0,0.0027506924234330654,0.0028902252670377493,0.0025581042282283306,10,{}
normal_corridor_base_5,0,none,45609,0.0014392905868589878,0.0012611208949238062,-0.08392900973558426,-35.3632611,149.16523,-0.006,-0.01,0.02,0.0,-9.942233737092465e-05,9.444988972973078e-05,0.0,1000,1000,1000,1000,12600,0,0.0026382827199995518,0.0028984176460653543,0.0026141763664782047,10,{}
normal_corridor_base_5,0,none,45859,0.0013833766570314765,0.0012024238239973783,-0.0841258093714714,-35.3632611,149.16523,-0.006,-0.01,0.02,0.0,-9.942232281900942e-05,9.444988245377317e-05,0.0,1000,1000,1000,1000,12600,0,0.0030986382625997066,0.0027661113999783993,0.0028485991060733795,10,{}
normal_corridor_base_5,0,none,46109,0.0013420513132587075,0.001157171092927456,-0.0843360424041748,-35.3632611,149.16523,-0.006,-0.01,0.01,0.0,-9.942230099113658e-05,9.444987517781556e-05,0.0,1000,1000,1000,1000,12600,0,0.002964441664516926,0.0029269512742757797,0.002818138338625431,10,{}
normal_corridor_base_5,0,none,46357,0.001302325981669128,0.0011121886782348156,-0.0845024436712265,-35.3632611,149.16523,-0.006,-0.01,0.01,0.0,-9.942227916326374e-05,9.444988245377317e-05,0.0,1000,1000,1000,1000,12600,0,0.0026376990135759115,0.0026923753321170807,0.002795394277200103,10,{}
normal_corridor_base_5,0,none,46607,0.0012755653588101268,0.0010910893324762583,-0.08466821908950806,-35.3632611,149.16523,-0.006,-0.01,0.01,0.0,-9.942231554305181e-05,9.444991883356124e-05,0.0,1000,1000,1000,1000,12600,0,0.0025980600621551275,0.002760016592219472,0.002596876583993435,10,{}
normal_corridor_base_5,0,none,46857,0.0012299279915168881,0.0010512996232137084,-0.08486584573984146,-35.3632611,149.16523,-0.006,-0.01,0.01,0.0,-9.942226461134851e-05,9.444991155760363e-05,0.0,1000,1000,1000,1000,12600,0,0.0029620593413710594,0.0027733377646654844,0.002418660558760166,10,{}
normal_corridor_base_5,0,none,47109,0.001197610516101122,0.001022752607241273,-0.08504755795001984,-35.363261,149.16523,-0.006,-0.01,0.01,0.0,-9.942224278347567e-05,9.444992610951886e-05,0.0,1000,1000,1000,1000,12600,0,0.0028424265328794718,0.0027120981831103563,0.0024378583766520023,10,{}
normal_corridor_base_5,0,none,47359,0.0011716082226485014,0.0010006602387875319,-0.08523144572973251,-35.363261,149.16523,-0.006,-0.01,0.01,0.0,-9.942222095560282e-05,9.444990428164601e-05,0.0,1000,1000,1000,1000,12600,0,0.002942302729934454,0.00285010295920074,0.0027276657056063414,10,{}
normal_corridor_base_5,0,none,47609,0.0011574157979339361,0.0009868261404335499,-0.08540232479572296,-35.363261,149.16523,-0.006,-0.01,0.01,0.0,-9.942217729985714e-05,9.444986790185794e-05,0.0,1000,1000,1000,1000,12600,0,0.0027303090319037437,0.0027330066077411175,0.002782264491543174,10,{}
normal_corridor_base_5,0,none,47859,0.0011315657757222652,0.0009639391209930182,-0.08558480441570282,-35.363261,149.16523,-0.006,-0.01,0.01,0.0,-9.942214819602668e-05,9.444982424611226e-05,0.0,1000,1000,1000,1000,12600,0,0.002810887759551406,0.002708232030272484,0.002716965042054653,10,{}
normal_corridor_base_5,0,none,48109,0.0011161502916365862,0.0009478863212279975,-0.08574502170085907,-35.363261,149.16523,-0.006,-0.01,0.01,0.0,-9.942212636815384e-05,9.444983152206987e-05,0.0,1000,1000,1000,1000,12600,0,0.0030491205397993326,0.002733191242441535,0.002740527968853712,10,{}
normal_corridor_base_5,0,none,48357,0.001106012612581253,0.00093677086988464,-0.08592470735311508,-35.363261,149.16523,-0.006,-0.01,0.01,0.0,-9.9422104540281e-05,9.444981697015464e-05,0.0,1000,1000,1000,1000,12600,0,0.0027207722887396812,0.0029172629583626986,0.0028043659403920174,10,{}
normal_corridor_base_5,0,none,48607,0.0010997147765010595,0.0009313396876677871,-0.08608714491128922,-35.363261,149.16523,-0.006,-0.01,0.01,0.0,-9.942207543645054e-05,9.444981697015464e-05,0.0,1000,1000,1000,1000,12600,0,0.002890377538278699,0.0026794741861522198,0.0029869847930967808,10,{}
normal_corridor_base_5,0,none,48857,0.0010899577755481005,0.00092239526566118,-0.08624351769685745,-35.363261,149.16523,-0.006,-0.01,0.01,0.0,-9.942206816049293e-05,9.444978786632419e-05,0.0,1000,1000,1000,1000,12600,0,0.002804914489388466,0.003062453819438815,0.002783847041428089,10,{}
normal_corridor_base_5,0,none,49107,0.0010843358468264341,0.0009157821768894792,-0.08641350269317627,-35.363261,149.16523,-0.006,-0.01,0.01,0.0,-9.942201722878963e-05,9.444976603845134e-05,0.0,1000,1000,1000,1000,12600,0,0.0029323778580874205,0.0030525163747370243,0.0026932063046842813,10,{}
normal_corridor_base_5,0,none,49359,0.0010836297878995538,0.0009114728891290724,-0.0865660011768341,-35.363261,149.16523,-0.006,-0.01,0.01,0.0,-9.942196629708633e-05,9.444973693462089e-05,0.0,1000,1000,1000,1000,12600,0,0.002685017418116331,0.002609838033095002,0.002766446676105261,10,{}
normal_corridor_base_5,0,none,49609,0.001083314185962081,0.0009116774308495224,-0.08672421425580978,-35.363261,149.16523,-0.006,-0.01,0.01,0.0,-9.942197357304394e-05,9.444972965866327e-05,0.0,1000,1000,1000,1000,12600,0,0.0027467922773212194,0.0029318167362362146,0.0026389684062451124,10,{}
normal_corridor_base_5,0,none,49859,0.0010767091298475862,0.0009133914718404412,-0.08688103407621384,-35.363261,149.16523,-0.006,-0.01,0.01,0.0,-9.942198812495917e-05,9.444971510674804e-05,0.0,1000,1000,1000,1000,12600,0,0.0026736531872302294,0.0027801760006695986,0.0026876882184296846,10,{}
normal_corridor_base_5,0,none,50109,0.0010772880632430315,0.0009144202340394258,-0.08704080432653427,-35.363261,149.16523,-0.006,-0.01,0.01,0.0,-9.942198812495917e-05,9.444970055483282e-05,0.0,1000,1000,1000,1000,12600,0,0.002833524253219366,0.0027619735337793827,0.0027765596751123667,10,{}
normal_corridor_base_5,0,none,50357,0.0010809910017997026,0.0009157849126495421,-0.08718764036893845,-35.363261,149.16523,-0.006,-0.01,0.01,0.0,-9.942198084900156e-05,9.444967145100236e-05,0.0,1000,1000,1000,1000,12600,0,0.0024278932251036167,0.0027282009832561016,0.002920859958976507,10,{}
normal_corridor_base_5,0,none,50607,0.0010836353758350015,0.0009140715119428933,-0.08734989911317825,-35.363261,149.16523,-0.006,-0.01,0.01,0.0,-9.942197357304394e-05,9.444961324334145e-05,0.0,1000,1000,1000,1000,12600,0,0.002853745361790061,0.0029560495167970657,0.0026965592987835407,10,{}
normal_corridor_base_5,0,none,50857,0.0010847687954083085,0.0009121404145844281,-0.08749409765005112,-35.363261,149.16523,-0.006,-0.01,0.01,0.0,-9.942192991729826e-05,9.444955503568053e-05,0.0,1000,1000,1000,1000,12600,0,0.0027642769273370504,0.0030450865160673857,0.002888584043830633,10,{}
normal_corridor_base_5,0,none,51107,0.0010859727626666427,0.0009131425758823752,-0.08764319121837616,-35.363261,149.16523,-0.006,-0.01,0.01,0.0,-9.942192264134064e-05,9.444954775972292e-05,0.0,1000,1000,1000,1000,12600,0,0.002756689442321658,0.002719373442232609,0.0027006652671843767,10,{}
normal_corridor_base_5,0,none,51359,0.0010868506506085396,0.0009175626910291612,-0.08778399229049683,-35.363261,149.16523,-0.006,-0.01,0.01,0.0,-9.942188626155257e-05,9.444952593185008e-05,0.0,1000,1000,1000,1000,12600,0,0.002846841234713793,0.0027739584911614656,0.002557207830250263,10,{}
normal_corridor_base_5,0,none,51609,0.0010907595278695226,0.0009178295731544495,-0.08793086558580399,-35.363261,149.16523,-0.006,-0.01,0.01,0.0,-9.942188626155257e-05,9.444949682801962e-05,0.0,1000,1000,1000,1000,12600,0,0.0028616972267627716,0.0030034955125302076,0.002972721355035901,10,{}
normal_corridor_base_5,0,none,51859,0.0010945609537884593,0.0009136635926552117,-0.08806651085615158,-35.363261,149.16523,-0.006,-0.01,0.01,0.0,-9.94219008134678e-05,9.444951137993485e-05,0.0,1000,1000,1000,1000,12600,0,0.002981453202664852,0.0026728399097919464,0.0029063106048852205,10,{}
normal_corridor_base_5,0,none,52109,0.001098877633921802,0.0009065615013241768,-0.08821754157543182,-35.363261,149.16523,-0.006,-0.01,0.01,0.0,-9.94219008134678e-05,9.4449489552062e-05,0.0,1000,1000,1000,1000,12600,0,0.002923040883615613,0.0024742335081100464,0.0028510168194770813,10,{}
normal_corridor_base_5,0,none,52359,0.0011044458951801062,0.0009058786672540009,-0.08834592998027802,-35.363261,149.16523,-0.006,-0.01,0.01,0.0,-9.942188626155257e-05,9.444948227610439e-05,0.0,1000,1000,1000,1000,12600,0,0.002700075274333358,0.0028381752781569958,0.0027657821774482727,10,{}
normal_corridor_base_5,0,none,52607,0.001109062577597797,0.0009166827076114714,-0.08845909684896469,-35.363261,149.16523,-0.006,-0.01,0.01,0.0,-9.942186443367973e-05,9.444945317227393e-05,0.0,1000,1000,1000,1000,12600,0,0.0030767873395234346,0.0026920665986835957,0.0027921046130359173,10,{}
normal_corridor_base_5,0,none,52857,0.0011100494302809238,0.0009182153735309839,-0.08859853446483612,-35.363261,149.16523,-0.006,-0.01,0.01,0.0,-9.942182077793404e-05,9.444941679248586e-05,0.0,1000,1000,1000,1000,12600,0,0.002857872284948826,0.0030428499449044466,0.002914107870310545,10,{}
normal_corridor_base_5,0,none,53107,0.0011102529242634773,0.000914226402528584,-0.08872886747121811,-35.363261,149.16523,-0.006,-0.01,0.01,0.0,-9.942186443367973e-05,9.44494386203587e-05,0.0,1000,1000,1000,1000,12600,0,0.0026771798729896545,0.0028078118339180946,0.002763086697086692,10,{}
normal_corridor_base_5,0,none,53359,0.0011165087344124913,0.0009218102204613388,-0.08887452632188797,-35.363261,149.16523,-0.006,-0.01,0.01,0.0,-9.942187170963734e-05,9.444946044823155e-05,0.0,1000,1000,1000,1000,12600,0,0.0027506540063768625,0.0026006281841546297,0.002626319183036685,10,{}
normal_corridor_base_5,0,none,53609,0.001130168791860342,0.0009308191947638988,-0.0890049859881401,-35.363261,149.16523,-0.006,-0.01,0.01,0.0,-9.942181350197643e-05,9.444940951652825e-05,0.0,1000,1000,1000,1000,12600,0,0.002713617868721485,0.00301196682266891,0.0027076255064457655,10,{}
normal_corridor_base_5,0,none,53859,0.0011319947661831975,0.0009267268469557166,-0.08913467079401016,-35.363261,149.16523,-0.006,-0.01,0.01,0.0,-9.942180622601882e-05,9.444942406844348e-05,0.0,1000,1000,1000,1000,12600,0,0.002530421130359173,0.0027555502019822598,0.002873047022148967,10,{}
normal_corridor_base_5,0,none,54109,0.0011332229478284717,0.000935083138756454,-0.08926977217197418,-35.363261,149.16523,-0.006,-0.01,0.01,0.0,-9.942177712218836e-05,9.444941679248586e-05,0.0,1000,1000,1000,1000,12600,0,0.0029445025138556957,0.0027861802373081446,0.0029055504128336906,10,{}
normal_corridor_base_5,0,none,54359,0.0011347508989274502,0.0009401349816471338,-0.08939773589372635,-35.363261,149.16523,-0.006,-0.01,0.01,0.0,-9.942174074240029e-05,9.444936586078256e-05,0.0,1000,1000,1000,1000,12600,0,0.0029112566262483597,0.0028869768138974905,0.0029184368904680014,10,{}
normal_corridor_base_5,0,none,54607,0.001145786838606,0.0009493388934060931,-0.08952122181653976,-35.363261,149.16523,-0.006,-0.01,0.01,0.0,-9.942173346644267e-05,9.444938041269779e-05,0.0,1000,1000,1000,1000,12600,0,0.002589056733995676,0.0028299414552748203,0.0026409763377159834,10,{}
normal_corridor_base_5,0,none,54857,0.001144826295785606,0.000947308202739805,-0.08964657038450241,-35.363261,149.16523,-0.006,-0.01,0.01,0.0,-9.942174074240029e-05,9.444933675695211e-05,0.0,1000,1000,1000,1000,12600,0,0.0031821478623896837,0.0028687571175396442,0.0029707627836614847,10,{}
normal_corridor_base_5,0,none,55107,0.001146528753452003,0.0009491603705100715,-0.08977216482162476,-35.363261,149.16523,-0.006,-0.01,0.01,0.0,-9.942173346644267e-05,9.444929310120642e-05,0.0,1000,1000,1000,1000,12600,0,0.0027446968015283346,0.0028260392136871815,0.002674097428098321,10,{}
normal_corridor_base_5,0,none,55357,0.0011458054650574923,0.0009519106242805719,-0.08989275246858597,-35.363261,149.16523,-0.006,-0.01,0.01,0.0,-9.942174074240029e-05,9.444929310120642e-05,0.0,1000,1000,1000,1000,12600,0,0.002567561808973551,0.002525416435673833,0.0025980344507843256,10,{}
normal_corridor_base_5,0,none,55609,0.0011497512459754944,0.0009569270769134164,-0.09002306312322617,-35.363261,149.16523,-0.006,-0.01,0.01,0.0,-9.942171891452745e-05,9.44492785492912e-05,0.0,1000,1000,1000,1000,12600,0,0.002695290371775627,0.0031588468700647354,0.0026334859430789948,10,{}
normal_corridor_base_5,0,none,55859,0.001146637019701302,0.0009505224879831076,-0.0901414081454277,-35.363261,149.16523,-0.006,-0.01,0.01,0.0,-9.942170436261222e-05,9.444929310120642e-05,0.0,1000,1000,1000,1000,12600,0,0.0026250488590449095,0.0027982108294963837,0.0025702097918838263,10,{}
normal_corridor_base_5,0,none,56109,0.0011456083739176393,0.0009517219150438905,-0.09026864171028137,-35.363261,149.16523,-0.006,-0.01,0.01,0.0,-9.942168253473938e-05,9.444927127333358e-05,0.0,1000,1000,1000,1000,12600,0,0.0027849364560097456,0.002856514183804393,0.003040461568161845,10,{}
normal_corridor_base_5,0,none,56359,0.001150742289610207,0.0009558619349263608,-0.09038730710744858,-35.363261,149.16523,-0.006,-0.01,0.01,0.0,-9.942167525878176e-05,9.444924216950312e-05,0.0,1000,1000,1000,1000,12600,0,0.0027203415520489216,0.002890425967052579,0.003163292771205306,10,{}
normal_corridor_base_5,0,none,56607,0.001152109820395708,0.0009611812420189381,-0.09050841629505157,-35.363261,149.16523,-0.006,-0.01,0.01,0.0,-9.94216970866546e-05,9.444927127333358e-05,0.0,1000,1000,1000,1000,12600,0,0.0027449512854218483,0.0026981437113136053,0.0027362967375665903,10,{}
normal_corridor_base_5,0,none,56857,0.0011377293849363923,0.0009589620749466121,-0.09059562534093857,-35.363261,149.16523,-0.006,-0.01,0.01,0.0,-9.942174074240029e-05,9.444930037716404e-05,0.0,1000,1000,1000,1000,12600,0,0.0028524380177259445,0.002723886864259839,0.002717749448493123,10,{}
normal_corridor_base_5,0,none,57107,0.0011325697414577007,0.0009548433008603752,-0.09071137011051178,-35.363261,149.16523,-0.006,-0.01,0.01,0.0,-9.942178439814597e-05,9.444930037716404e-05,0.0,1000,1000,1000,1000,12600,0,0.0027467580512166023,0.002944682026281953,0.0027957407291978598,10,{}
normal_corridor_base_5,0,none,57357,0.0011408913414925337,0.0009567330125719309,-0.09083002805709839,-35.363261,149.16523,-0.006,-0.01,0.01,0.0,-9.942182077793404e-05,9.444934403290972e-05,0.0,1000,1000,1000,1000,12600,0,0.002813530620187521,0.00291701452806592,0.0027251604478806257,10,{}
normal_corridor_base_5,0,none,57609,0.0011471644975245,0.0009653907036408782,-0.09094556421041489,-35.3632611,149.16523,-0.006,-0.01,0.01,0.0,-9.942180622601882e-05,9.444935130886734e-05,0.0,1000,1000,1000,1000,12600,0,0.0026687553618103266,0.002612673444673419,0.002502416493371129,10,{}
normal_corridor_base_5,0,none,57859,0.0011461941758170724,0.0009619080810807645,-0.09105420857667923,-35.3632611,149.16523,-0.006,-0.01,0.01,0.0,-9.942182805389166e-05,9.444936586078256e-05,0.0,1000,1000,1000,1000,12600,0,0.0026686876080930233,0.0025595328770577908,0.002613175194710493,10,{}
normal_corridor_base_5,0,none,58109,0.0011505525326356292,0.0009610041161067784,-0.09116332978010178,-35.363261,149.16523,-0.006,-0.01,0.01,0.0,-9.942185715772212e-05,9.444940224057063e-05,0.0,1000,1000,1000,1000,12600,0,0.0025921626947820187,0.002722289878875017,0.0025753893423825502,10,{}
normal_corridor_base_5,0,none,58359,0.001154232071712613,0.000966985709965229,-0.09127876162528992,-35.3632611,149.16523,-0.006,-0.01,0.01,0.0,-9.94218498817645e-05,9.444938041269779e-05,0.0,1000,1000,1000,1000,12600,0,0.003136976854875684,0.00285535492002964,0.002741058124229312,10,{}
normal_corridor_base_5,0,none,58609,0.0011553011136129498,0.0009718756773509085,-0.09138531237840652,-35.3632611,149.16523,-0.006,-0.01,0.01,0.0,-9.942191536538303e-05,9.444943134440109e-05,0.0,1000,1000,1000,1000,12600,0,0.0033145740162581205,0.0030581026803702116,0.0028399054426699877,10,{}
normal_corridor_base_5,0,none,58857,0.0011541019193828106,0.0009683457319624722,-0.09149757027626038,-35.3632611,149.16523,-0.006,-0.01,0.01,0.0,-9.94219517451711e-05,9.444946772418916e-05,0.0,1000,1000,1000,1000,12600,0,0.002873932244256139,0.002750982763245702,0.002643563784658909,10,{}
normal_corridor_base_5,0,none,59107,0.0011552872601896524,0.0009689393336884677,-0.09160509705543518,-35.363261,149.16523,-0.006,-0.01,0.01,0.0,-9.942193719325587e-05,9.444942406844348e-05,0.0,1000,1000,1000,1000,12600,0,0.0027203550562262535,0.0027573516126722097,0.0026316349394619465,10,{}
normal_corridor_base_5,0,none,59357,0.001157941878773272,0.00097500323317945,-0.0917072743177414,-35.3632611,149.16523,-0.006,-0.01,0.01,0.0,-9.942193719325587e-05,9.444938041269779e-05,0.0,1000,1000,1000,1000,12600,0,0.002996547147631645,0.002563196700066328,0.0026640347205102444,10,{}
normal_corridor_base_5,0,none,59609,0.0011633834801614285,0.0009801442502066493,-0.09181450307369232,-35.3632611,149.16523,-0.006,-0.01,0.01,0.0,-9.942194446921349e-05,9.444936586078256e-05,0.0,1000,1000,1000,1000,12600,0,0.002974344417452812,0.0027255008462816477,0.002718479372560978,10,{}
normal_corridor_base_5,0,none,59859,0.001150948228314519,0.0009753514314070344,-0.09191413968801498,-35.363261,149.16523,-0.006,-0.01,0.01,0.0,-9.942197357304394e-05,9.44493876886554e-05,0.0,1000,1000,1000,1000,12600,0,0.002691302914172411,0.0028327982872724533,0.002781176706776023,10,{}
normal_corridor_base_5,0,none,60109,0.001150992582552135,0.0009697595960460603,-0.0920155718922615,-35.363261,149.16523,-0.006,-0.01,0.01,0.0,-9.942198812495917e-05,9.444936586078256e-05,0.0,1000,1000,1000,1000,12600,0,0.0030766644049435854,0.0027686390094459057,0.0027320855297148228,10,{}
normal_corridor_base_5,0,none,60359,0.001152415294200182,0.0009686223929747939,-0.0921175554394722,-35.363261,149.16523,-0.006,-0.01,0.01,0.0,-9.942203178070486e-05,9.444936586078256e-05,0.0,1000,1000,1000,1000,12600,0,0.00264367600902915,0.0028392449021339417,0.0027064899913966656,10,{}
normal_corridor_base_5,0,none,60609,0.0011598190758377314,0.0009716156055219471,-0.09221701323986053,-35.3632611,149.16523,-0.006,-0.01,0.01,0.0,-9.942204633262008e-05,9.444936586078256e-05,0.0,1000,1000,1000,1000,12600,0,0.0027707696426659822,0.002933873562142253,0.0028347743209451437,10,{}
normal_corridor_base_5,0,none,60857,0.0011504931608214974,0.0009576431475579739,-0.09232048690319061,-35.363261,149.16523,-0.006,-0.01,0.01,0.0,-9.942202450474724e-05,9.444936586078256e-05,0.0,1000,1000,1000,1000,12600,0,0.002845232840627432,0.0027584449853748083,0.00260436930693686,10,{}
normal_corridor_base_5,0,none,61107,0.0011541639687493443,0.0009533643024042249,-0.09242001920938492,-35.363261,149.16523,-0.006,-0.01,0.01,0.0,-9.94220536085777e-05,9.444938041269779e-05,0.0,1000,1000,1000,1000,12600,0,0.002500199945643544,0.0029055047780275345,0.002839866327121854,10,{}
normal_corridor_base_5,0,none,61357,0.0011569516500458121,0.0009570189868099988,-0.09251154214143753,-35.3632611,149.16523,-0.006,-0.01,0.01,0.0,-9.942203905666247e-05,9.444936586078256e-05,0.0,1000,1000,1000,1000,12600,0,0.0030743605457246304,0.003097902750596404,0.0030541466549038887,10,{}
normal_corridor_base_5,0,none,61607,0.0011638278374448419,0.0009604333317838609,-0.0926051139831543,-35.3632611,149.16523,-0.006,-0.01,0.01,0.0,-9.942208271240816e-05,9.444936586078256e-05,0.0,1000,1000,1000,1000,12600,0,0.002756094792857766,0.0028211004100739956,0.0029993485659360886,10,{}
normal_corridor_base_5,0,none,61859,0.0011544275330379605,0.0009527966612949967,-0.09268105775117874,-35.3632611,149.16523,-0.006,-0.01,0.01,0.0,-9.942209726432338e-05,9.444940951652825e-05,0.0,1000,1000,1000,1000,12600,0,0.002897427650168538,0.0027740972582250834,0.0030336007475852966,10,{}
normal_corridor_base_5,0,none,62109,0.0011569677153602242,0.0009554944699630141,-0.09277230501174927,-35.3632611,149.16523,-0.006,-0.01,0.01,0.0,-9.9422104540281e-05,9.444942406844348e-05,0.0,1000,1000,1000,1000,12600,0,0.002576263854280114,0.0028237842489033937,0.00281587615609169,10,{}
normal_corridor_base_5,0,none,62359,0.001162378117442131,0.0009543164051137865,-0.09286495298147202,-35.3632611,149.16523,-0.006,-0.01,0.01,0.0,-9.942212636815384e-05,9.444945317227393e-05,0.0,1000,1000,1000,1000,12600,0,0.0026123153511434793,0.0026703509502112865,0.0027822148986160755,10,{}
normal_corridor_base_5,0,none,62609,0.0011630640365183353,0.0009633832378312945,-0.09295174479484558,-35.3632611,149.16523,-0.006,-0.01,0.01,0.0,-9.942212636815384e-05,9.444947500014678e-05,0.0,1000,1000,1000,1000,12600,0,0.002607963513582945,0.00300018722191453,0.0027914310339838266,10,{}
normal_corridor_base_5,0,none,62857,0.001160485320724547,0.0009621976059861481,-0.09304482489824295,-35.363261,149.16523,-0.006,-0.01,0.01,0.0,-9.942214092006907e-05,9.4449489552062e-05,0.0,1000,1000,1000,1000,12600,0,0.002651479560881853,0.003121313638985157,0.0026552302297204733,10,{}
normal_corridor_base_5,0,none,63107,0.0011597730917856097,0.0009676816989667714,-0.09314043819904327,-35.3632611,149.16523,-0.006,-0.01,0.01,0.0,-9.942209726432338e-05,9.444941679248586e-05,0.0,1000,1000,1000,1000,12600,0,0.0029293911065906286,0.0028691685292869806,0.0026994990184903145,10,{}
normal_corridor_base_5,0,none,63357,0.0011584697058424354,0.0009658655035309494,-0.0932370126247406,-35.3632611,149.16523,-0.006,-0.01,0.01,0.0,-9.942211181623861e-05,9.444940951652825e-05,0.0,1000,1000,1000,1000,12600,0,0.0027864265721291304,0.0026744119822978973,0.002895828802138567,10,{}
normal_corridor_base_5,0,none,63607,0.0011627428466454148,0.0009755063219927251,-0.0933191254734993,-35.3632611,149.16523,-0.006,-0.01,0.01,0.0,-9.942211181623861e-05,9.44493876886554e-05,0.0,1000,1000,1000,1000,12600,0,0.002906401641666889,0.00250183860771358,0.0027420709375292063,10,{}
normal_corridor_base_5,0,none,63859,0.0011575233656913042,0.0009708762518130243,-0.09340231865644455,-35.3632611,149.16523,-0.006,-0.01,0.01,0.0,-9.942211181623861e-05,9.444943134440109e-05,0.0,1000,1000,1000,1000,12600,0,0.002907722955569625,0.0029737127479165792,0.0028477597516030073,10,{}
normal_corridor_base_5,0,none,64109,0.0011629948858171701,0.0009625497623346746,-0.09349004924297333,-35.3632611,149.16523,-0.006,-0.01,0.01,0.0,-9.942211909219623e-05,9.444942406844348e-05,0.0,1000,1000,1000,1000,12600,0,0.0027221243362873793,0.003016339847818017,0.0031026387587189674,10,{}
normal_corridor_base_5,0,none,64359,0.0011643841862678528,0.0009647234110161662,-0.0935746431350708,-35.3632611,149.16523,-0.006,-0.01,0.01,0.0,-9.942214819602668e-05,9.444943134440109e-05,0.0,1000,1000,1000,1000,12600,0,0.0028825874906033278,0.00287686032243073,0.002806844422593713,10,{}
normal_corridor_base_5,0,none,64609,0.0011742374626919627,0.0009671474690549076,-0.09366049617528915,-35.3632611,149.16523,-0.006,-0.01,0.01,0.0,-9.942217002389953e-05,9.444946044823155e-05,0.0,1000,1000,1000,1000,12600,0,0.002824182389304042,0.0028840594459325075,0.0029115660581737757,10,{}
normal_corridor_base_5,0,none,64859,0.0011716042645275593,0.0009586861706338823,-0.09374558180570602,-35.363261,149.16523,-0.006,-0.01,0.01,0.0,-9.942219912772998e-05,9.444946772418916e-05,0.0,1000,1000,1000,1000,12600,0,0.0028020250611007214,0.0029560797847807407,0.0029144000727683306,10,{}
normal_corridor_base_5,0,none,65107,0.0011646389029920101,0.0009524457273073494,-0.0938311368227005,-35.363261,149.16523,-0.006,-0.01,0.01,0.0,-9.942217729985714e-05,9.444945317227393e-05,0.0,1000,1000,1000,1000,12600,0,0.002846860559657216,0.0030448264442384243,0.0027191070839762688,10,{}
normal_corridor_base_5,0,none,65357,0.0011628345819190145,0.0009588719112798572,-0.09391337633132935,-35.363261,149.16523,-0.006,-0.01,0.01,0.0,-9.942219185177237e-05,9.444947500014678e-05,0.0,1000,1000,1000,1000,12600,0,0.0027609574608504772,0.0027785159181803465,0.0029155134689062834,10,{}
normal_corridor_base_5,0,none,65607,0.0011659776791930199,0.0009660838986746967,-0.09399935603141785,-35.3632611,149.16523,-0.006,-0.01,0.01,0.0,-9.942222095560282e-05,9.444951137993485e-05,0.0,1000,1000,1000,1000,12600,0,0.0027030259370803833,0.002563867950811982,0.0027166062500327826,10,{}
normal_corridor_base_5,0,none,65859,0.0011626722989603877,0.0009607851970940828,-0.09408099204301834,-35.363261,149.16523,-0.006,-0.01,0.01,0.0,-9.942219912772998e-05,9.4449489552062e-05,0.0,1000,1000,1000,1000,12600,0,0.0026965041179209948,0.002991631394252181,0.002652183873578906,10,{}
normal_corridor_base_5,0,none,66109,0.0011652786051854491,0.0009615044109523296,-0.09416186809539795,-35.363261,149.16523,-0.006,-0.01,0.01,0.0,-9.942219185177237e-05,9.4449489552062e-05,0.0,1000,1000,1000,1000,12600,0,0.002651833463460207,0.002939603989943862,0.002944599138572812,10,{}
normal_corridor_base_5,0,none,66359,0.0011716493172571063,0.0009616982424631715,-0.0942365825176239,-35.363261,149.16523,-0.006,-0.01,0.01,0.0,-9.942219912772998e-05,9.444951137993485e-05,0.0,1000,1000,1000,1000,12600,0,0.0028581684455275536,0.002851201221346855,0.0026736941654235125,10,{}
normal_corridor_base_5,0,none,66609,0.0011715091532096267,0.0009742812835611403,-0.09432173520326614,-35.3632611,149.16523,-0.006,-0.01,0.01,0.0,-9.942217729985714e-05,9.444947500014678e-05,0.0,1000,1000,1000,1000,12600,0,0.0029005699325352907,0.0027807378210127354,0.002708904445171356,10,{}
normal_corridor_base_5,0,none,66859,0.001172133139334619,0.0009718957007862628,-0.09439142793416977,-35.363261,149.16523,-0.006,-0.01,0.01,0.0,-9.942214819602668e-05,9.444947500014678e-05,0.0,1000,1000,1000,1000,12600,0,0.0024763979017734528,0.0028172589372843504,0.002990212058648467,10,{}
normal_corridor_base_5,0,none,67107,0.0011719756294041872,0.0009704708936624229,-0.0944526419043541,-35.363261,149.16523,-0.006,-0.01,0.01,0.0,-9.94221554719843e-05,9.444950410397723e-05,0.0,1000,1000,1000,1000,12600,0,0.0029315960127860308,0.002608770038932562,0.0031276470981538296,10,{}
normal_corridor_base_5,0,none,67357,0.0011737729655578732,0.0009735629428178072,-0.09451471269130707,-35.363261,149.16523,-0.006,-0.01,0.01,0.0,-9.942214819602668e-05,9.4449489552062e-05,0.0,1000,1000,1000,1000,12600,0,0.0029668936040252447,0.002841623267158866,0.0028961992356926203,10,{}
normal_corridor_base_5,0,none,67607,0.001176408608444035,0.0009820432169362903,-0.09458958357572556,-35.3632611,149.16523,-0.006,-0.01,0.01,0.0,-9.942221367964521e-05,9.444949682801962e-05,0.0,1000,1000,1000,1000,12600,0,0.0026007136330008507,0.0029933638870716095,0.002721191616728902,10,{}
normal_corridor_base_5,0,none,67857,0.0011767096584662795,0.0009822479914873838,-0.09466615319252014,-35.363261,149.16523,-0.006,-0.01,0.01,0.0,-9.942214092006907e-05,9.444947500014678e-05,0.0,1000,1000,1000,1000,12600,0,0.002686419291421771,0.0029666952323168516,0.0027812058106064796,10,{}
normal_corridor_base_5,0,none,68109,0.0011777249164879322,0.0009811946656554937,-0.09473525732755661,-35.3632611,149.16523,-0.006,-0.01,0.01,0.0,-9.942217002389953e-05,9.444952593185008e-05,0.0,1000,1000,1000,1000,12600,0,0.0030995316337794065,0.002659887308254838,0.0024362201802432537,10,{}
normal_corridor_base_5,0,none,68359,0.0011827886337414384,0.0009911633096635342,-0.09480980038642883,-35.3632611,149.16523,-0.006,-0.01,0.01,0.0,-9.942214092006907e-05,9.444946044823155e-05,0.0,1000,1000,1000,1000,12600,0,0.002987128449603915,0.002749452367424965,0.002868725685402751,10,{}
normal_corridor_base_5,0,none,68609,0.0011901033576577902,0.0009955057175830007,-0.09488175809383392,-35.3632611,149.16523,-0.006,-0.01,0.01,0.0,-9.942213364411145e-05,9.44494386203587e-05,0.0,1000,1000,1000,1000,12600,0,0.0027335314080119133,0.0030491549987345934,0.002974350471049547,10,{}
normal_corridor_base_5,0,none,68859,0.0011928011663258076,0.0009890219662338495,-0.09495220333337784,-35.3632611,149.16523,-0.006,-0.01,0.01,0.0,-9.942213364411145e-05,9.44493876886554e-05,0.0,1000,1000,1000,1000,12600,0,0.002812271239235997,0.002663548570126295,0.00277336104772985,10,{}
normal_corridor_base_5,0,none,69107,0.001196204568259418,0.0009914173278957605,-0.09502337872982025,-35.3632611,149.16523,-0.006,-0.01,0.01,0.0,-9.942219185177237e-05,9.444943134440109e-05,0.0,1000,1000,1000,1000,12600,0,0.0028260264080017805,0.0027292142622172832,0.0025134270545095205,10,{}
normal_corridor_base_5,0,none,69357,0.0011995547683909535,0.0009881365112960339,-0.09509479254484177,-35.3632611,149.16523,-0.006,-0.01,0.01,0.0,-9.942219912772998e-05,9.444944589631632e-05,0.0,1000,1000,1000,1000,12600,0,0.0029595571104437113,0.0027971204835921526,0.002806485630571842,10,{}
normal_corridor_base_5,0,none,69607,0.0012007461627945304,0.0009926683269441128,-0.09516620635986328,-35.3632611,149.16523,-0.006,-0.01,0.01,0.0,-9.942217729985714e-05,9.444943134440109e-05,0.0,1000,1000,1000,1000,12600,0,0.003051017178222537,0.0030552810057997704,0.0027931316290050745,10,{}
