flight_id,label,attack_type,timestamp,att_roll,att_pitch,att_yaw,pos_lat,pos_lon,pos_alt_rel,pos_vx,pos_vy,pos_vz,nav_roll,nav_pitch,nav_alt_error,servo1_raw,servo2_raw,servo3_raw,servo4_raw,sys_voltage_battery,sys_load,vib_x,vib_y,vib_z,gps_sats_visible,attack_params_json
normal_corridor_base_9,0,none,10271,0.00019571867596823722,-3.95096285501495e-05,-0.33619508147239685,-35.3632621,149.1652374,0.0,0.0,0.0,-0.03,-9.942173346644267e-05,9.444946044823155e-05,0.0,1000,1000,1000,1000,12600,0,0.0027232824359089136,0.0030029555782675743,0.002736331196501851,3,{}
normal_corridor_base_9,0,none,10604,0.00019747481564991176,-2.616806341393385e-05,-0.30464547872543335,-35.3632621,149.1652374,0.0,0.0,0.0,-0.03,-9.942168253473938e-05,9.444936586078256e-05,0.0,1000,1000,1000,1000,12600,0,0.002431093482300639,0.002572452649474144,0.0029906979762017727,10,{}
normal_corridor_base_9,0,none,10937,0.00020231837697792798,-1.622344097995665e-05,-0.2677597403526306,-35.3632621,149.1652374,0.0,0.0,0.0,-0.03,-9.942165343090892e-05,9.444937313674018e-05,0.0,1000,1000,1000,1000,12600,0,0.0025539530906826258,0.002496294444426894,0.002695617265999317,10,{}
normal_corridor_base_9,0,none,11272,0.00020765842054970562,-9.138298082689289e-06,-0.24280311167240143,-35.3632621,149.1652374,0.0,0.0,0.0,-0.03,-9.942165343090892e-05,9.444937313674018e-05,0.0,1000,1000,1000,1000,12600,0,0.0029453381430357695,0.0025336039252579212,0.002969569992274046,10,{}
normal_corridor_base_9,0,none,11604,0.00021162010671105236,-9.082983183361648e-07,-0.21991132199764252,-35.3632621,149.1652374,0.0,0.0,0.0,-0.03,-9.9421595223248e-05,9.444938041269779e-05,0.0,1000,1000,1000,1000,12600,0,0.002844358328729868,0.002829199656844139,0.0030694203451275826,10,{}
normal_corridor_base_9,0,none,11936,0.00022234769130591303,9.047869752976112e-06,-0.19281189143657684,-35.3632621,149.1652374,0.0,0.0,0.0,-0.02,-9.942157339537516e-05,9.444939496461302e-05,0.0,1000,1000,1000,1000,12600,0,0.0028518468607217073,0.0025882532354444265,0.0026600866112858057,10,{}
normal_corridor_base_9,0,none,12269,0.00022281351266428828,2.008375304285437e-05,-0.17507627606391907,-35.3632621,149.1652374,0.0,0.0,0.0,-0.02,-9.942157339537516e-05,9.444939496461302e-05,0.0,1000,1000,1000,1000,12600,0,0.002989081898704171,0.002795022912323475,0.0026702138129621744,10,{}
normal_corridor_base_9,0,none,12604,0.00023298223095480353,2.870871867344249e-05,-0.15927985310554504,-35.3632621,149.1652374,0.0,0.0,0.0,-0.02,-9.942166798282415e-05,9.444940951652825e-05,0.0,1000,1000,1000,1000,12600,0,0.0028459285385906696,0.0027619749307632446,0.002760299714282155,10,{}
normal_corridor_base_9,0,none,12937,0.00024258789198938757,3.648102574516088e-05,-0.1408645510673523,-35.3632621,149.1652374,0.0,0.0,0.0,-0.02,-9.94216461549513e-05,9.444936586078256e-05,0.0,1000,1000,1000,1000,12600,0,0.0024627079255878925,0.0028720367699861526,0.002657245146110654,10,{}
normal_corridor_base_9,0,none,13269,0.0002477295056451112,4.3376607209211215e-05,-0.1289340853691101,-35.3632621,149.1652374,0.0,0.0,0.0,-0.02,-9.94216461549513e-05,9.444936586078256e-05,0.0,1000,1000,1000,1000,12600,0,0.00265614059753716,0.002905886387452483,0.002835672115907073,10,{}
normal_corridor_base_9,0,none,13602,0.0002595164405647665,4.6691795432707295e-05,-0.1184508353471756,-35.3632621,149.1652374,0.0,0.0,0.0,-0.01,-9.942163887899369e-05,9.444939496461302e-05,0.0,1000,1000,1000,1000,12600,0,0.002572010736912489,0.0025784496683627367,0.0028927456587553024,10,{}
normal_corridor_base_9,0,none,13934,0.0002700421609915793,6.025280890753493e-05,-0.10644005239009857,-35.3632621,149.1652374,0.0,0.0,0.0,-0.01,-9.942155884345993e-05,9.444938041269779e-05,0.0,1000,1000,1000,1000,12600,0,0.0027499180287122726,0.002649761736392975,0.002672713715583086,10,{}
normal_corridor_base_9,0,none,14269,0.00027920296997763216,6.614758603973314e-05,-0.09871996939182281,-35.3632621,149.1652374,0.0,0.0,0.0,-0.01,-9.942155884345993e-05,9.444938041269779e-05,0.0,1000,1000,1000,1000,12600,0,0.002913825213909149,0.0028869700618088245,0.0029099632520228624,10,{}
normal_corridor_base_9,0,none,14601,0.0002895044453907758,7.99794215708971e-05,-0.09199041873216629,-35.3632621,149.1652374,0.0,0.0,0.0,-0.01,-9.942151518771425e-05,9.444933675695211e-05,0.0,1000,1000,1000,1000,12600,0,0.0030060543213039637,0.003122286405414343,0.0026952698826789856,10,{}
normal_corridor_base_9,0,none,14934,0.0003058357979170978,9.37610529945232e-05,-0.08430327475070953,-35.3632621,149.1652374,0.0,0.0,0.0,-0.01,-9.942147153196856e-05,9.444930037716404e-05,0.0,1000,1000,1000,1000,12600,0,0.0029376819729804993,0.0027248139958828688,0.0029774927534163,10,{}
normal_corridor_base_9,0,none,15359,0.0003211866714991629,0.00010703221778385341,-0.0771338939666748,-35.3632621,149.1652374,0.0,0.0,0.0,-0.01,-9.942147153196856e-05,9.444930037716404e-05,0.0,1000,1000,1000,1000,12600,0,0.002744118683040142,0.0027553788386285305,0.00263778492808342,10,{}
normal_corridor_base_9,0,none,15609,0.0003307907027192414,0.00011150518548674881,-0.07378612458705902,-35.3632621,149.1652374,0.0,0.0,0.0,-0.01,-9.942150063579902e-05,9.444935858482495e-05,0.0,1000,1000,1000,1000,12600,0,0.002744118683040142,0.0027553788386285305,0.00263778492808342,10,{}
normal_corridor_base_9,0,none,15859,0.0003363890282344073,0.00012000498827546835,-0.07087501883506775,-35.3632621,149.1652374,0.0,0.0,0.0,0.0,-9.942148608388379e-05,9.444936586078256e-05,0.0,1000,1000,1000,1000,12600,0,0.0026640279684215784,0.002792098093777895,0.0025840585585683584,10,{}
normal_corridor_base_9,0,none,16264,0.00034575845347717404,0.00012983879423700273,-0.06822995096445084,-35.3632621,149.1652374,0.0,0.0,0.0,0.0,-9.942147880792618e-05,9.444936586078256e-05,0.0,1000,1000,1000,1000,12600,0,0.002905152505263686,0.0028612499590963125,0.0026816504541784525,10,{}
normal_corridor_base_9,0,none,16596,0.00035378028405830264,0.0001375292195007205,-0.06591206789016724,-35.3632621,149.1652374,0.0,0.0,0.0,0.0,-9.942150063579902e-05,9.444938041269779e-05,0.0,1000,1000,1000,1000,12600,0,0.0030702329240739346,0.0028023950289934874,0.0027498232666403055,10,{}
normal_corridor_base_9,0,none,16929,0.00037838637945242226,0.00015322101535275578,-0.06173437833786011,-35.3632621,149.1652374,0.0,0.0,0.0,0.0,-9.942147153196856e-05,9.444940224057063e-05,0.0,1000,1000,1000,1000,12600,0,0.0028475781437009573,0.0028414553962647915,0.0027528118807822466,10,{}
normal_corridor_base_9,0,none,17262,0.0003883067111019045,0.00016219324606936425,-0.059955451637506485,-35.3632621,149.1652374,0.0,0.0,0.0,0.0,-9.942148608388379e-05,9.444935130886734e-05,0.0,1000,1000,1000,1000,12600,0,0.0028869544621556997,0.002881009364500642,0.002789945574477315,10,{}
normal_corridor_base_9,0,none,17594,0.00040025910129770637,0.0001747285423334688,-0.058448486030101776,-35.3632621,149.1652374,0.0,0.0,0.0,0.0,-9.9421595223248e-05,9.44493876886554e-05,0.0,1000,1000,1000,1000,12600,0,0.003016294213011861,0.0026016102638095617,0.003029768355190754,10,{}
normal_corridor_base_9,0,none,17929,0.00041867452091537416,0.00019093776063527912,-0.05677084997296333,-35.3632621,149.1652374,0.0,0.0,0.0,0.0,-9.94216461549513e-05,9.444936586078256e-05,0.0,1000,1000,1000,1000,12600,0,0.002752421423792839,0.0028242021799087524,0.00257712509483099,10,{}
normal_corridor_base_9,0,none,18261,0.0004303722525946796,0.00020472895994316787,-0.05577335134148598,-35.3632621,149.1652374,0.0,0.0,0.0,0.0,-9.942168253473938e-05,9.444936586078256e-05,0.0,1000,1000,1000,1000,12600,0,0.0027637293096631765,0.002893276046961546,0.0028827395290136337,10,{}
normal_corridor_base_9,0,none,18594,0.0004412496346049011,0.00021752224711235613,-0.05494950711727142,-35.3632621,149.1652374,0.0,0.0,0.0,0.0,-9.942166070686653e-05,9.444934403290972e-05,0.0,1000,1000,1000,1000,12600,0,0.00275450199842453,0.0030554875265806913,0.002873722929507494,10,{}
normal_corridor_base_9,0,none,18926,0.00046326222945936024,0.00023597061226610094,-0.05410941690206528,-35.3632621,149.1652374,0.0,0.0,0.0,0.0,-9.942166070686653e-05,9.444932948099449e-05,0.0,1000,1000,1000,1000,12600,0,0.0030066375620663166,0.00282828276976943,0.0028989592101424932,10,{}
normal_corridor_base_9,0,none,19259,0.0004792544059455395,0.00024928650236688554,-0.05369138717651367,-35.3632621,149.1652374,0.0,0.0,0.0,0.0,-9.942166070686653e-05,9.444932948099449e-05,0.0,1000,1000,1000,1000,12600,0,0.002747724764049053,0.0030688708648085594,0.0026312905829399824,10,{}
normal_corridor_base_9,0,none,19592,0.000489445636048913,0.0002593489771243185,-0.05333505570888519,-35.3632621,149.1652374,0.0,0.0,0.0,0.0,-9.942158794729039e-05,9.444932948099449e-05,0.0,1000,1000,1000,1000,12600,0,0.002790826605632901,0.0027995137497782707,0.0028158079367130995,10,{}
normal_corridor_base_9,0,none,19927,0.0005174074904061854,0.0002776479232124984,-0.05290090665221214,-35.3632621,149.1652374,0.0,0.0,0.0,0.0,-9.942170436261222e-05,9.444937313674018e-05,0.0,1000,1000,1000,1000,12600,0,0.0029605955351144075,0.0028023237828165293,0.002798978239297867,10,{}
normal_corridor_base_9,0,none,20259,0.0005304625374265015,0.0003008326457347721,-0.05264410749077797,-35.3632621,149.1652374,-0.006,0.0,0.0,0.0,-9.942170436261222e-05,9.444937313674018e-05,0.0,1000,1000,1000,1000,12600,0,0.0027810665778815746,0.0029180392157286406,0.0026474136393517256,10,{}
normal_corridor_base_9,0,none,20591,0.0005460424581542611,0.0003131776466034353,-0.052626561373472214,-35.3632621,149.1652374,-0.008,0.0,0.0,0.0,-9.942172619048506e-05,9.44493876886554e-05,0.0,1000,1000,1000,1000,12600,0,0.002790764207020402,0.0028624755796045065,0.0025961827486753464,10,{}
normal_corridor_base_9,0,none,20924,0.0005676386062987149,0.0003362534334883094,-0.052709925919771194,-35.3632621,149.1652374,-0.007,0.0,0.0,0.0,-9.942171891452745e-05,9.444936586078256e-05,0.0,1000,1000,1000,1000,12600,0,0.0028768174815922976,0.002787236822769046,0.0029985769651830196,10,{}
normal_corridor_base_9,0,none,21257,0.0005804137326776981,0.00034864418557845056,-0.05285192281007767,-35.3632621,149.1652374,-0.005,0.0,0.0,0.0,-9.942171891452745e-05,9.444936586078256e-05,0.0,1000,1000,1000,1000,12600,0,0.002969261258840561,0.002845746697857976,0.0028259139508008957,10,{}
normal_corridor_base_9,0,none,21592,0.000597366422880441,0.00036746496334671974,-0.0530630461871624,-35.3632621,149.1652374,-0.004,0.0,0.0,0.0,-9.942176257027313e-05,9.444938041269779e-05,0.0,1000,1000,1000,1000,12600,0,0.002693855669349432,0.0029898867942392826,0.002751579275354743,10,{}
normal_corridor_base_9,0,none,21924,0.0006265047122724354,0.000384125072741881,-0.053344059735536575,-35.3632621,149.1652374,-0.002,0.0,0.0,0.0,-9.942182077793404e-05,9.444938041269779e-05,0.0,1000,1000,1000,1000,12600,0,0.0029380922205746174,0.0028597284108400345,0.002790756057947874,10,{}
normal_corridor_base_9,0,none,22256,0.0006419986602850258,0.00040281182737089694,-0.053630292415618896,-35.3632621,149.1652374,-0.001,0.0,0.01,0.0,-9.942182077793404e-05,9.444938041269779e-05,0.0,1000,1000,1000,1000,12600,0,0.0027022184804081917,0.002591830911114812,0.0027537390124052763,10,{}
normal_corridor_base_9,0,none,22589,0.0006589108379557729,0.0004220014961902052,-0.05393058434128761,-35.3632621,149.1652374,0.0,0.0,0.01,0.0,-9.942192991729826e-05,9.4449489552062e-05,0.0,1000,1000,1000,1000,12600,0,0.002794792875647545,0.002813054481521249,0.002819029614329338,10,{}
normal_corridor_base_9,0,none,22924,0.0006854651146568358,0.00045207951916381717,-0.05439119413495064,-35.3632621,149.1652374,0.0,0.0,0.01,0.0,-9.942198812495917e-05,9.444947500014678e-05,0.0,1000,1000,1000,1000,12600,0,0.0026754443533718586,0.0023897667415440083,0.003038714872673154,10,{}
normal_corridor_base_9,0,none,23256,0.0007002081256359816,0.0004656983946915716,-0.05478619039058685,-35.3632621,149.1652374,0.001,-0.01,0.01,0.0,-9.942198812495917e-05,9.444947500014678e-05,0.0,1000,1000,1000,1000,12600,0,0.003094727173447609,0.0028118339832872152,0.0027826253790408373,10,{}
normal_corridor_base_9,0,none,23589,0.0007146737189032137,0.0004858283791691065,-0.055204376578330994,-35.3632621,149.1652374,0.001,-0.01,0.01,0.0,-9.942187898559496e-05,9.444942406844348e-05,0.0,1000,1000,1000,1000,12600,0,0.0027644913643598557,0.002834327518939972,0.0026015574112534523,10,{}
normal_corridor_base_9,0,none,23922,0.0007358819711953402,0.0005059901159256697,-0.055737659335136414,-35.3632621,149.1652374,0.002,-0.01,0.01,0.0,-9.942180622601882e-05,9.444937313674018e-05,0.0,1000,1000,1000,1000,12600,0,0.0024531520903110504,0.002604453358799219,0.0027353973127901554,10,{}
normal_corridor_base_9,0,none,24254,0.000748189864680171,0.000522967369761318,-0.05618715658783913,-35.3632621,149.1652374,0.002,-0.01,0.01,0.0,-9.942180622601882e-05,9.444937313674018e-05,0.0,1000,1000,1000,1000,12600,0,0.0026116271037608385,0.0027491082437336445,0.002554036909714341,10,{}
normal_corridor_base_9,0,none,24589,0.0007605619612149894,0.000536834413651377,-0.05661163106560707,-35.3632621,149.1652374,0.002,-0.01,0.01,0.0,-9.942187898559496e-05,9.444941679248586e-05,0.0,1000,1000,1000,1000,12600,0,0.00276782619766891,0.0028219628147780895,0.0028013670817017555,10,{}
normal_corridor_base_9,0,none,24921,0.0007857606979086995,0.0005585424951277673,-0.057195790112018585,-35.3632621,149.1652374,0.003,-0.01,0.01,0.0,-9.942192264134064e-05,9.444950410397723e-05,0.0,1000,1000,1000,1000,12600,0,0.0027373700868338346,0.0030610442627221346,0.0027379514649510384,10,{}
normal_corridor_base_9,0,none,25254,0.0007942026713863015,0.0005745620001107454,-0.0576537661254406,-35.3632621,149.1652374,0.003,-0.01,0.01,0.0,-9.942192264134064e-05,9.444950410397723e-05,0.0,1000,1000,1000,1000,12600,0,0.0027520577423274517,0.0027389784809201956,0.0027678932528942823,10,{}
normal_corridor_base_9,0,none,25587,0.0008113014046102762,0.0005885203718207777,-0.058068063110113144,-35.3632621,149.1652374,0.003,-0.01,0.01,0.0,-9.942191536538303e-05,9.444954775972292e-05,0.0,1000,1000,1000,1000,12600,0,0.0028279866091907024,0.0027966336347162724,0.0028149147983640432,10,{}
normal_corridor_base_9,0,none,25919,0.0008290608529932797,0.0006139912293292582,-0.05860716104507446,-35.3632621,149.1652374,0.002,-0.01,0.01,0.0,-9.942189353751019e-05,9.444950410397723e-05,0.0,1000,1000,1000,1000,12600,0,0.002895458834245801,0.0030159964226186275,0.002843007678166032,10,{}
normal_corridor_base_9,0,none,26254,0.0008484470308758318,0.0006203199736773968,-0.059092532843351364,-35.3632621,149.1652374,0.002,-0.01,0.01,0.0,-9.942189353751019e-05,9.444950410397723e-05,0.0,1000,1000,1000,1000,12600,0,0.002985048806294799,0.0026067697908729315,0.0030094764661043882,10,{}
normal_corridor_base_9,0,none,26586,0.000858045241329819,0.0006261466769501567,-0.059584759175777435,-35.3632621,149.1652374,0.002,-0.01,0.01,0.0,-9.942188626155257e-05,9.444942406844348e-05,0.0,1000,1000,1000,1000,12600,0,0.0025778913404792547,0.0027498884592205286,0.002785988850519061,10,{}
normal_corridor_base_9,0,none,26919,0.0008755036978982389,0.0006410412606783211,-0.060242895036935806,-35.3632621,149.1652374,0.002,-0.01,0.01,0.0,-9.942195902112871e-05,9.444946772418916e-05,0.0,1000,1000,1000,1000,12600,0,0.0027781182434409857,0.0026618479751050472,0.002665462903678417,10,{}
normal_corridor_base_9,0,none,27251,0.0008880632813088596,0.0006543670315295458,-0.06073635071516037,-35.3632621,149.1652374,0.002,-0.01,0.01,0.0,-9.942195902112871e-05,9.444946772418916e-05,0.0,1000,1000,1000,1000,12600,0,0.0027820696122944355,0.00299466191790998,0.002835611579939723,10,{}
normal_corridor_base_9,0,none,27584,0.0008965588640421629,0.0006547528319060802,-0.06127304956316948,-35.3632621,149.1652374,0.001,-0.01,0.01,0.0,-9.942193719325587e-05,9.444947500014678e-05,0.0,1000,1000,1000,1000,12600,0,0.002651001326739788,0.002843113150447607,0.0025861007161438465,10,{}
normal_corridor_base_9,0,none,27917,0.0009136910666711628,0.0006727793370373547,-0.06192530691623688,-35.3632621,149.1652374,0.001,-0.01,0.01,0.0,-9.942198812495917e-05,9.444951865589246e-05,0.0,1000,1000,1000,1000,12600,0,0.002724001184105873,0.00292764650657773,0.0028930087573826313,10,{}
normal_corridor_base_9,0,none,28252,0.0009242423693649471,0.0006879051215946674,-0.062423355877399445,-35.3632621,149.1652374,0.001,-0.01,0.01,0.0,-9.942198812495917e-05,9.444951865589246e-05,0.0,1000,1000,1000,1000,12600,0,0.0027520828880369663,0.0029692507814615965,0.0027271555736660957,10,{}
normal_corridor_base_9,0,none,28584,0.0009349783649668097,0.000699237163644284,-0.06291630119085312,-35.3632621,149.1652374,0.0,-0.01,0.01,0.0,-9.94220536085777e-05,9.444958413951099e-05,0.0,1000,1000,1000,1000,12600,0,0.0025427236687391996,0.0026748545933514833,0.002908064052462578,10,{}
normal_corridor_base_9,0,none,28916,0.0009485483751632273,0.0007168824085965753,-0.06355026364326477,-35.3632621,149.1652374,0.0,-0.01,0.01,0.0,-9.942217002389953e-05,9.444967145100236e-05,0.0,1000,1000,1000,1000,12600,0,0.0029325950890779495,0.0028176431078463793,0.0025753092486411333,10,{}
normal_corridor_base_9,0,none,29249,0.0009613229776732624,0.0007358610164374113,-0.06402397155761719,-35.3632621,149.1652374,0.0,-0.01,0.01,0.0,-9.942217002389953e-05,9.444967145100236e-05,0.0,1000,1000,1000,1000,12600,0,0.0028999352362006903,0.002513837767764926,0.0026612444780766964,10,{}
normal_corridor_base_9,0,none,29582,0.0009746655123308301,0.0007413321873173118,-0.06449639797210693,-35.3632621,149.1652374,0.0,-0.01,0.01,0.0,-9.942230099113658e-05,9.444972238270566e-05,0.0,1000,1000,1000,1000,12600,0,0.002916824771091342,0.002727465471252799,0.002831849968060851,10,{}
normal_corridor_base_9,0,none,29917,0.0009898729622364044,0.0007577443029731512,-0.0651516243815422,-35.3632621,149.1652374,0.0,-0.01,0.02,0.0,-9.942237375071272e-05,9.444976603845134e-05,0.0,1000,1000,1000,1000,12600,0,0.0027730839792639017,0.0027989887166768312,0.0029885852709412575,10,{}
normal_corridor_base_9,0,none,30359,0.0009993229759857059,0.0007764409529045224,-0.06582429260015488,-35.3632621,149.1652374,-0.001,-0.01,0.02,0.0,-9.942237375071272e-05,9.444976603845134e-05,0.0,1000,1000,1000,1000,12600,0,0.002594023710116744,0.002986607374623418,0.003058072878047824,10,{}
normal_corridor_base_9,0,none,30609,0.0009993229759857059,0.0007764409529045224,-0.06582429260015488,-35.3632621,149.1652374,-0.001,-0.01,0.02,0.0,-9.942236647475511e-05,9.444978059036657e-05,0.0,1000,1000,1000,1000,12600,0,0.002594023710116744,0.002986607374623418,0.003058072878047824,10,{}
normal_corridor_base_9,0,none,30859,0.0010111223673447967,0.0007875062874518335,-0.0665321797132492,-35.3632621,149.1652374,-0.001,-0.01,0.02,0.0,-9.942243195837364e-05,9.444985334994271e-05,0.0,1000,1000,1000,1000,12600,0,0.0027452956419438124,0.0027041237335652113,0.0029417253099381924,10,{}
normal_corridor_base_9,0,none,31109,0.001016566762700677,0.0007933017332106829,-0.06683430075645447,-35.3632621,149.1652374,-0.002,-0.01,0.02,0.0,-9.942248289007694e-05,9.444986062590033e-05,0.0,1000,1000,1000,1000,12600,0,0.0025769108906388283,0.0027669810224324465,0.0030055949464440346,10,{}
normal_corridor_base_9,0,none,31359,0.00102856510784477,0.0007991699385456741,-0.0672835111618042,-35.3632621,149.1652374,-0.002,-0.01,0.02,0.0,-9.942250471794978e-05,9.444992610951886e-05,0.0,1000,1000,1000,1000,12600,0,0.002702842466533184,0.002921517239883542,0.0027641686610877514,10,{}
normal_corridor_base_9,0,none,31609,0.0010368217481300235,0.0008041998371481895,-0.06757882237434387,-35.3632621,149.1652374,-0.002,-0.01,0.02,0.0,-9.942253382178023e-05,9.444995521334931e-05,0.0,1000,1000,1000,1000,12600,0,0.0028622495010495186,0.002820268040522933,0.002973902504891157,10,{}
normal_corridor_base_9,0,none,31859,0.001044037169776857,0.0008080724510364234,-0.06793775409460068,-35.3632621,149.1652374,-0.003,-0.01,0.02,0.0,-9.942250471794978e-05,9.444991883356124e-05,0.0,1000,1000,1000,1000,12600,0,0.002778651425614953,0.003242441453039646,0.0026031569577753544,10,{}
normal_corridor_base_9,0,none,32109,0.0010419028112664819,0.0008087613387033343,-0.06824364513158798,-35.3632621,149.1652374,-0.003,-0.01,0.02,0.0,-9.942249016603455e-05,9.444988972973078e-05,0.0,1000,1000,1000,1000,12600,0,0.003065534634515643,0.0029365213122218847,0.00259119039401412,10,{}
normal_corridor_base_9,0,none,32359,0.0010526735568419099,0.0008180341101251543,-0.06867873668670654,-35.3632621,149.1652374,-0.003,-0.01,0.02,0.0,-9.942246833816171e-05,9.444994066143408e-05,0.0,1000,1000,1000,1000,12600,0,0.003065534634515643,0.0029365213122218847,0.00259119039401412,10,{}
normal_corridor_base_9,0,none,32609,0.0010617756051942706,0.0008250875398516655,-0.06898905336856842,-35.3632621,149.1652374,-0.003,-0.01,0.02,0.0,-9.942246106220409e-05,9.444996248930693e-05,0.0,1000,1000,1000,1000,12600,0,0.002898664679378271,0.0027764178812503815,0.0029755125287920237,10,{}
normal_corridor_base_9,0,none,32859,0.0010669223265722394,0.0008375881006941199,-0.0694143995642662,-35.3632621,149.1652374,-0.004,-0.01,0.02,0.0,-9.942246106220409e-05,9.444996248930693e-05,0.0,1000,1000,1000,1000,12600,0,0.0025706735905259848,0.0024682264775037766,0.0029833621811121702,10,{}
normal_corridor_base_9,0,none,33109,0.0010732858208939433,0.0008446762803941965,-0.06970052421092987,-35.3632621,149.1652374,-0.004,-0.01,0.02,0.0,-9.9422519269865e-05,9.444992610951886e-05,0.0,1000,1000,1000,1000,12600,0,0.0027472474612295628,0.002612514654174447,0.0026534213684499264,10,{}
normal_corridor_base_9,0,none,33359,0.0010884031653404236,0.0008569908677600324,-0.0701281875371933,-35.3632621,149.1652374,-0.004,-0.01,0.02,0.0,-9.9422519269865e-05,9.444992610951886e-05,0.0,1000,1000,1000,1000,12600,0,0.0027472474612295628,0.002612514654174447,0.0026534213684499264,10,{}
normal_corridor_base_9,0,none,33742,0.0011052810586988926,0.000872004427947104,-0.07069497555494308,-35.3632621,149.1652374,-0.004,-0.01,0.02,0.0,-9.942256292561069e-05,9.44499479373917e-05,0.0,1000,1000,1000,1000,12600,0,0.002956799464300275,0.002928442321717739,0.0027688059490174055,10,{}
normal_corridor_base_9,0,none,34074,0.0011162084992974997,0.000876591308042407,-0.07112983614206314,-35.3632621,149.1652374,-0.005,-0.02,0.02,0.0,-9.942252654582262e-05,9.444996248930693e-05,0.0,1000,1000,1000,1000,12600,0,0.0024925547186285257,0.0028839148581027985,0.002969025168567896,10,{}
normal_corridor_base_9,0,none,34407,0.001120108412578702,0.0008875052444636822,-0.07153377681970596,-35.3632621,149.1652374,-0.005,-0.02,0.02,0.0,-9.942252654582262e-05,9.444996248930693e-05,0.0,1000,1000,1000,1000,12600,0,0.0027844689320772886,0.002838561777025461,0.0027057453989982605,10,{}
normal_corridor_base_9,0,none,34739,0.001135246129706502,0.0009048757492564619,-0.07207022607326508,-35.3632621,149.1652374,-0.005,-0.02,0.02,0.0,-9.942242468241602e-05,9.444997704122216e-05,0.0,1000,1000,1000,1000,12600,0,0.0028805339243263006,0.002866034395992756,0.0030566579662263393,10,{}
normal_corridor_base_9,0,none,35074,0.0011478208471089602,0.0009153590071946383,-0.07246249914169312,-35.3632621,149.1652374,-0.005,-0.02,0.02,0.0,-9.942236647475511e-05,9.444996976526454e-05,0.0,1000,1000,1000,1000,12600,0,0.0027187771629542112,0.002964502666145563,0.0027570368256419897,10,{}
normal_corridor_base_9,0,none,35406,0.0011519149411469698,0.0009286160347983241,-0.07285580039024353,-35.3632621,149.1652374,-0.005,-0.02,0.02,0.0,-9.942236647475511e-05,9.444996976526454e-05,0.0,1000,1000,1000,1000,12600,0,0.002569593256339431,0.0028208326548337936,0.0024499446153640747,10,{}
normal_corridor_base_9,0,none,35739,0.0011608810164034367,0.0009336329530924559,-0.07338151335716248,-35.3632621,149.1652374,-0.005,-0.02,0.02,0.0,-9.942233009496704e-05,9.444991883356124e-05,0.0,1000,1000,1000,1000,12600,0,0.002636111341416836,0.002834541257470846,0.0027754567563533783,10,{}
normal_corridor_base_9,0,none,36072,0.001165125286206603,0.0009369170875288546,-0.0737021192908287,-35.3632621,149.1652374,-0.005,-0.02,0.02,0.0,-9.942234464688227e-05,9.444994066143408e-05,0.0,1000,1000,1000,1000,12600,0,0.002781203482300043,0.002714641159400344,0.0026766627561300993,10,{}
normal_corridor_base_9,0,none,36404,0.001174542005173862,0.0009497308637946844,-0.07405869662761688,-35.3632621,149.1652374,-0.005,-0.02,0.02,0.0,-9.942234464688227e-05,9.444994066143408e-05,0.0,1000,1000,1000,1000,12600,0,0.002869976684451103,0.002661932958289981,0.0027954145334661007,10,{}
normal_corridor_base_9,0,none,36739,0.0011849510483443737,0.0009688071440905333,-0.07457516342401505,-35.3632621,149.1652374,-0.005,-0.02,0.02,0.0,-9.94223082670942e-05,9.444988972973078e-05,0.0,1000,1000,1000,1000,12600,0,0.0027690029237419367,0.0025614844635128975,0.0027706483379006386,10,{}
normal_corridor_base_9,0,none,37071,0.0011952832574024796,0.0009853438241407275,-0.07492849975824356,-35.3632621,149.1652374,-0.005,-0.02,0.02,0.0,-9.942234464688227e-05,9.444990428164601e-05,0.0,1000,1000,1000,1000,12600,0,0.002626126166433096,0.0027782809920608997,0.002714776434004307,10,{}
normal_corridor_base_9,0,none,37404,0.0012053338577970862,0.0009983982890844345,-0.07529356330633163,-35.3632621,149.1652374,-0.005,-0.02,0.02,0.0,-9.942234464688227e-05,9.444990428164601e-05,0.0,1000,1000,1000,1000,12600,0,0.0029745534993708134,0.0030436485540121794,0.002708356361836195,10,{}
normal_corridor_base_9,0,none,37736,0.0012134701246395707,0.0010105721885338426,-0.07577300816774368,-35.3632621,149.1652374,-0.005,-0.02,0.02,0.0,-9.942232281900942e-05,9.444987517781556e-05,0.0,1000,1000,1000,1000,12600,0,0.002917732810601592,0.0030247822869569063,0.0025936549063771963,10,{}
normal_corridor_base_9,0,none,38069,0.001215234282426536,0.001028141938149929,-0.07614091783761978,-35.3632621,149.1652374,-0.006,-0.02,0.02,0.0,-9.942233009496704e-05,9.444985334994271e-05,0.0,1000,1000,1000,1000,12600,0,0.0029366901144385338,0.002651392249390483,0.002498104702681303,10,{}
normal_corridor_base_9,0,none,38402,0.001227241475135088,0.0010372403776273131,-0.0764920711517334,-35.3632621,149.1652374,-0.006,-0.02,0.02,0.0,-9.942233009496704e-05,9.444985334994271e-05,0.0,1000,1000,1000,1000,12600,0,0.0029878283385187387,0.0029215719550848007,0.0028993666637688875,10,{}
normal_corridor_base_9,0,none,38736,0.0012437223922461271,0.0010450677946209908,-0.076949842274189,-35.3632621,149.1652374,-0.006,-0.02,0.02,0.0,-9.942233009496704e-05,9.444986062590033e-05,0.0,1000,1000,1000,1000,12600,0,0.002678863238543272,0.0027843157295137644,0.0027276610489934683,10,{}
normal_corridor_base_9,0,none,39069,0.0012490230146795511,0.0010610743192955852,-0.07729881256818771,-35.3632621,149.1652374,-0.006,-0.02,0.02,0.0,-9.942227916326374e-05,9.444986790185794e-05,0.0,1000,1000,1000,1000,12600,0,0.0029507174622267485,0.0031897341832518578,0.0028267549350857735,10,{}
normal_corridor_base_9,0,none,39401,0.0012519123265519738,0.001064362353645265,-0.07764089107513428,-35.3632621,149.1652374,-0.006,-0.02,0.02,0.0,-9.942227916326374e-05,9.444986790185794e-05,0.0,1000,1000,1000,1000,12600,0,0.002707327250391245,0.0025753893423825502,0.002833930542692542,10,{}
normal_corridor_base_9,0,none,39734,0.0012539979070425034,0.0010734262177720666,-0.07807926088571548,-35.3632621,149.1652374,-0.006,-0.02,0.02,0.0,-9.942226461134851e-05,9.444988245377317e-05,0.0,1000,1000,1000,1000,12600,0,0.00283726304769516,0.0029708065558224916,0.002622509840875864,10,{}
normal_corridor_base_9,0,none,40067,0.0012613274157047272,0.0010784352198243141,-0.07841994613409042,-35.3632621,149.1652374,-0.006,-0.02,0.02,0.0,-9.942229371517897e-05,9.444990428164601e-05,0.0,1000,1000,1000,1000,12600,0,0.002703608712181449,0.0030884419102221727,0.0026439186185598373,10,{}
normal_corridor_base_9,0,none,40402,0.0012696171179413795,0.0010881482157856226,-0.0787326917052269,-35.3632621,149.1652374,-0.006,-0.02,0.02,0.0,-9.942229371517897e-05,9.444990428164601e-05,0.0,1000,1000,1000,1000,12600,0,0.002662442624568939,0.002870940836146474,0.0029970051255077124,10,{}
normal_corridor_base_9,0,none,40734,0.0012778505915775895,0.0010946861002594233,-0.0791492760181427,-35.3632621,149.1652374,-0.006,-0.02,0.02,0.0,-9.942226461134851e-05,9.444995521334931e-05,0.0,1000,1000,1000,1000,12600,0,0.002531663281843066,0.0029499847441911697,0.002777579938992858,10,{}
normal_corridor_base_9,0,none,41066,0.0012867655605077744,0.0010999336373060942,-0.07939781248569489,-35.3632621,149.1652374,-0.006,-0.02,0.02,0.0,-9.942228643922135e-05,9.44499479373917e-05,0.0,1000,1000,1000,1000,12600,0,0.0025701120030134916,0.0028190219309180975,0.0026660661678761244,10,{}
normal_corridor_base_9,0,none,41399,0.0012929732911288738,0.00111329962965101,-0.07970244437456131,-35.3632621,149.1652374,-0.006,-0.02,0.02,0.0,-9.942228643922135e-05,9.44499479373917e-05,0.0,1000,1000,1000,1000,12600,0,0.002787996781989932,0.003203130327165127,0.0028660909738391638,10,{}
normal_corridor_base_9,0,none,41734,0.0013080127537250519,0.001131421304307878,-0.08010756224393845,-35.3632621,149.1652374,-0.006,0.0,0.0,0.0,-9.942230099113658e-05,9.444991155760363e-05,0.0,1000,1000,1000,1000,12600,0,0.0028799420688301325,0.002878387924283743,0.002944336971268058,10,{}
normal_corridor_base_9,0,none,42067,0.0013760612346231937,0.001195295830257237,-0.08040624856948853,-35.3632621,149.1652374,-0.006,0.0,0.0,0.0,-9.94223082670942e-05,9.444991883356124e-05,0.0,1000,1000,1000,1000,12600,0,0.002780249109491706,0.0027693856973201036,0.0027552491519600153,10,{}
normal_corridor_base_9,0,none,42399,0.0014504457358270884,0.0012723562540486455,-0.08072060346603394,-35.3632621,149.1652374,-0.006,0.0,0.0,0.0,-9.94223082670942e-05,9.444991883356124e-05,0.0,1000,1000,1000,1000,12600,0,0.0029197141993790865,0.0029532366897910833,0.0026757395826280117,10,{}
normal_corridor_base_9,0,none,42732,0.001533613889478147,0.0013564697001129389,-0.08112776279449463,-35.3632621,149.1652374,-0.006,0.0,0.0,0.0,-9.942228643922135e-05,9.444992610951886e-05,0.0,1000,1000,1000,1000,12600,0,0.0028148198034614325,0.002571751596406102,0.002436808543279767,10,{}
normal_corridor_base_9,0,none,43064,0.00159501563757658,0.001414514146745205,-0.08143104612827301,-35.3632621,149.1652374,-0.006,-0.01,0.01,0.0,-9.942232281900942e-05,9.444992610951886e-05,0.0,1000,1000,1000,1000,12600,0,0.002539855195209384,0.002969766966998577,0.0028200296219438314,10,{}
normal_corridor_base_9,0,none,43399,0.0016312849475070834,0.0014468305744230747,-0.0817427784204483,-35.3632621,149.1652374,-0.006,-0.01,0.01,0.0,-9.942232281900942e-05,9.444992610951886e-05,0.0,1000,1000,1000,1000,12600,0,0.002566168550401926,0.003133150516077876,0.0027752097230404615,10,{}
normal_corridor_base_9,0,none,43731,0.0016600143862888217,0.0014709566021338105,-0.08214687556028366,-35.3632621,149.1652374,-0.006,-0.01,0.01,0.0,-9.942236647475511e-05,9.444987517781556e-05,0.0,1000,1000,1000,1000,12600,0,0.0024689806159585714,0.0028500251937657595,0.0028176356572657824,10,{}
normal_corridor_base_9,0,none,44064,0.001662463415414095,0.00148011464625597,-0.08245602995157242,-35.3632621,149.1652374,-0.006,-0.01,0.01,0.0,-9.942238830262795e-05,9.444988972973078e-05,0.0,1000,1000,1000,1000,12600,0,0.002821525791659951,0.0031314650550484657,0.0027353987097740173,10,{}
normal_corridor_base_9,0,none,44397,0.0016349852085113525,0.0014519470278173685,-0.08275802433490753,-35.3632621,149.1652375,-0.006,-0.01,0.02,0.0,-9.942238830262795e-05,9.444988972973078e-05,0.0,1000,1000,1000,1000,12600,0,0.0028434572741389275,0.0028752211946994066,0.0027911171782761812,10,{}
normal_corridor_base_9,0,none,44729,0.0015915263211354613,0.001400945009663701,-0.08313237130641937,-35.3632621,149.1652375,-0.006,-0.01,0.02,0.0,-9.94224101305008e-05,9.44498970056884e-05,0.0,1000,1000,1000,1000,12600,0,0.002762738149613142,0.002663266845047474,0.002548656426370144,10,{}
normal_corridor_base_9,0,none,45064,0.001548002241179347,0.0013660357799381018,-0.08341852575540543,-35.3632621,149.1652375,-0.006,-0.01,0.02,0.0,-9.942232281900942e-05,9.444985334994271e-05,0.0,1000,1000,1000,1000,12600,0,0.002801372669637203,0.0028735226951539516,0.002835225546732545,10,{}
normal_corridor_base_9,0,none,45359,0.001479779719375074,0.0012987024383619428,-0.08371084183454514,-35.3632622,149.1652375,-0.006,-0.01,0.02,0.0,-9.942232281900942e-05,9.444985334994271e-05,0.0,1000,1000,1000,1000,12600,0,0.002625053282827139,0.0027522468008100986,0.002812944585457444,10,{}
normal_corridor_base_9,0,none,45609,0.0014392905868589878,0.0012611208949238062,-0.08392900973558426,-35.3632622,149.1652375,-0.006,-0.01,0.02,0.0,-9.942233737092465e-05,9.444988972973078e-05,0.0,1000,1000,1000,1000,12600,0,0.002625053282827139,0.0027522468008100986,0.002812944585457444,10,{}
normal_corridor_base_9,0,none,45859,0.0013833766570314765,0.0012024238239973783,-0.0841258093714714,-35.3632622,149.1652375,-0.006,-0.01,0.02,0.0,-9.942232281900942e-05,9.444988245377317e-05,0.0,1000,1000,1000,1000,12600,0,0.0030986382625997066,0.0027661113999783993,0.0028485991060733795,10,{}
normal_corridor_base_9,0,none,46109,0.0013420513132587075,0.001157171092927456,-0.0843360424041748,-35.3632622,149.1652375,-0.006,-0.01,0.01,0.0,-9.942230099113658e-05,9.444987517781556e-05,0.0,1000,1000,1000,1000,12600,0,0.002964441664516926,0.0029269512742757797,0.002818138338625431,10,{}
normal_corridor_base_9,0,none,46359,0.001302353455685079,0.0011119218543171883,-0.08450280129909515,-35.3632622,149.1652375,-0.006,-0.01,0.01,0.0,-9.942227916326374e-05,9.444988245377317e-05,0.0,1000,1000,1000,1000,12600,0,0.0026376990135759115,0.0026923753321170807,0.002795394277200103,10,{}
normal_corridor_base_9,0,none,46609,0.0012745825806632638,0.0010905761737376451,-0.0846693366765976,-35.3632622,149.1652375,-0.006,-0.01,0.01,0.0,-9.942231554305181e-05,9.444991883356124e-05,0.0,1000,1000,1000,1000,12600,0,0.002608353039249778,0.0027677789330482483,0.0025946777313947678,10,{}
normal_corridor_base_9,0,none,46859,0.0012297575594857335,0.0010503710946068168,-0.08486422151327133,-35.3632622,149.1652375,-0.006,-0.01,0.01,0.0,-9.942224278347567e-05,9.444988972973078e-05,0.0,1000,1000,1000,1000,12600,0,0.002910564886406064,0.002735384739935398,0.002434569178149104,10,{}
normal_corridor_base_9,0,none,47109,0.001197610516101122,0.001022752607241273,-0.08504755795001984,-35.3632621,149.1652375,-0.006,-0.01,0.01,0.0,-9.942224278347567e-05,9.444992610951886e-05,0.0,1000,1000,1000,1000,12600,0,0.002830331912264228,0.0026740948669612408,0.002407713560387492,10,{}
normal_corridor_base_9,0,none,47359,0.0011716082226485014,0.0010006602387875319,-0.08523144572973251,-35.3632621,149.1652375,-0.006,-0.01,0.01,0.0,-9.942222095560282e-05,9.444990428164601e-05,0.0,1000,1000,1000,1000,12600,0,0.002942302729934454,0.00285010295920074,0.0027276657056063414,10,{}
normal_corridor_base_9,0,none,47609,0.0011574157979339361,0.0009868261404335499,-0.08540232479572296,-35.3632621,149.1652375,-0.006,-0.01,0.01,0.0,-9.942217729985714e-05,9.444986790185794e-05,0.0,1000,1000,1000,1000,12600,0,0.0027303090319037437,0.0027330066077411175,0.002782264491543174,10,{}
normal_corridor_base_9,0,none,47859,0.0011315657757222652,0.0009639391209930182,-0.08558480441570282,-35.3632621,149.1652375,-0.006,-0.01,0.01,0.0,-9.942214819602668e-05,9.444982424611226e-05,0.0,1000,1000,1000,1000,12600,0,0.002810887759551406,0.002708232030272484,0.002716965042054653,10,{}
normal_corridor_base_9,0,none,48109,0.0011161502916365862,0.0009478863212279975,-0.08574502170085907,-35.3632621,149.1652375,-0.006,-0.01,0.01,0.0,-9.942212636815384e-05,9.444983152206987e-05,0.0,1000,1000,1000,1000,12600,0,0.0030491205397993326,0.002733191242441535,0.002740527968853712,10,{}
normal_corridor_base_9,0,none,48359,0.0011058845557272434,0.00093656504759565,-0.0859261080622673,-35.3632621,149.1652375,-0.006,-0.01,0.01,0.0,-9.9422104540281e-05,9.444981697015464e-05,0.0,1000,1000,1000,1000,12600,0,0.0027207722887396812,0.0029172629583626986,0.0028043659403920174,10,{}
normal_corridor_base_9,0,none,48609,0.001100630033761263,0.0009317060466855764,-0.08608795702457428,-35.3632621,149.1652375,-0.006,-0.01,0.01,0.0,-9.942208271240816e-05,9.444980969419703e-05,0.0,1000,1000,1000,1000,12600,0,0.0028970411513000727,0.002719205105677247,0.002963472856208682,10,{}
normal_corridor_base_9,0,none,48859,0.0010899169137701392,0.0009227179689332843,-0.08624119311571121,-35.3632621,149.1652375,-0.006,-0.01,0.01,0.0,-9.942207543645054e-05,9.444978786632419e-05,0.0,1000,1000,1000,1000,12600,0,0.0027527327183634043,0.003072954947128892,0.002835240913555026,10,{}
normal_corridor_base_9,0,none,49109,0.0010844735661521554,0.0009155903244391084,-0.08641602098941803,-35.3632621,149.1652375,-0.006,-0.01,0.01,0.0,-9.942202450474724e-05,9.444976603845134e-05,0.0,1000,1000,1000,1000,12600,0,0.0029563058633357286,0.002996875671669841,0.0026840369682759047,10,{}
normal_corridor_base_9,0,none,49359,0.0010836297878995538,0.0009114728891290724,-0.0865660011768341,-35.3632621,149.1652375,-0.006,-0.01,0.01,0.0,-9.942198812495917e-05,9.444977331440896e-05,0.0,1000,1000,1000,1000,12600,0,0.0026542518753558397,0.002578223589807749,0.00275064492598176,10,{}
normal_corridor_base_9,0,none,49609,0.001083314185962081,0.0009116774308495224,-0.08672421425580978,-35.3632621,149.1652375,-0.006,-0.01,0.01,0.0,-9.942197357304394e-05,9.444972965866327e-05,0.0,1000,1000,1000,1000,12600,0,0.0027467922773212194,0.0029318167362362146,0.0026389684062451124,10,{}
normal_corridor_base_9,0,none,49859,0.0010767091298475862,0.0009133914718404412,-0.08688103407621384,-35.3632621,149.1652375,-0.006,-0.01,0.01,0.0,-9.942198812495917e-05,9.444971510674804e-05,0.0,1000,1000,1000,1000,12600,0,0.0026736531872302294,0.0027801760006695986,0.0026876882184296846,10,{}
normal_corridor_base_9,0,none,50109,0.0010772880632430315,0.0009144202340394258,-0.08704080432653427,-35.3632621,149.1652375,-0.006,-0.01,0.01,0.0,-9.942198812495917e-05,9.444970055483282e-05,0.0,1000,1000,1000,1000,12600,0,0.002833524253219366,0.0027619735337793827,0.0027765596751123667,10,{}
normal_corridor_base_9,0,none,50359,0.0010808486258611083,0.0009159551118500531,-0.08718887716531754,-35.3632621,149.1652375,-0.006,-0.01,0.01,0.0,-9.942198084900156e-05,9.444967145100236e-05,0.0,1000,1000,1000,1000,12600,0,0.0024278932251036167,0.0027282009832561016,0.002920859958976507,10,{}
normal_corridor_base_9,0,none,50609,0.001082921284250915,0.00091378582874313,-0.08735262602567673,-35.3632621,149.1652375,-0.006,-0.01,0.01,0.0,-9.94219517451711e-05,9.44495914154686e-05,0.0,1000,1000,1000,1000,12600,0,0.0028795383404940367,0.002912558615207672,0.002705363789573312,10,{}
normal_corridor_base_9,0,none,50859,0.0010856396984308958,0.0009125049691647291,-0.08749187737703323,-35.3632621,149.1652375,-0.006,-0.01,0.01,0.0,-9.94219517451711e-05,9.444958413951099e-05,0.0,1000,1000,1000,1000,12600,0,0.002730251755565405,0.00309019279666245,0.0029180580750107765,10,{}
normal_corridor_base_9,0,none,51109,0.001086049946025014,0.0009131146362051368,-0.08764593303203583,-35.3632621,149.1652375,-0.006,-0.01,0.01,0.0,-9.942192991729826e-05,9.444955503568053e-05,0.0,1000,1000,1000,1000,12600,0,0.002759188413619995,0.0027631274424493313,0.002692399313673377,10,{}
normal_corridor_base_9,0,none,51359,0.0010868506506085396,0.0009175626910291612,-0.08778399229049683,-35.3632621,149.1652375,-0.006,-0.01,0.01,0.0,-9.942188626155257e-05,9.444951865589246e-05,0.0,1000,1000,1000,1000,12600,0,0.0028520594350993633,0.0027719265781342983,0.002561443718150258,10,{}
normal_corridor_base_9,0,none,51609,0.0010907595278695226,0.0009178295731544495,-0.08793086558580399,-35.3632621,149.1652375,-0.006,-0.01,0.01,0.0,-9.942188626155257e-05,9.444949682801962e-05,0.0,1000,1000,1000,1000,12600,0,0.0028616972267627716,0.0030034955125302076,0.002972721355035901,10,{}
normal_corridor_base_9,0,none,51859,0.0010945609537884593,0.0009136635926552117,-0.08806651085615158,-35.3632621,149.1652375,-0.006,-0.01,0.01,0.0,-9.94219008134678e-05,9.444951137993485e-05,0.0,1000,1000,1000,1000,12600,0,0.002981453202664852,0.0026728399097919464,0.0029063106048852205,10,{}
normal_corridor_base_9,0,none,52109,0.001098877633921802,0.0009065615013241768,-0.08821754157543182,-35.3632621,149.1652375,-0.006,-0.01,0.01,0.0,-9.94219008134678e-05,9.4449489552062e-05,0.0,1000,1000,1000,1000,12600,0,0.002923040883615613,0.0024742335081100464,0.0028510168194770813,10,{}
normal_corridor_base_9,0,none,52359,0.0011044458951801062,0.0009058786672540009,-0.08834592998027802,-35.3632621,149.1652375,-0.006,-0.01,0.01,0.0,-9.942188626155257e-05,9.444948227610439e-05,0.0,1000,1000,1000,1000,12600,0,0.002700075274333358,0.0028381752781569958,0.0027657821774482727,10,{}
normal_corridor_base_9,0,none,52609,0.0011101830750703812,0.0009166558738797903,-0.08846187591552734,-35.3632621,149.1652375,-0.006,-0.01,0.01,0.0,-9.942186443367973e-05,9.444945317227393e-05,0.0,1000,1000,1000,1000,12600,0,0.0030767873395234346,0.0026920665986835957,0.0027921046130359173,10,{}
normal_corridor_base_9,0,none,52859,0.001110072247684002,0.0009179531480185688,-0.08859670162200928,-35.3632621,149.1652375,-0.006,-0.01,0.01,0.0,-9.942185715772212e-05,9.444943134440109e-05,0.0,1000,1000,1000,1000,12600,0,0.002855975879356265,0.00301144877448678,0.002883042674511671,10,{}
normal_corridor_base_9,0,none,53109,0.0011106115998700261,0.0009145463118329644,-0.08872945606708527,-35.3632621,149.1652375,-0.006,-0.01,0.01,0.0,-9.942184260580689e-05,9.444942406844348e-05,0.0,1000,1000,1000,1000,12600,0,0.0026552360504865646,0.0027969314251095057,0.0027470001950860023,10,{}
normal_corridor_base_9,0,none,53359,0.0011165087344124913,0.0009218102204613388,-0.08887452632188797,-35.3632621,149.1652375,-0.006,-0.01,0.01,0.0,-9.942185715772212e-05,9.444944589631632e-05,0.0,1000,1000,1000,1000,12600,0,0.002825675532221794,0.0025820410810410976,0.002596509177237749,10,{}
normal_corridor_base_9,0,none,53609,0.001130168791860342,0.0009308191947638988,-0.0890049859881401,-35.3632621,149.1652375,-0.006,-0.01,0.01,0.0,-9.942181350197643e-05,9.444940951652825e-05,0.0,1000,1000,1000,1000,12600,0,0.002713617868721485,0.00301196682266891,0.0027076255064457655,10,{}
normal_corridor_base_9,0,none,53859,0.0011319947661831975,0.0009267268469557166,-0.08913467079401016,-35.3632621,149.1652375,-0.006,-0.01,0.01,0.0,-9.942180622601882e-05,9.444942406844348e-05,0.0,1000,1000,1000,1000,12600,0,0.002530421130359173,0.0027555502019822598,0.002873047022148967,10,{}
normal_corridor_base_9,0,none,54109,0.0011332229478284717,0.000935083138756454,-0.08926977217197418,-35.3632621,149.1652375,-0.006,-0.01,0.01,0.0,-9.942177712218836e-05,9.444941679248586e-05,0.0,1000,1000,1000,1000,12600,0,0.0029445025138556957,0.0027861802373081446,0.0029055504128336906,10,{}
normal_corridor_base_9,0,none,54359,0.0011347508989274502,0.0009401349816471338,-0.08939773589372635,-35.3632621,149.1652375,-0.006,-0.01,0.01,0.0,-9.942174074240029e-05,9.444936586078256e-05,0.0,1000,1000,1000,1000,12600,0,0.0029112566262483597,0.0028869768138974905,0.0029184368904680014,10,{}
normal_corridor_base_9,0,none,54609,0.001145130256190896,0.0009490324300713837,-0.0895230695605278,-35.3632621,149.1652375,-0.006,-0.01,0.01,0.0,-9.942173346644267e-05,9.444938041269779e-05,0.0,1000,1000,1000,1000,12600,0,0.002589056733995676,0.0028299414552748203,0.0026409763377159834,10,{}
normal_corridor_base_9,0,none,54859,0.001145048881880939,0.0009480275330133736,-0.0896439254283905,-35.3632621,149.1652375,-0.006,-0.01,0.01,0.0,-9.942174074240029e-05,9.444932948099449e-05,0.0,1000,1000,1000,1000,12600,0,0.003179901046678424,0.0028269935864955187,0.002934572286903858,10,{}
normal_corridor_base_9,0,none,55109,0.0011465181596577168,0.0009495709673501551,-0.08977226912975311,-35.3632621,149.1652375,-0.006,-0.01,0.01,0.0,-9.942173346644267e-05,9.444930037716404e-05,0.0,1000,1000,1000,1000,12600,0,0.0027986096683889627,0.0028150491416454315,0.002693748101592064,10,{}
normal_corridor_base_9,0,none,55359,0.001146455411799252,0.0009526344947516918,-0.08989261090755463,-35.3632621,149.1652375,-0.006,-0.01,0.01,0.0,-9.942174074240029e-05,9.444929310120642e-05,0.0,1000,1000,1000,1000,12600,0,0.0025653615593910217,0.002535554813221097,0.0026234781835228205,10,{}
normal_corridor_base_9,0,none,55609,0.0011497512459754944,0.0009569270769134164,-0.09002306312322617,-35.3632621,149.1652375,-0.006,-0.01,0.01,0.0,-9.942168981069699e-05,9.444924944546074e-05,0.0,1000,1000,1000,1000,12600,0,0.002817535540089011,0.003212274983525276,0.002643297892063856,10,{}
normal_corridor_base_9,0,none,55859,0.001146637019701302,0.0009505224879831076,-0.0901414081454277,-35.3632621,149.1652375,-0.006,-0.01,0.01,0.0,-9.942170436261222e-05,9.444929310120642e-05,0.0,1000,1000,1000,1000,12600,0,0.0026250488590449095,0.0027982108294963837,0.0025702097918838263,10,{}
normal_corridor_base_9,0,none,56109,0.0011456083739176393,0.0009517219150438905,-0.09026864171028137,-35.3632621,149.1652375,-0.006,-0.01,0.01,0.0,-9.942168253473938e-05,9.444927127333358e-05,0.0,1000,1000,1000,1000,12600,0,0.0027849364560097456,0.002856514183804393,0.003040461568161845,10,{}
normal_corridor_base_9,0,none,56359,0.001150742289610207,0.0009558619349263608,-0.09038730710744858,-35.3632621,149.1652375,-0.006,-0.01,0.01,0.0,-9.942167525878176e-05,9.444924216950312e-05,0.0,1000,1000,1000,1000,12600,0,0.0027203415520489216,0.002890425967052579,0.003163292771205306,10,{}
normal_corridor_base_9,0,none,56609,0.0011518693063408136,0.0009608949767425656,-0.09050985425710678,-35.3632621,149.1652375,-0.006,-0.01,0.01,0.0,-9.94216970866546e-05,9.444927127333358e-05,0.0,1000,1000,1000,1000,12600,0,0.0027449512854218483,0.0026981437113136053,0.0027362967375665903,10,{}
normal_corridor_base_9,0,none,56859,0.0011375400936231017,0.0009584983345121145,-0.0905952900648117,-35.3632621,149.1652375,-0.006,-0.01,0.01,0.0,-9.94217480183579e-05,9.444930037716404e-05,0.0,1000,1000,1000,1000,12600,0,0.0028893600683659315,0.0026930251624435186,0.0027068881317973137,10,{}
normal_corridor_base_9,0,none,57109,0.0011328201508149505,0.0009548915550112724,-0.09071136265993118,-35.3632621,149.1652375,-0.006,-0.01,0.01,0.0,-9.942180622601882e-05,9.444932220503688e-05,0.0,1000,1000,1000,1000,12600,0,0.00275367870926857,0.00308021972887218,0.0027672003488987684,10,{}
normal_corridor_base_9,0,none,57359,0.0011408270802348852,0.0009573363931849599,-0.09083059430122375,-35.3632621,149.1652375,-0.006,-0.01,0.01,0.0,-9.942182077793404e-05,9.444934403290972e-05,0.0,1000,1000,1000,1000,12600,0,0.002756827510893345,0.0028920324984937906,0.002678319113329053,10,{}
normal_corridor_base_9,0,none,57609,0.0011471644975245,0.0009653907036408782,-0.09094556421041489,-35.3632622,149.1652375,-0.006,-0.01,0.01,0.0,-9.942181350197643e-05,9.444935130886734e-05,0.0,1000,1000,1000,1000,12600,0,0.0026882162783294916,0.002612355398014188,0.002521827584132552,10,{}
normal_corridor_base_9,0,none,57859,0.0011461941758170724,0.0009619080810807645,-0.09105420857667923,-35.3632622,149.1652375,-0.006,-0.01,0.01,0.0,-9.942182805389166e-05,9.444936586078256e-05,0.0,1000,1000,1000,1000,12600,0,0.0026686876080930233,0.0025595328770577908,0.002613175194710493,10,{}
normal_corridor_base_9,0,none,58109,0.0011505525326356292,0.0009610041161067784,-0.09116332978010178,-35.3632621,149.1652375,-0.006,-0.01,0.01,0.0,-9.942185715772212e-05,9.444940224057063e-05,0.0,1000,1000,1000,1000,12600,0,0.0025921626947820187,0.002722289878875017,0.0025753893423825502,10,{}
normal_corridor_base_9,0,none,58359,0.001154232071712613,0.000966985709965229,-0.09127876162528992,-35.3632622,149.1652375,-0.006,-0.01,0.01,0.0,-9.94218498817645e-05,9.444938041269779e-05,0.0,1000,1000,1000,1000,12600,0,0.003136976854875684,0.00285535492002964,0.002741058124229312,10,{}
normal_corridor_base_9,0,none,58609,0.0011553011136129498,0.0009718756773509085,-0.09138531237840652,-35.3632622,149.1652375,-0.006,-0.01,0.01,0.0,-9.942191536538303e-05,9.444943134440109e-05,0.0,1000,1000,1000,1000,12600,0,0.0033145740162581205,0.0030581026803702116,0.0028399054426699877,10,{}
normal_corridor_base_9,0,none,58859,0.00115388969425112,0.0009682156960479915,-0.09149821102619171,-35.3632621,149.1652375,-0.006,-0.01,0.01,0.0,-9.94219517451711e-05,9.444946772418916e-05,0.0,1000,1000,1000,1000,12600,0,0.002873932244256139,0.002750982763245702,0.002643563784658909,10,{}
normal_corridor_base_9,0,none,59109,0.0011556694516912103,0.0009694803738966584,-0.09160532802343369,-35.3632621,149.1652375,-0.006,-0.01,0.01,0.0,-9.942192264134064e-05,9.444939496461302e-05,0.0,1000,1000,1000,1000,12600,0,0.002709657186642289,0.0027901530265808105,0.002635806333273649,10,{}
normal_corridor_base_9,0,none,59359,0.001157964114099741,0.0009754665661603212,-0.09170641750097275,-35.3632621,149.1652375,-0.006,-0.01,0.01,0.0,-9.942193719325587e-05,9.44493876886554e-05,0.0,1000,1000,1000,1000,12600,0,0.002986150560900569,0.0025646232534199953,0.0026288125663995743,10,{}
normal_corridor_base_9,0,none,59609,0.0011633834801614285,0.0009801442502066493,-0.09181450307369232,-35.3632622,149.1652375,-0.006,-0.01,0.01,0.0,-9.942194446921349e-05,9.444936586078256e-05,0.0,1000,1000,1000,1000,12600,0,0.0029572832863777876,0.0027076476253569126,0.0027441259007900953,10,{}
normal_corridor_base_9,0,none,59859,0.001150948228314519,0.0009753514314070344,-0.09191413968801498,-35.3632621,149.1652375,-0.006,-0.01,0.01,0.0,-9.942197357304394e-05,9.44493876886554e-05,0.0,1000,1000,1000,1000,12600,0,0.002691302914172411,0.0028327982872724533,0.002781176706776023,10,{}
normal_corridor_base_9,0,none,60109,0.001150992582552135,0.0009697595960460603,-0.0920155718922615,-35.3632621,149.1652375,-0.006,-0.01,0.01,0.0,-9.942198812495917e-05,9.444936586078256e-05,0.0,1000,1000,1000,1000,12600,0,0.0030766644049435854,0.0027686390094459057,0.0027320855297148228,10,{}
normal_corridor_base_9,0,none,60359,0.001152415294200182,0.0009686223929747939,-0.0921175554394722,-35.3632621,149.1652375,-0.006,-0.01,0.01,0.0,-9.942203178070486e-05,9.444936586078256e-05,0.0,1000,1000,1000,1000,12600,0,0.00264367600902915,0.0028392449021339417,0.0027064899913966656,10,{}
normal_corridor_base_9,0,none,60609,0.0011598190758377314,0.0009716156055219471,-0.09221701323986053,-35.3632622,149.1652375,-0.006,-0.01,0.01,0.0,-9.942204633262008e-05,9.444936586078256e-05,0.0,1000,1000,1000,1000,12600,0,0.0027707696426659822,0.002933873562142253,0.0028347743209451437,10,{}
normal_corridor_base_9,0,none,60859,0.0011506222654134035,0.0009574568248353899,-0.09232082962989807,-35.3632621,149.1652375,-0.006,-0.01,0.01,0.0,-9.942202450474724e-05,9.444936586078256e-05,0.0,1000,1000,1000,1000,12600,0,0.002845232840627432,0.0027584449853748083,0.00260436930693686,10,{}
normal_corridor_base_9,0,none,61109,0.0011541894637048244,0.0009530831011943519,-0.09242058545351028,-35.3632621,149.1652375,-0.006,-0.01,0.01,0.0,-9.94220536085777e-05,9.444938041269779e-05,0.0,1000,1000,1000,1000,12600,0,0.002466082340106368,0.0028912045527249575,0.00280753243714571,10,{}
normal_corridor_base_9,0,none,61359,0.001157370861619711,0.0009573562419973314,-0.09250995516777039,-35.3632622,149.1652375,-0.006,-0.01,0.01,0.0,-9.942203905666247e-05,9.444936586078256e-05,0.0,1000,1000,1000,1000,12600,0,0.0032029920257627964,0.0030849571339786053,0.0030326165724545717,10,{}
normal_corridor_base_9,0,none,61609,0.001163512235507369,0.0009605655213817954,-0.09260693937540054,-35.3632622,149.1652375,-0.006,-0.01,0.01,0.0,-9.942208271240816e-05,9.444936586078256e-05,0.0,1000,1000,1000,1000,12600,0,0.0027413039933890104,0.0028050777036696672,0.0029552169144153595,10,{}
normal_corridor_base_9,0,none,61859,0.0011544275330379605,0.0009527966612949967,-0.09268105775117874,-35.3632622,149.1652375,-0.006,-0.01,0.01,0.0,-9.942208998836577e-05,9.444940224057063e-05,0.0,1000,1000,1000,1000,12600,0,0.0028701815754175186,0.0027552323881536722,0.003020034870132804,10,{}
normal_corridor_base_9,0,none,62109,0.0011569677153602242,0.0009554944699630141,-0.09277230501174927,-35.3632622,149.1652375,-0.006,-0.01,0.01,0.0,-9.9422104540281e-05,9.444942406844348e-05,0.0,1000,1000,1000,1000,12600,0,0.002576263854280114,0.0028237842489033937,0.00281587615609169,10,{}
normal_corridor_base_9,0,none,62359,0.001162378117442131,0.0009543164051137865,-0.09286495298147202,-35.3632622,149.1652375,-0.006,-0.01,0.01,0.0,-9.942212636815384e-05,9.444945317227393e-05,0.0,1000,1000,1000,1000,12600,0,0.0026123153511434793,0.0026703509502112865,0.0027822148986160755,10,{}
normal_corridor_base_9,0,none,62609,0.0011630640365183353,0.0009633832378312945,-0.09295174479484558,-35.3632622,149.1652375,-0.006,-0.01,0.01,0.0,-9.942212636815384e-05,9.444947500014678e-05,0.0,1000,1000,1000,1000,12600,0,0.002607963513582945,0.00300018722191453,0.0027914310339838266,10,{}
normal_corridor_base_9,0,none,62859,0.0011604845058172941,0.0009619378834031522,-0.09304547309875488,-35.3632621,149.1652375,-0.006,-0.01,0.01,0.0,-9.942214092006907e-05,9.4449489552062e-05,0.0,1000,1000,1000,1000,12600,0,0.002651479560881853,0.003121313638985157,0.0026552302297204733,10,{}
normal_corridor_base_9,0,none,63109,0.0011601106962189078,0.0009673222666606307,-0.09314198791980743,-35.3632622,149.1652375,-0.006,-0.01,0.01,0.0,-9.942209726432338e-05,9.444941679248586e-05,0.0,1000,1000,1000,1000,12600,0,0.002965441904962063,0.002840616274625063,0.00271061179228127,10,{}
normal_corridor_base_9,0,none,63359,0.001159029663540423,0.000966163061093539,-0.09323614090681076,-35.3632622,149.1652375,-0.006,-0.01,0.01,0.0,-9.942212636815384e-05,9.444942406844348e-05,0.0,1000,1000,1000,1000,12600,0,0.002757894340902567,0.0027701384387910366,0.0028627743013203144,10,{}
normal_corridor_base_9,0,none,63609,0.0011627719504758716,0.0009760424145497382,-0.09332115203142166,-35.3632622,149.1652375,-0.006,-0.01,0.01,0.0,-9.942211181623861e-05,9.44493876886554e-05,0.0,1000,1000,1000,1000,12600,0,0.0028746810276061296,0.002498235320672393,0.002747178077697754,10,{}
normal_corridor_base_9,0,none,63859,0.0011575233656913042,0.0009708762518130243,-0.09340231865644455,-35.3632622,149.1652375,-0.006,-0.01,0.01,0.0,-9.942208998836577e-05,9.444940951652825e-05,0.0,1000,1000,1000,1000,12600,0,0.002889009192585945,0.0030402233824133873,0.0028160575311630964,10,{}
normal_corridor_base_9,0,none,64109,0.0011629948858171701,0.0009625497623346746,-0.09349004924297333,-35.3632622,149.1652375,-0.006,-0.01,0.01,0.0,-9.942211909219623e-05,9.444942406844348e-05,0.0,1000,1000,1000,1000,12600,0,0.0027221243362873793,0.003016339847818017,0.0031026387587189674,10,{}
normal_corridor_base_9,0,none,64359,0.0011643841862678528,0.0009647234110161662,-0.0935746431350708,-35.3632622,149.1652375,-0.006,-0.01,0.01,0.0,-9.942214819602668e-05,9.444943134440109e-05,0.0,1000,1000,1000,1000,12600,0,0.0028825874906033278,0.00287686032243073,0.002806844422593713,10,{}
normal_corridor_base_9,0,none,64609,0.0011742374626919627,0.0009671474690549076,-0.09366049617528915,-35.3632622,149.1652375,-0.006,-0.01,0.01,0.0,-9.942217002389953e-05,9.444946044823155e-05,0.0,1000,1000,1000,1000,12600,0,0.002824182389304042,0.0028840594459325075,0.0029115660581737757,10,{}
normal_corridor_base_9,0,none,64859,0.0011716042645275593,0.0009586861706338823,-0.09374558180570602,-35.3632621,149.1652375,-0.006,-0.01,0.01,0.0,-9.942219912772998e-05,9.444946772418916e-05,0.0,1000,1000,1000,1000,12600,0,0.0028020250611007214,0.0029560797847807407,0.0029144000727683306,10,{}
normal_corridor_base_9,0,none,65109,0.0011645675403997302,0.0009521180763840675,-0.09383203834295273,-35.3632621,149.1652375,-0.006,-0.01,0.01,0.0,-9.942217729985714e-05,9.444945317227393e-05,0.0,1000,1000,1000,1000,12600,0,0.002846860559657216,0.0030448264442384243,0.0027191070839762688,10,{}
normal_corridor_base_9,0,none,65359,0.0011631917441263795,0.0009598119067959487,-0.09391213208436966,-35.3632622,149.1652375,-0.006,-0.01,0.01,0.0,-9.942219185177237e-05,9.444947500014678e-05,0.0,1000,1000,1000,1000,12600,0,0.0028156533371657133,0.002865562215447426,0.0028732996433973312,10,{}
normal_corridor_base_9,0,none,65609,0.0011656945571303368,0.0009660765063017607,-0.09399912506341934,-35.3632622,149.1652375,-0.006,-0.01,0.01,0.0,-9.942219912772998e-05,9.4449489552062e-05,0.0,1000,1000,1000,1000,12600,0,0.0026665946934372187,0.002545934170484543,0.002667010063305497,10,{}
normal_corridor_base_9,0,none,65859,0.0011626722989603877,0.0009607851970940828,-0.09408099204301834,-35.3632621,149.1652375,-0.006,-0.01,0.01,0.0,-9.942219912772998e-05,9.4449489552062e-05,0.0,1000,1000,1000,1000,12600,0,0.0026679912116378546,0.0029578441753983498,0.002627108246088028,10,{}
normal_corridor_base_9,0,none,66109,0.0011652786051854491,0.0009615044109523296,-0.09416186809539795,-35.3632621,149.1652375,-0.006,-0.01,0.01,0.0,-9.942219185177237e-05,9.4449489552062e-05,0.0,1000,1000,1000,1000,12600,0,0.002651833463460207,0.002939603989943862,0.002944599138572812,10,{}
normal_corridor_base_9,0,none,66359,0.0011716493172571063,0.0009616982424631715,-0.0942365825176239,-35.3632621,149.1652375,-0.006,-0.01,0.01,0.0,-9.942219912772998e-05,9.444951137993485e-05,0.0,1000,1000,1000,1000,12600,0,0.0028581684455275536,0.002851201221346855,0.0026736941654235125,10,{}
normal_corridor_base_9,0,none,66609,0.0011715091532096267,0.0009742812835611403,-0.09432173520326614,-35.3632622,149.1652375,-0.006,-0.01,0.01,0.0,-9.942217729985714e-05,9.444947500014678e-05,0.0,1000,1000,1000,1000,12600,0,0.0029005699325352907,0.0027807378210127354,0.002708904445171356,10,{}
normal_corridor_base_9,0,none,66859,0.001172133139334619,0.0009718957007862628,-0.09439142793416977,-35.3632621,149.1652375,-0.006,-0.01,0.01,0.0,-9.942214819602668e-05,9.444947500014678e-05,0.0,1000,1000,1000,1000,12600,0,0.0024763979017734528,0.0028172589372843504,0.002990212058648467,10,{}
normal_corridor_base_9,0,none,67109,0.001171556068584323,0.000970413675531745,-0.09445430338382721,-35.3632621,149.1652375,-0.006,-0.01,0.01,0.0,-9.94221554719843e-05,9.444950410397723e-05,0.0,1000,1000,1000,1000,12600,0,0.0029315960127860308,0.002608770038932562,0.0031276470981538296,10,{}
normal_corridor_base_9,0,none,67359,0.0011740743648260832,0.0009744778508320451,-0.0945136770606041,-35.3632622,149.1652375,-0.006,-0.01,0.01,0.0,-9.942217002389953e-05,9.444951137993485e-05,0.0,1000,1000,1000,1000,12600,0,0.0030050098430365324,0.0028587067499756813,0.0028557695914059877,10,{}
normal_corridor_base_9,0,none,67609,0.0011759717017412186,0.0009822900174185634,-0.09459088742733002,-35.3632622,149.1652375,-0.006,-0.01,0.01,0.0,-9.94222064036876e-05,9.4449489552062e-05,0.0,1000,1000,1000,1000,12600,0,0.0025982896331697702,0.002940783742815256,0.002750343643128872,10,{}
normal_corridor_base_9,0,none,67859,0.001177049707621336,0.000982400611974299,-0.09466646611690521,-35.3632622,149.1652375,-0.006,-0.01,0.01,0.0,-9.942216274794191e-05,9.4449489552062e-05,0.0,1000,1000,1000,1000,12600,0,0.002685612067580223,0.0029180345591157675,0.0028259065002202988,10,{}
normal_corridor_base_9,0,none,68109,0.0011777249164879322,0.0009811946656554937,-0.09473525732755661,-35.3632622,149.1652375,-0.006,-0.01,0.01,0.0,-9.942214092006907e-05,9.444949682801962e-05,0.0,1000,1000,1000,1000,12600,0,0.003075391985476017,0.0026856856420636177,0.0024714276660233736,10,{}
normal_corridor_base_9,0,none,68359,0.0011827886337414384,0.0009911633096635342,-0.09480980038642883,-35.3632622,149.1652375,-0.006,-0.01,0.01,0.0,-9.942214092006907e-05,9.444946044823155e-05,0.0,1000,1000,1000,1000,12600,0,0.002987128449603915,0.002749452367424965,0.002868725685402751,10,{}
normal_corridor_base_9,0,none,68609,0.0011901033576577902,0.0009955057175830007,-0.09488175809383392,-35.3632622,149.1652375,-0.006,-0.01,0.01,0.0,-9.942213364411145e-05,9.44494386203587e-05,0.0,1000,1000,1000,1000,12600,0,0.0027335314080119133,0.0030491549987345934,0.002974350471049547,10,{}
normal_corridor_base_9,0,none,68859,0.0011928011663258076,0.0009890219662338495,-0.09495220333337784,-35.3632622,149.1652375,-0.006,-0.01,0.01,0.0,-9.942213364411145e-05,9.44493876886554e-05,0.0,1000,1000,1000,1000,12600,0,0.002812271239235997,0.002663548570126295,0.00277336104772985,10,{}
