flight_id,label,attack_type,timestamp,att_roll,att_pitch,att_yaw,pos_lat,pos_lon,pos_alt_rel,pos_vx,pos_vy,pos_vz,nav_roll,nav_pitch,nav_alt_error,servo1_raw,servo2_raw,servo3_raw,servo4_raw,sys_voltage_battery,sys_load,vib_x,vib_y,vib_z,gps_sats_visible,attack_params_json
normal_corridor_base_15,0,none,10161,0.00019056114251725376,-4.064646054757759e-05,-0.3456111252307892,-35.3632621,149.1652374,0.0,0.0,0.0,-0.03,-9.942173346644267e-05,9.444946044823155e-05,0.0,1000,1000,1000,1000,12600,0,0.0027939281426370144,0.0026940754614770412,0.0027540847659111023,3,{}
normal_corridor_base_15,0,none,10494,0.00019928294932469726,-2.914509423135314e-05,-0.3101523220539093,-35.3632621,149.1652374,0.0,0.0,0.0,-0.03,-9.942168253473938e-05,9.444936586078256e-05,0.0,1000,1000,1000,1000,12600,0,0.0025260313414037228,0.002817244501784444,0.0028619610238820314,10,{}
normal_corridor_base_15,0,none,10827,0.00020186927577015013,-2.1171803382458165e-05,-0.2808872163295746,-35.3632621,149.1652374,0.0,0.0,0.0,-0.03,-9.942168253473938e-05,9.444936586078256e-05,0.0,1000,1000,1000,1000,12600,0,0.0027422753628343344,0.002608797512948513,0.002930296352133155,10,{}
normal_corridor_base_15,0,none,11162,0.00020452092576306313,-1.3458757166517898e-05,-0.2552383840084076,-35.3632621,149.1652374,0.0,0.0,0.0,-0.03,-9.942165343090892e-05,9.444937313674018e-05,0.0,1000,1000,1000,1000,12600,0,0.002913700882345438,0.0028054204303771257,0.0028272042982280254,10,{}
normal_corridor_base_15,0,none,11494,0.00020916124049108475,-7.137472266549594e-07,-0.22367575764656067,-35.3632621,149.1652374,0.0,0.0,0.0,-0.03,-9.9421595223248e-05,9.444938041269779e-05,0.0,1000,1000,1000,1000,12600,0,0.0030466816388070583,0.002777963411062956,0.003103298367932439,10,{}
normal_corridor_base_15,0,none,11826,0.00021906376059632748,3.3489009183540475e-06,-0.20254863798618317,-35.3632621,149.1652374,0.0,0.0,0.0,-0.03,-9.9421595223248e-05,9.444938041269779e-05,0.0,1000,1000,1000,1000,12600,0,0.0029908092692494392,0.0026224576868116856,0.0026471104938536882,10,{}
normal_corridor_base_15,0,none,12159,0.0002213509287685156,1.57468984980369e-05,-0.18378125131130219,-35.3632621,149.1652374,0.0,0.0,0.0,-0.02,-9.942157339537516e-05,9.444939496461302e-05,0.0,1000,1000,1000,1000,12600,0,0.002747557358816266,0.0028366027399897575,0.0029941729735583067,10,{}
normal_corridor_base_15,0,none,12494,0.00023159933334682137,2.459919596731197e-05,-0.1618395298719406,-35.3632621,149.1652374,0.0,0.0,0.0,-0.02,-9.942166798282415e-05,9.444940951652825e-05,0.0,1000,1000,1000,1000,12600,0,0.002835493767634034,0.0029703767504543066,0.0027776190545409918,10,{}
normal_corridor_base_15,0,none,12826,0.0002375149924773723,3.540020770742558e-05,-0.14747124910354614,-35.3632621,149.1652374,0.0,0.0,0.0,-0.02,-9.942166798282415e-05,9.444940951652825e-05,0.0,1000,1000,1000,1000,12600,0,0.0027769096195697784,0.0028373217210173607,0.0029244364704936743,10,{}
normal_corridor_base_15,0,none,13159,0.000244756112806499,3.715121420100331e-05,-0.1347217559814453,-35.3632621,149.1652374,0.0,0.0,0.0,-0.02,-9.94216461549513e-05,9.444936586078256e-05,0.0,1000,1000,1000,1000,12600,0,0.002730912994593382,0.00274717272259295,0.0028096491005271673,10,{}
normal_corridor_base_15,0,none,13492,0.00025733470101840794,4.6019114961382e-05,-0.12010388821363449,-35.3632621,149.1652374,0.0,0.0,0.0,-0.01,-9.942163887899369e-05,9.444939496461302e-05,0.0,1000,1000,1000,1000,12600,0,0.002712341956794262,0.002647372195497155,0.002939667087048292,10,{}
normal_corridor_base_15,0,none,13824,0.0002676074218470603,5.635854176944122e-05,-0.11068544536828995,-35.3632621,149.1652374,0.0,0.0,0.0,-0.01,-9.942163887899369e-05,9.444939496461302e-05,0.0,1000,1000,1000,1000,12600,0,0.0026997781824320555,0.002460889285430312,0.0025469926185905933,10,{}
normal_corridor_base_15,0,none,14159,0.0002750020066741854,6.465279875556007e-05,-0.10242626816034317,-35.3632621,149.1652374,0.0,0.0,0.0,-0.01,-9.942155884345993e-05,9.444938041269779e-05,0.0,1000,1000,1000,1000,12600,0,0.002488995436578989,0.0026442345697432756,0.0027457328978925943,10,{}
normal_corridor_base_15,0,none,14491,0.000286590977339074,7.790939707774669e-05,-0.09301593899726868,-35.3632621,149.1652374,0.0,0.0,0.0,-0.01,-9.942151518771425e-05,9.444933675695211e-05,0.0,1000,1000,1000,1000,12600,0,0.0026647960767149925,0.002933663781732321,0.0023712266702204943,10,{}
normal_corridor_base_15,0,none,14824,0.00030153902480378747,9.061956370715052e-05,-0.08698159456253052,-35.3632621,149.1652374,0.0,0.0,0.0,-0.01,-9.942151518771425e-05,9.444933675695211e-05,0.0,1000,1000,1000,1000,12600,0,0.0029298390727490187,0.0026847822591662407,0.0027835641521960497,10,{}
normal_corridor_base_15,0,none,15352,0.0003202961233910173,0.00010656270023901016,-0.07727712392807007,-35.3632621,149.1652374,0.0,0.0,0.0,-0.01,-9.942147153196856e-05,9.444930037716404e-05,0.0,1000,1000,1000,1000,12600,0,0.0026634512469172478,0.002641767030581832,0.002657969482243061,10,{}
normal_corridor_base_15,0,none,15602,0.0003311962354928255,0.0001118296422646381,-0.07388365268707275,-35.3632621,149.1652374,0.0,0.0,0.0,-0.01,-9.942150063579902e-05,9.444935130886734e-05,0.0,1000,1000,1000,1000,12600,0,0.0026634512469172478,0.002641767030581832,0.002657969482243061,10,{}
normal_corridor_base_15,0,none,16149,0.0003452042583376169,0.00012997495650779456,-0.06826519221067429,-35.3632621,149.1652374,0.0,0.0,0.0,0.0,-9.942147880792618e-05,9.444936586078256e-05,0.0,1000,1000,1000,1000,12600,0,0.002869691699743271,0.002785970689728856,0.002647893503308296,10,{}
normal_corridor_base_15,0,none,16481,0.00035768208908848464,0.0001367934310110286,-0.06533887982368469,-35.3632621,149.1652374,0.0,0.0,0.0,0.0,-9.942150791175663e-05,9.444938041269779e-05,0.0,1000,1000,1000,1000,12600,0,0.0031085845548659563,0.002815792104229331,0.0027286061085760593,10,{}
normal_corridor_base_15,0,none,16814,0.0003719880187418312,0.00015009797061793506,-0.06302894651889801,-35.3632621,149.1652374,0.0,0.0,0.0,0.0,-9.942150063579902e-05,9.444938041269779e-05,0.0,1000,1000,1000,1000,12600,0,0.003117138985544443,0.0025906378868967295,0.002622335683554411,10,{}
normal_corridor_base_15,0,none,17147,0.00038778435555286705,0.00015866705507505685,-0.06043233349919319,-35.3632621,149.1652374,0.0,0.0,0.0,0.0,-9.94214933598414e-05,9.444936586078256e-05,0.0,1000,1000,1000,1000,12600,0,0.002925122855231166,0.002977222204208374,0.0028551104478538036,10,{}
normal_corridor_base_15,0,none,17479,0.00039655520231463015,0.00017167162150144577,-0.05884464457631111,-35.3632621,149.1652374,0.0,0.0,0.0,0.0,-9.9421595223248e-05,9.444939496461302e-05,0.0,1000,1000,1000,1000,12600,0,0.002925122855231166,0.002977222204208374,0.0028551104478538036,10,{}
normal_corridor_base_15,0,none,17812,0.00041082478128373623,0.00018243465456180274,-0.057498201727867126,-35.3632621,149.1652374,0.0,0.0,0.0,0.0,-9.942161705112085e-05,9.444938041269779e-05,0.0,1000,1000,1000,1000,12600,0,0.002813376486301422,0.002734652953222394,0.002848271979019046,10,{}
normal_corridor_base_15,0,none,18146,0.0004237012763042003,0.00020248665532562882,-0.05605141818523407,-35.3632621,149.1652374,0.0,0.0,0.0,0.0,-9.942168253473938e-05,9.444936586078256e-05,0.0,1000,1000,1000,1000,12600,0,0.0028687024023383856,0.002913461998105049,0.0028434577398002148,10,{}
normal_corridor_base_15,0,none,18479,0.0004397552693262696,0.00021246935648377985,-0.055177781730890274,-35.3632621,149.1652374,0.0,0.0,0.0,0.0,-9.942166070686653e-05,9.444932948099449e-05,0.0,1000,1000,1000,1000,12600,0,0.0027483231388032436,0.002818649634718895,0.002793333027511835,10,{}
normal_corridor_base_15,0,none,18811,0.0004491412255447358,0.000230445948545821,-0.054499268531799316,-35.3632621,149.1652374,0.0,0.0,0.0,0.0,-9.942166070686653e-05,9.444932948099449e-05,0.0,1000,1000,1000,1000,12600,0,0.0025876136496663094,0.0029279927257448435,0.002957734279334545,10,{}
normal_corridor_base_15,0,none,19144,0.00047433481086045504,0.0002467806334607303,-0.05379261076450348,-35.3632621,149.1652374,0.0,0.0,0.0,0.0,-9.942160977516323e-05,9.444930037716404e-05,0.0,1000,1000,1000,1000,12600,0,0.002822532784193754,0.0031989060807973146,0.0027237890753895044,10,{}
normal_corridor_base_15,0,none,19477,0.0004859729087911546,0.00025715873925946653,-0.053426142781972885,-35.3632621,149.1652374,0.0,0.0,0.0,0.0,-9.9421595223248e-05,9.444934403290972e-05,0.0,1000,1000,1000,1000,12600,0,0.0029648789204657078,0.0028744027949869633,0.0030522013548761606,10,{}
normal_corridor_base_15,0,none,19812,0.0005029437015764415,0.00027257486362941563,-0.053125347942113876,-35.3632621,149.1652374,0.0,0.0,0.0,0.0,-9.9421595223248e-05,9.444934403290972e-05,0.0,1000,1000,1000,1000,12600,0,0.0030297685880213976,0.002570393029600382,0.002736372407525778,10,{}
normal_corridor_base_15,0,none,20144,0.000529106124304235,0.00029386801179498434,-0.052707232534885406,-35.3632621,149.1652374,0.005,0.0,0.0,0.0,-9.942167525878176e-05,9.444936586078256e-05,0.0,1000,1000,1000,1000,12600,0,0.002777251647785306,0.0028168177232146263,0.002855010097846389,10,{}
normal_corridor_base_15,0,none,20476,0.0005431040190160275,0.0003094944986514747,-0.052647631615400314,-35.3632621,149.1652374,-0.008,0.0,0.0,0.0,-9.942170436261222e-05,9.444939496461302e-05,0.0,1000,1000,1000,1000,12600,0,0.0026708594523370266,0.0027365731075406075,0.0025666584260761738,10,{}
normal_corridor_base_15,0,none,20809,0.000556965300347656,0.00032343904604204,-0.05270165577530861,-35.3632621,149.1652374,-0.007,0.0,0.0,0.0,-9.942170436261222e-05,9.444939496461302e-05,0.0,1000,1000,1000,1000,12600,0,0.0027128630317747593,0.00275260116904974,0.002922274637967348,10,{}
normal_corridor_base_15,0,none,21144,0.0005763432127423584,0.00034492090344429016,-0.052826881408691406,-35.3632621,149.1652374,-0.006,0.0,0.0,0.0,-9.94217480183579e-05,9.444938041269779e-05,0.0,1000,1000,1000,1000,12600,0,0.002956685144454241,0.002823194023221731,0.0032196524553000927,10,{}
normal_corridor_base_15,0,none,21477,0.0005919696995988488,0.00036033650394529104,-0.05302324518561363,-35.3632621,149.1652374,-0.004,0.0,0.0,0.0,-9.942176984623075e-05,9.444939496461302e-05,0.0,1000,1000,1000,1000,12600,0,0.002890091622248292,0.0027675433084368706,0.0030526218470185995,10,{}
normal_corridor_base_15,0,none,21809,0.0006125004147179425,0.0003763553104363382,-0.053214896470308304,-35.3632621,149.1652374,-0.003,0.0,0.0,0.0,-9.942176984623075e-05,9.444939496461302e-05,0.0,1000,1000,1000,1000,12600,0,0.00297060189768672,0.002673208946362138,0.0028911097906529903,10,{}
normal_corridor_base_15,0,none,22141,0.0006392893265001476,0.0003959342429880053,-0.05356781184673309,-35.3632621,149.1652374,-0.001,0.0,0.01,0.0,-9.942181350197643e-05,9.444936586078256e-05,0.0,1000,1000,1000,1000,12600,0,0.002883666194975376,0.0027696285396814346,0.002870334777981043,10,{}
normal_corridor_base_15,0,none,22474,0.0006540178437717259,0.00041644947486929595,-0.05386682227253914,-35.3632621,149.1652374,0.0,0.0,0.01,0.0,-9.942189353751019e-05,9.444946044823155e-05,0.0,1000,1000,1000,1000,12600,0,0.002719941083341837,0.002679897705093026,0.002749459119513631,10,{}
normal_corridor_base_15,0,none,22809,0.0006732146139256656,0.0004374083655420691,-0.05419682338833809,-35.3632621,149.1652374,0.0,0.0,0.01,0.0,-9.942189353751019e-05,9.444946044823155e-05,0.0,1000,1000,1000,1000,12600,0,0.002616927260532975,0.002546081319451332,0.0026466292329132557,10,{}
normal_corridor_base_15,0,none,23141,0.0006973366835154593,0.00046162892249412835,-0.05468560382723808,-35.3632621,149.1652374,0.001,-0.01,0.01,0.0,-9.942198084900156e-05,9.444947500014678e-05,0.0,1000,1000,1000,1000,12600,0,0.002961552469059825,0.0027117689605802298,0.0028542662039399147,10,{}
normal_corridor_base_15,0,none,23474,0.0007103094249032438,0.00048004722339101136,-0.05511917546391487,-35.3632621,149.1652374,0.001,-0.01,0.01,0.0,-9.942186443367973e-05,9.444940951652825e-05,0.0,1000,1000,1000,1000,12600,0,0.0026351173873990774,0.0027168297674506903,0.0027898522093892097,10,{}
normal_corridor_base_15,0,none,23807,0.0007244780426844954,0.0004938898491673172,-0.055494386702775955,-35.3632621,149.1652374,0.002,-0.01,0.01,0.0,-9.942186443367973e-05,9.444940951652825e-05,0.0,1000,1000,1000,1000,12600,0,0.0026799228508025408,0.002878708764910698,0.0027440476696938276,10,{}
normal_corridor_base_15,0,none,24139,0.0007440989138558507,0.0005186352063901722,-0.05607271566987038,-35.3632621,149.1652374,0.002,-0.01,0.01,0.0,-9.942180622601882e-05,9.444938041269779e-05,0.0,1000,1000,1000,1000,12600,0,0.00265709706582129,0.0029652612283825874,0.0025492659769952297,10,{}
normal_corridor_base_15,0,none,24474,0.000757518457248807,0.0005332089494913816,-0.05650322139263153,-35.3632621,149.1652374,0.002,-0.01,0.01,0.0,-9.942188626155257e-05,9.444942406844348e-05,0.0,1000,1000,1000,1000,12600,0,0.002542806090787053,0.002689962973818183,0.0028005640488117933,10,{}
normal_corridor_base_15,0,none,24806,0.0007729573408141732,0.0005489327013492584,-0.056935206055641174,-35.3632621,149.1652374,0.002,-0.01,0.01,0.0,-9.942188626155257e-05,9.444942406844348e-05,0.0,1000,1000,1000,1000,12600,0,0.002880706684663892,0.0029543929267674685,0.002611742354929447,10,{}
normal_corridor_base_15,0,none,25139,0.000792179664131254,0.0005718169850297272,-0.05754745379090309,-35.3632621,149.1652374,0.003,-0.01,0.01,0.0,-9.942192991729826e-05,9.444950410397723e-05,0.0,1000,1000,1000,1000,12600,0,0.0028070281259715557,0.002770772436633706,0.002535640960559249,10,{}
normal_corridor_base_15,0,none,25472,0.0008050098549574614,0.0005822685197927058,-0.05801624059677124,-35.3632621,149.1652374,0.003,-0.01,0.01,0.0,-9.942192991729826e-05,9.44495404837653e-05,0.0,1000,1000,1000,1000,12600,0,0.002835930557921529,0.0029262432362884283,0.003102895338088274,10,{}
normal_corridor_base_15,0,none,25804,0.0008212842512875795,0.0006005535833537579,-0.058327220380306244,-35.3632621,149.1652374,0.002,-0.01,0.01,0.0,-9.942192991729826e-05,9.44495404837653e-05,0.0,1000,1000,1000,1000,12600,0,0.0028715438675135374,0.003148072399199009,0.00297519750893116,10,{}
normal_corridor_base_15,0,none,26137,0.0008427358116023242,0.0006202777149155736,-0.058977529406547546,-35.3632621,149.1652374,0.002,-0.01,0.01,0.0,-9.942189353751019e-05,9.444950410397723e-05,0.0,1000,1000,1000,1000,12600,0,0.0029636493418365717,0.0026444201357662678,0.0031897746957838535,10,{}
normal_corridor_base_15,0,none,26471,0.0008553658844903111,0.0006237260531634092,-0.059471625834703445,-35.3632621,149.1652374,0.002,-0.01,0.01,0.0,-9.942187898559496e-05,9.444942406844348e-05,0.0,1000,1000,1000,1000,12600,0,0.0027890761848539114,0.002851964673027396,0.002925232984125614,10,{}
normal_corridor_base_15,0,none,26804,0.000869391777087003,0.0006323112174868584,-0.059960994869470596,-35.3632621,149.1652374,0.002,-0.01,0.01,0.0,-9.942187898559496e-05,9.444942406844348e-05,0.0,1000,1000,1000,1000,12600,0,0.002632847288623452,0.002836356870830059,0.0027017949614673853,10,{}
normal_corridor_base_15,0,none,27136,0.0008817272027954459,0.0006489065126515925,-0.06062717363238335,-35.3632621,149.1652374,0.002,-0.01,0.01,0.0,-9.942192991729826e-05,9.444946044823155e-05,0.0,1000,1000,1000,1000,12600,0,0.0029530099127441645,0.003157880390062928,0.002985361497849226,10,{}
normal_corridor_base_15,0,none,27469,0.0008949871407821774,0.0006554226274602115,-0.06113710254430771,-35.3632621,149.1652374,0.002,-0.01,0.01,0.0,-9.942196629708633e-05,9.444949682801962e-05,0.0,1000,1000,1000,1000,12600,0,0.0024992842227220535,0.0027949681971222162,0.002902829088270664,10,{}
normal_corridor_base_15,0,none,27802,0.0009071145905181766,0.0006650168797932565,-0.06164029240608215,-35.3632621,149.1652374,0.001,-0.01,0.01,0.0,-9.942196629708633e-05,9.444949682801962e-05,0.0,1000,1000,1000,1000,12600,0,0.003124915063381195,0.0025602406822144985,0.0031381547451019287,10,{}
normal_corridor_base_15,0,none,28137,0.0009195992606692016,0.0006856750696897507,-0.062281325459480286,-35.3632621,149.1652374,0.001,-0.01,0.01,0.0,-9.94220026768744e-05,9.44495404837653e-05,0.0,1000,1000,1000,1000,12600,0,0.0028579430654644966,0.0030621737241744995,0.0029086878057569265,10,{}
normal_corridor_base_15,0,none,28469,0.0009324635611847043,0.0006954546552151442,-0.0627983883023262,-35.3632621,149.1652374,0.001,-0.01,0.01,0.0,-9.942203905666247e-05,9.444956958759576e-05,0.0,1000,1000,1000,1000,12600,0,0.002826671116054058,0.002728068735450506,0.0026650598738342524,10,{}
normal_corridor_base_15,0,none,28801,0.0009437527623958886,0.0007090677390806377,-0.06326936930418015,-35.3632621,149.1652374,0.0,-0.01,0.01,0.0,-9.942203905666247e-05,9.444956958759576e-05,0.0,1000,1000,1000,1000,12600,0,0.0030941518489271402,0.002677106996998191,0.0029725325293838978,10,{}
normal_corridor_base_15,0,none,29134,0.0009575420408509672,0.0007309800130315125,-0.0639103576540947,-35.3632621,149.1652374,0.0,-0.01,0.01,0.0,-9.942216274794191e-05,9.444965689908713e-05,0.0,1000,1000,1000,1000,12600,0,0.002733001485466957,0.0028473599813878536,0.002514402149245143,10,{}
normal_corridor_base_15,0,none,29469,0.0009725990239530802,0.0007392785628326237,-0.06437497586011887,-35.3632621,149.1652374,0.0,-0.01,0.01,0.0,-9.94222573353909e-05,9.44496932788752e-05,0.0,1000,1000,1000,1000,12600,0,0.002832005964592099,0.0024587204679846764,0.0028660702519118786,10,{}
normal_corridor_base_15,0,none,29802,0.0009792846394702792,0.0007484782254323363,-0.06486914306879044,-35.3632621,149.1652374,0.0,-0.01,0.02,0.0,-9.94222573353909e-05,9.44496932788752e-05,0.0,1000,1000,1000,1000,12600,0,0.002982781734317541,0.003051755018532276,0.0027501326985657215,10,{}
normal_corridor_base_15,0,none,30352,0.0009988810634240508,0.0007762580644339323,-0.06582269817590714,-35.3632621,149.1652374,-0.001,-0.01,0.02,0.0,-9.942236647475511e-05,9.444976603845134e-05,0.0,1000,1000,1000,1000,12600,0,0.002863999456167221,0.0028325964231044054,0.0028451350517570972,10,{}
normal_corridor_base_15,0,none,30604,0.0010017617605626583,0.0007823802880011499,-0.06613189727067947,-35.3632621,149.1652374,-0.001,-0.01,0.02,0.0,-9.942238102667034e-05,9.44497951422818e-05,0.0,1000,1000,1000,1000,12600,0,0.002863999456167221,0.0028325964231044054,0.0028451350517570972,10,{}
normal_corridor_base_15,0,none,30854,0.0010098529746755958,0.0007876405143178999,-0.06643544882535934,-35.3632621,149.1652374,-0.001,-0.01,0.02,0.0,-9.942244651028886e-05,9.444986062590033e-05,0.0,1000,1000,1000,1000,12600,0,0.002649520756676793,0.002705460647121072,0.0029449232388287783,10,{}
normal_corridor_base_15,0,none,31104,0.001018388895317912,0.0007968305144459009,-0.06689014285802841,-35.3632621,149.1652374,-0.002,-0.01,0.02,0.0,-9.942250471794978e-05,9.444988972973078e-05,0.0,1000,1000,1000,1000,12600,0,0.0026380515191704035,0.0026918735820800066,0.0029353960417211056,10,{}
normal_corridor_base_15,0,none,31354,0.0010264568263664842,0.0007993228500708938,-0.06719537079334259,-35.3632621,149.1652374,-0.002,-0.01,0.02,0.0,-9.942250471794978e-05,9.444991883356124e-05,0.0,1000,1000,1000,1000,12600,0,0.002714283997192979,0.0029571945779025555,0.0028449641540646553,10,{}
normal_corridor_base_15,0,none,31602,0.0010371590033173561,0.0008066543960012496,-0.0676395446062088,-35.3632621,149.1652374,-0.002,-0.01,0.02,0.0,-9.942253382178023e-05,9.444995521334931e-05,0.0,1000,1000,1000,1000,12600,0,0.002714283997192979,0.0029571945779025555,0.0028449641540646553,10,{}
normal_corridor_base_15,0,none,31852,0.0010440972400829196,0.0008106682798825204,-0.06786665320396423,-35.3632621,149.1652374,-0.003,-0.01,0.02,0.0,-9.942251199390739e-05,9.444992610951886e-05,0.0,1000,1000,1000,1000,12600,0,0.002511002356186509,0.0030110222287476063,0.0027679309714585543,10,{}
normal_corridor_base_15,0,none,32102,0.0010442014317959547,0.0008120189304463565,-0.06830711662769318,-35.3632621,149.1652374,-0.003,-0.01,0.02,0.0,-9.942249016603455e-05,9.444988972973078e-05,0.0,1000,1000,1000,1000,12600,0,0.0027977796271443367,0.0030397914815694094,0.0029967084992676973,10,{}
normal_corridor_base_15,0,none,32352,0.0010536424815654755,0.0008186449995264411,-0.06859773397445679,-35.3632621,149.1652374,-0.003,-0.01,0.02,0.0,-9.942246833816171e-05,9.444992610951886e-05,0.0,1000,1000,1000,1000,12600,0,0.002863110275939107,0.0027915379032492638,0.0026584479492157698,10,{}
normal_corridor_base_15,0,none,32604,0.0010636663064360619,0.0008261461043730378,-0.06905408203601837,-35.3632621,149.1652374,-0.003,-0.01,0.02,0.0,-9.942246833816171e-05,9.444995521334931e-05,0.0,1000,1000,1000,1000,12600,0,0.002863110275939107,0.0027915379032492638,0.0026584479492157698,10,{}
normal_corridor_base_15,0,none,32854,0.00106707657687366,0.0008353503653779626,-0.06933476775884628,-35.3632621,149.1652374,-0.004,-0.01,0.02,0.0,-9.942256292561069e-05,9.444998431717977e-05,0.0,1000,1000,1000,1000,12600,0,0.0026581736747175455,0.002630493836477399,0.002727014711126685,10,{}
normal_corridor_base_15,0,none,33104,0.0010736108524724841,0.0008481483091600239,-0.06976573914289474,-35.3632621,149.1652374,-0.004,-0.01,0.02,0.0,-9.942256292561069e-05,9.444998431717977e-05,0.0,1000,1000,1000,1000,12600,0,0.0028711387421935797,0.003030645428225398,0.0027387612499296665,10,{}
normal_corridor_base_15,0,none,33661,0.0010989991715177894,0.0008655918063595891,-0.07048159092664719,-35.3632621,149.1652374,-0.004,-0.01,0.02,0.0,-9.942254837369546e-05,9.444994066143408e-05,0.0,1000,1000,1000,1000,12600,0,0.0027143708430230618,0.0029728806111961603,0.00275063281878829,10,{}
normal_corridor_base_15,0,none,33994,0.0011143560986965895,0.0008786945254541934,-0.07104712724685669,-35.3632621,149.1652374,-0.004,-0.02,0.02,0.0,-9.942251199390739e-05,9.444994066143408e-05,0.0,1000,1000,1000,1000,12600,0,0.002653435803949833,0.0028827106580138206,0.0026973204221576452,10,{}
normal_corridor_base_15,0,none,34327,0.0011192981619387865,0.0008878184598870575,-0.07144736498594284,-35.3632621,149.1652374,-0.005,-0.02,0.02,0.0,-9.942247561411932e-05,9.445000614505261e-05,0.0,1000,1000,1000,1000,12600,0,0.0030953658279031515,0.0025800385046750307,0.002984061371535063,10,{}
normal_corridor_base_15,0,none,34659,0.0011324799852445722,0.0008984331507235765,-0.07185367494821548,-35.3632621,149.1652374,-0.005,-0.02,0.02,0.0,-9.942247561411932e-05,9.445000614505261e-05,0.0,1000,1000,1000,1000,12600,0,0.002454425673931837,0.002770389895886183,0.0029675813857465982,10,{}
normal_corridor_base_15,0,none,34994,0.0011486425064504147,0.0009158126194961369,-0.07238441705703735,-35.3632621,149.1652374,-0.005,-0.02,0.02,0.0,-9.942237375071272e-05,9.444995521334931e-05,0.0,1000,1000,1000,1000,12600,0,0.0027670017443597317,0.0031054511200636625,0.002719082171097398,10,{}
normal_corridor_base_15,0,none,35326,0.0011479636887088418,0.0009291230235248804,-0.07278509438037872,-35.3632621,149.1652374,-0.005,-0.02,0.02,0.0,-9.942233009496704e-05,9.44499479373917e-05,0.0,1000,1000,1000,1000,12600,0,0.0028711927589029074,0.0027556964196264744,0.002649603644385934,10,{}
normal_corridor_base_15,0,none,35659,0.0011599287390708923,0.0009326562867499888,-0.07317168265581131,-35.3632621,149.1652374,-0.005,-0.02,0.02,0.0,-9.942233009496704e-05,9.44499479373917e-05,0.0,1000,1000,1000,1000,12600,0,0.002792591694742441,0.0028515132144093513,0.0027013965882360935,10,{}
normal_corridor_base_15,0,none,35992,0.0011657706927508116,0.0009355523507110775,-0.07365868240594864,-35.3632621,149.1652374,-0.005,-0.02,0.02,0.0,-9.942234464688227e-05,9.444992610951886e-05,0.0,1000,1000,1000,1000,12600,0,0.002715788083150983,0.002569303847849369,0.0026847932022064924,10,{}
normal_corridor_base_15,0,none,36324,0.0011722666677087545,0.000950563873630017,-0.07399406284093857,-35.3632621,149.1652374,-0.005,-0.02,0.02,0.0,-9.942230099113658e-05,9.444991883356124e-05,0.0,1000,1000,1000,1000,12600,0,0.0031034245621412992,0.002625797875225544,0.0029383159708231688,10,{}
normal_corridor_base_15,0,none,36659,0.001180055900476873,0.0009639478521421552,-0.0743873193860054,-35.3632621,149.1652374,-0.005,-0.02,0.02,0.0,-9.942230099113658e-05,9.444991883356124e-05,0.0,1000,1000,1000,1000,12600,0,0.0028594215400516987,0.0026512318290770054,0.0026068578008562326,10,{}
normal_corridor_base_15,0,none,36991,0.0011929968604817986,0.0009830571943894029,-0.07486477494239807,-35.3632621,149.1652374,-0.005,-0.02,0.02,0.0,-9.94223082670942e-05,9.44498970056884e-05,0.0,1000,1000,1000,1000,12600,0,0.002569634234532714,0.0027109787333756685,0.002795621519908309,10,{}
normal_corridor_base_15,0,none,37324,0.0012033985694870353,0.0009964805794879794,-0.07523352652788162,-35.3632621,149.1652374,-0.005,-0.02,0.02,0.0,-9.94223591987975e-05,9.444988972973078e-05,0.0,1000,1000,1000,1000,12600,0,0.003000323660671711,0.0027722702361643314,0.0025575142353773117,10,{}
normal_corridor_base_15,0,none,37656,0.0012093237601220608,0.0010059720370918512,-0.07559644430875778,-35.3632621,149.1652374,-0.005,-0.02,0.02,0.0,-9.94223591987975e-05,9.444988972973078e-05,0.0,1000,1000,1000,1000,12600,0,0.003078848123550415,0.0027164642233401537,0.0026366845704615116,10,{}
normal_corridor_base_15,0,none,37989,0.0012127935187891126,0.0010252904612571,-0.07607245445251465,-35.3632621,149.1652374,-0.006,-0.02,0.02,0.0,-9.942233737092465e-05,9.444987517781556e-05,0.0,1000,1000,1000,1000,12600,0,0.002789952326565981,0.0027340645901858807,0.0026909243315458298,10,{}
normal_corridor_base_15,0,none,38322,0.001226867432706058,0.0010366926435381174,-0.07642444223165512,-35.3632621,149.1652374,-0.006,-0.02,0.02,0.0,-9.942234464688227e-05,9.444987517781556e-05,0.0,1000,1000,1000,1000,12600,0,0.0026884491089731455,0.0028317798860371113,0.0029309121891856194,10,{}
normal_corridor_base_15,0,none,38657,0.0012364068534225225,0.0010423912899568677,-0.07677041739225388,-35.3632621,149.1652374,-0.006,-0.02,0.02,0.0,-9.942234464688227e-05,9.444987517781556e-05,0.0,1000,1000,1000,1000,12600,0,0.0027524603065103292,0.0028161921072751284,0.0028359934221953154,10,{}
normal_corridor_base_15,0,none,38989,0.0012486050836741924,0.0010581660317257047,-0.07723888754844666,-35.3632621,149.1652374,-0.006,-0.02,0.02,0.0,-9.942228643922135e-05,9.444986062590033e-05,0.0,1000,1000,1000,1000,12600,0,0.0028194133192300797,0.0029871687293052673,0.002773110056295991,10,{}
normal_corridor_base_15,0,none,39321,0.0012523646000772715,0.0010650141630321741,-0.0775788426399231,-35.3632621,149.1652374,-0.006,-0.02,0.02,0.0,-9.94222573353909e-05,9.444986790185794e-05,0.0,1000,1000,1000,1000,12600,0,0.0030464320443570614,0.0027216426096856594,0.002918335609138012,10,{}
normal_corridor_base_15,0,none,39654,0.0012492459500208497,0.0010742380982264876,-0.07791776955127716,-35.3632621,149.1652374,-0.006,-0.02,0.02,0.0,-9.94222573353909e-05,9.444986790185794e-05,0.0,1000,1000,1000,1000,12600,0,0.0027863909490406513,0.002663904568180442,0.0030051078647375107,10,{}
normal_corridor_base_15,0,none,39987,0.001261608093045652,0.001078000757843256,-0.07834940403699875,-35.3632621,149.1652374,-0.006,-0.02,0.02,0.0,-9.942226461134851e-05,9.444988245377317e-05,0.0,1000,1000,1000,1000,12600,0,0.002866762923076749,0.0029472867026925087,0.0026582996360957623,10,{}
normal_corridor_base_15,0,none,40322,0.0012681642547249794,0.0010859302710741758,-0.078668013215065,-35.3632621,149.1652374,-0.006,-0.02,0.02,0.0,-9.942227188730612e-05,9.444994066143408e-05,0.0,1000,1000,1000,1000,12600,0,0.0027591970283538103,0.0031341116409748793,0.00280176755040884,10,{}
normal_corridor_base_15,0,none,40654,0.0012778658419847488,0.0010921977227553725,-0.0789751186966896,-35.3632621,149.1652374,-0.006,-0.02,0.02,0.0,-9.942227188730612e-05,9.444994066143408e-05,0.0,1000,1000,1000,1000,12600,0,0.0026454960461705923,0.0029426133260130882,0.002823427552357316,10,{}
normal_corridor_base_15,0,none,40986,0.0012844433076679707,0.001099460176192224,-0.07935424149036407,-35.3632621,149.1652374,-0.006,-0.02,0.02,0.0,-9.942226461134851e-05,9.444993338547647e-05,0.0,1000,1000,1000,1000,12600,0,0.0025658481754362583,0.0028039037715643644,0.0027640219777822495,10,{}
normal_corridor_base_15,0,none,41319,0.0012930826051160693,0.0011103583965450525,-0.07965315133333206,-35.3632621,149.1652374,-0.006,-0.02,0.02,0.0,-9.942227188730612e-05,9.444991155760363e-05,0.0,1000,1000,1000,1000,12600,0,0.0026439018547534943,0.0027877045795321465,0.002767479047179222,10,{}
normal_corridor_base_15,0,none,41654,0.0013021783670410514,0.0011229123920202255,-0.07996164262294769,-35.3632621,149.1652374,-0.006,0.0,0.0,0.0,-9.942227188730612e-05,9.444991155760363e-05,0.0,1000,1000,1000,1000,12600,0,0.0029724964406341314,0.002557247644290328,0.0027223138604313135,10,{}
normal_corridor_base_15,0,none,41986,0.0013622831320390105,0.0011851086746901274,-0.0803624838590622,-35.3632621,149.1652374,-0.006,0.0,0.0,0.0,-9.94223082670942e-05,9.444992610951886e-05,0.0,1000,1000,1000,1000,12600,0,0.0031102867797017097,0.0027247238904237747,0.002774158725515008,10,{}
normal_corridor_base_15,0,none,42319,0.0014400522923097014,0.0012612948194146156,-0.08067156374454498,-35.3632621,149.1652374,-0.006,0.0,0.0,0.0,-9.942227916326374e-05,9.444991883356124e-05,0.0,1000,1000,1000,1000,12600,0,0.0028090106789022684,0.0028189567383378744,0.003136680694296956,10,{}
normal_corridor_base_15,0,none,42652,0.0015052263624966145,0.0013276775134727359,-0.08096776157617569,-35.3632621,149.1652374,-0.006,0.0,0.0,0.0,-9.942227916326374e-05,9.444991883356124e-05,0.0,1000,1000,1000,1000,12600,0,0.002833444159477949,0.0026903816033154726,0.0026045639533549547,10,{}
normal_corridor_base_15,0,none,42984,0.0015852911164984107,0.001403544913046062,-0.08137502521276474,-35.3632621,149.1652374,-0.006,0.0,0.01,0.0,-9.942234464688227e-05,9.444993338547647e-05,0.0,1000,1000,1000,1000,12600,0,0.002843651920557022,0.0026935774367302656,0.0028995296452194452,10,{}
normal_corridor_base_15,0,none,43319,0.001629177713766694,0.0014441219391301274,-0.08168962597846985,-35.3632621,149.1652374,-0.006,-0.01,0.01,0.0,-9.942233009496704e-05,9.444988245377317e-05,0.0,1000,1000,1000,1000,12600,0,0.0029139609541743994,0.0028922557830810547,0.002790869912132621,10,{}
normal_corridor_base_15,0,none,43651,0.0016522335354238749,0.0014694242272526026,-0.08199384063482285,-35.3632621,149.1652374,-0.006,-0.01,0.01,0.0,-9.942233009496704e-05,9.444988245377317e-05,0.0,1000,1000,1000,1000,12600,0,0.0027602810878306627,0.0029826092068105936,0.0028264508582651615,10,{}
normal_corridor_base_15,0,none,43984,0.001658027758821845,0.0014752724673599005,-0.0824013352394104,-35.3632621,149.1652374,-0.006,-0.01,0.01,0.0,-9.942236647475511e-05,9.444988245377317e-05,0.0,1000,1000,1000,1000,12600,0,0.0027112604584544897,0.0030658459290862083,0.002641067374497652,10,{}
normal_corridor_base_15,0,none,44317,0.0016404349589720368,0.0014578254194930196,-0.08270412683486938,-35.3632621,149.1652374,-0.006,-0.01,0.01,0.0,-9.942239557858557e-05,9.444988245377317e-05,0.0,1000,1000,1000,1000,12600,0,0.002659029560163617,0.002971433801576495,0.002963273087516427,10,{}
normal_corridor_base_15,0,none,44649,0.0016140562947839499,0.0014248002553358674,-0.08298393338918686,-35.3632621,149.1652375,-0.006,-0.01,0.02,0.0,-9.942239557858557e-05,9.444988245377317e-05,0.0,1000,1000,1000,1000,12600,0,0.002849017269909382,0.002749205334112048,0.0029228581115603447,10,{}
normal_corridor_base_15,0,none,44982,0.0015510452212765813,0.0013676185626536608,-0.08336024731397629,-35.3632621,149.1652375,-0.006,-0.01,0.02,0.0,-9.942233737092465e-05,9.444987517781556e-05,0.0,1000,1000,1000,1000,12600,0,0.0028099899645894766,0.0028231418691575527,0.002796114655211568,10,{}
normal_corridor_base_15,0,none,45354,0.0014804797247052193,0.0012993920827284455,-0.08371040970087051,-35.3632621,149.1652375,-0.006,-0.01,0.02,0.0,-9.942233737092465e-05,9.444987517781556e-05,0.0,1000,1000,1000,1000,12600,0,0.0024922159500420094,0.002703004749491811,0.0029201318975538015,10,{}
normal_corridor_base_15,0,none,45604,0.0014411400770768523,0.0012627006508409977,-0.0839231014251709,-35.3632622,149.1652375,-0.006,-0.01,0.02,0.0,-9.942233737092465e-05,9.444988972973078e-05,0.0,1000,1000,1000,1000,12600,0,0.0024922159500420094,0.002703004749491811,0.0029201318975538015,10,{}
normal_corridor_base_15,0,none,45854,0.0013846403453499079,0.0012035705149173737,-0.08412586897611618,-35.3632622,149.1652375,-0.006,-0.01,0.02,0.0,-9.942232281900942e-05,9.444987517781556e-05,0.0,1000,1000,1000,1000,12600,0,0.0030863878782838583,0.0027566668577492237,0.002908692229539156,10,{}
normal_corridor_base_15,0,none,46104,0.0013428085949271917,0.001158235245384276,-0.08433030545711517,-35.3632622,149.1652375,-0.006,-0.01,0.01,0.0,-9.942230099113658e-05,9.444988245377317e-05,0.0,1000,1000,1000,1000,12600,0,0.002984887221828103,0.0028086963575333357,0.0028126961551606655,10,{}
normal_corridor_base_15,0,none,46352,0.0013025023508816957,0.0011123078875243664,-0.08450182527303696,-35.3632622,149.1652375,-0.006,-0.01,0.01,0.0,-9.942228643922135e-05,9.444988245377317e-05,0.0,1000,1000,1000,1000,12600,0,0.00257099443115294,0.002707461826503277,0.0028636532370001078,10,{}
normal_corridor_base_15,0,none,46602,0.0012772622285410762,0.0010922300862148404,-0.08466111123561859,-35.3632622,149.1652375,-0.006,-0.01,0.01,0.0,-9.942232281900942e-05,9.444991155760363e-05,0.0,1000,1000,1000,1000,12600,0,0.00264216517098248,0.002815608400851488,0.002646306762471795,10,{}
normal_corridor_base_15,0,none,46852,0.0012309965677559376,0.001052438747137785,-0.08486385643482208,-35.3632621,149.1652375,-0.006,-0.01,0.01,0.0,-9.942226461134851e-05,9.444991155760363e-05,0.0,1000,1000,1000,1000,12600,0,0.0029707022476941347,0.002645723056048155,0.0024611451663076878,10,{}
normal_corridor_base_15,0,none,47104,0.0011975904926657677,0.001022713491693139,-0.08504047244787216,-35.3632621,149.1652375,-0.006,-0.01,0.01,0.0,-9.942225005943328e-05,9.444992610951886e-05,0.0,1000,1000,1000,1000,12600,0,0.0028023007325828075,0.002653572941198945,0.002382361562922597,10,{}
normal_corridor_base_15,0,none,47354,0.0011719116009771824,0.001000384334474802,-0.08522963523864746,-35.3632621,149.1652375,-0.006,-0.01,0.01,0.0,-9.942221367964521e-05,9.44498970056884e-05,0.0,1000,1000,1000,1000,12600,0,0.00298507884144783,0.0028518245089799166,0.0027925963513553143,10,{}
normal_corridor_base_15,0,none,47604,0.0011588070774450898,0.000987262581475079,-0.08539555966854095,-35.3632621,149.1652375,-0.006,-0.01,0.01,0.0,-9.942217729985714e-05,9.444986062590033e-05,0.0,1000,1000,1000,1000,12600,0,0.0027651889249682426,0.00278066867031157,0.002833001781255007,10,{}
normal_corridor_base_15,0,none,47854,0.001132429693825543,0.0009647379629313946,-0.08558318018913269,-35.3632621,149.1652375,-0.006,-0.01,0.01,0.0,-9.942214819602668e-05,9.444982424611226e-05,0.0,1000,1000,1000,1000,12600,0,0.0028726437594741583,0.002711338922381401,0.0027382494881749153,10,{}
normal_corridor_base_15,0,none,48104,0.0011169440113008022,0.0009482037858106196,-0.08573798090219498,-35.3632621,149.1652375,-0.006,-0.01,0.01,0.0,-9.942211909219623e-05,9.444982424611226e-05,0.0,1000,1000,1000,1000,12600,0,0.0030948978383094072,0.0027696487959474325,0.002795629668980837,10,{}
normal_corridor_base_15,0,none,48352,0.0011059866519644856,0.0009370085899718106,-0.08592329174280167,-35.3632621,149.1652375,-0.006,-0.01,0.01,0.0,-9.9422104540281e-05,9.444980969419703e-05,0.0,1000,1000,1000,1000,12600,0,0.0026993537321686745,0.0029867307748645544,0.002863135654479265,10,{}
normal_corridor_base_15,0,none,48602,0.001099247019737959,0.0009307488217018545,-0.0860808938741684,-35.3632621,149.1652375,-0.006,-0.01,0.01,0.0,-9.942207543645054e-05,9.444980969419703e-05,0.0,1000,1000,1000,1000,12600,0,0.0028912005946040154,0.0027307234704494476,0.002998277312144637,10,{}
normal_corridor_base_15,0,none,48852,0.0010890064295381308,0.0009223561501130462,-0.08624280244112015,-35.3632621,149.1652375,-0.006,-0.01,0.01,0.0,-9.942206816049293e-05,9.444978786632419e-05,0.0,1000,1000,1000,1000,12600,0,0.002841594396159053,0.003061505500227213,0.0027512952219694853,10,{}
normal_corridor_base_15,0,none,49102,0.0010843920754268765,0.0009158637840300798,-0.08640726655721664,-35.3632621,149.1652375,-0.006,-0.01,0.01,0.0,-9.942202450474724e-05,9.444976603845134e-05,0.0,1000,1000,1000,1000,12600,0,0.0028043596539646387,0.0031085521914064884,0.0027516770642250776,10,{}
normal_corridor_base_15,0,none,49354,0.0010827458463609219,0.0009113935520872474,-0.08656544238328934,-35.3632621,149.1652375,-0.006,-0.01,0.01,0.0,-9.942195902112871e-05,9.444973693462089e-05,0.0,1000,1000,1000,1000,12600,0,0.002732842927798629,0.0026489251758903265,0.002798243658617139,10,{}
normal_corridor_base_15,0,none,49604,0.001083318260498345,0.0009119200403802097,-0.08671832084655762,-35.3632621,149.1652375,-0.006,-0.01,0.01,0.0,-9.942197357304394e-05,9.444972238270566e-05,0.0,1000,1000,1000,1000,12600,0,0.002705017104744911,0.0028584597166627645,0.002694720169529319,10,{}
normal_corridor_base_15,0,none,49854,0.0010778730502352118,0.0009135783184319735,-0.08688031882047653,-35.3632621,149.1652375,-0.006,-0.01,0.01,0.0,-9.942198812495917e-05,9.444972238270566e-05,0.0,1000,1000,1000,1000,12600,0,0.0026668154168874025,0.002837886568158865,0.002634619129821658,10,{}
normal_corridor_base_15,0,none,50104,0.001077523222193122,0.0009146906668320298,-0.08703603595495224,-35.3632621,149.1652375,-0.006,-0.01,0.01,0.0,-9.942198812495917e-05,9.444970055483282e-05,0.0,1000,1000,1000,1000,12600,0,0.0028905768413096666,0.0027850077021867037,0.0027597155421972275,10,{}
normal_corridor_base_15,0,none,50352,0.001080704852938652,0.0009156184969469905,-0.08718600124120712,-35.3632621,149.1652375,-0.006,-0.01,0.01,0.0,-9.94219517451711e-05,9.444964962312952e-05,0.0,1000,1000,1000,1000,12600,0,0.0024053682573139668,0.002637889701873064,0.002970012603327632,10,{}
normal_corridor_base_15,0,none,50602,0.0010835247812792659,0.0009137835004366934,-0.08734474331140518,-35.3632621,149.1652375,-0.006,-0.01,0.01,0.0,-9.942196629708633e-05,9.444961324334145e-05,0.0,1000,1000,1000,1000,12600,0,0.002823560731485486,0.003015998052433133,0.002757385838776827,10,{}
normal_corridor_base_15,0,none,50852,0.001085303258150816,0.0009118804591707885,-0.08749375492334366,-35.3632621,149.1652375,-0.006,-0.01,0.01,0.0,-9.942192991729826e-05,9.444955503568053e-05,0.0,1000,1000,1000,1000,12600,0,0.002834909362718463,0.003081076079979539,0.0029645063914358616,10,{}
normal_corridor_base_15,0,none,51102,0.0010853878920897841,0.0009120735921896994,-0.08763807266950607,-35.3632621,149.1652375,-0.006,-0.01,0.01,0.0,-9.942192264134064e-05,9.444954775972292e-05,0.0,1000,1000,1000,1000,12600,0,0.0026799850165843964,0.00263270759023726,0.0027050108183175325,10,{}
normal_corridor_base_15,0,none,51354,0.0010858133900910616,0.0009175768354907632,-0.08778438717126846,-35.3632621,149.1652375,-0.006,-0.01,0.01,0.0,-9.942189353751019e-05,9.444951865589246e-05,0.0,1000,1000,1000,1000,12600,0,0.0029122401028871536,0.0027383274864405394,0.0025523535441607237,10,{}
normal_corridor_base_15,0,none,51604,0.0010916340397670865,0.0009184255613945425,-0.08792717009782791,-35.3632621,149.1652375,-0.006,-0.01,0.01,0.0,-9.942188626155257e-05,9.444950410397723e-05,0.0,1000,1000,1000,1000,12600,0,0.002893341239541769,0.0029222385492175817,0.0029246697667986155,10,{}
normal_corridor_base_15,0,none,51854,0.0010946730617433786,0.0009140240726992488,-0.08806680142879486,-35.3632621,149.1652375,-0.006,-0.01,0.01,0.0,-9.942190808942541e-05,9.444951865589246e-05,0.0,1000,1000,1000,1000,12600,0,0.002978250617161393,0.002636110410094261,0.0029025685507804155,10,{}
normal_corridor_base_15,0,none,52104,0.001099464832805097,0.0009063141187652946,-0.08821365237236023,-35.3632621,149.1652375,-0.006,-0.01,0.01,0.0,-9.94219008134678e-05,9.4449489552062e-05,0.0,1000,1000,1000,1000,12600,0,0.002980356104671955,0.0025234532076865435,0.0028609002474695444,10,{}
normal_corridor_base_15,0,none,52354,0.0011040210956707597,0.0009052871610037982,-0.08834532648324966,-35.3632621,149.1652375,-0.006,-0.01,0.01,0.0,-9.942187898559496e-05,9.4449489552062e-05,0.0,1000,1000,1000,1000,12600,0,0.0027319409418851137,0.002879194915294647,0.0028401061426848173,10,{}
normal_corridor_base_15,0,none,52602,0.001108131487853825,0.0009157033637166023,-0.08845441788434982,-35.3632621,149.1652375,-0.006,-0.01,0.01,0.0,-9.942186443367973e-05,9.444945317227393e-05,0.0,1000,1000,1000,1000,12600,0,0.003151178127154708,0.0027405773289501667,0.002797189634293318,10,{}
normal_corridor_base_15,0,none,52852,0.0011104063596576452,0.0009180120541714132,-0.08859742432832718,-35.3632621,149.1652375,-0.006,-0.01,0.01,0.0,-9.942183532984927e-05,9.444941679248586e-05,0.0,1000,1000,1000,1000,12600,0,0.002935736207291484,0.0030668750405311584,0.002910713432356715,10,{}
normal_corridor_base_15,0,none,53102,0.0011100290575996041,0.0009140246547758579,-0.08872392773628235,-35.3632621,149.1652375,-0.006,-0.01,0.01,0.0,-9.942186443367973e-05,9.444943134440109e-05,0.0,1000,1000,1000,1000,12600,0,0.0027094644028693438,0.0028501420747488737,0.002694841008633375,10,{}
normal_corridor_base_15,0,none,53354,0.0011169607751071453,0.0009218837949447334,-0.08887330442667007,-35.3632621,149.1652375,-0.006,-0.01,0.01,0.0,-9.942185715772212e-05,9.444944589631632e-05,0.0,1000,1000,1000,1000,12600,0,0.0027912037912756205,0.0025407737120985985,0.0025785721372812986,10,{}
normal_corridor_base_15,0,none,53604,0.0011289530666545033,0.0009298947406932712,-0.08899985998868942,-35.3632621,149.1652375,-0.006,-0.01,0.01,0.0,-9.942184260580689e-05,9.444943134440109e-05,0.0,1000,1000,1000,1000,12600,0,0.0027636028826236725,0.003063402371481061,0.0027509357314556837,10,{}
normal_corridor_base_15,0,none,53854,0.0011316254967823625,0.0009272624738514423,-0.08913362771272659,-35.3632621,149.1652375,-0.006,-0.01,0.01,0.0,-9.942180622601882e-05,9.444941679248586e-05,0.0,1000,1000,1000,1000,12600,0,0.002527629490941763,0.002687640953809023,0.002939477562904358,10,{}
normal_corridor_base_15,0,none,54104,0.0011331761488690972,0.000935543270315975,-0.08926473557949066,-35.3632621,149.1652375,-0.006,-0.01,0.01,0.0,-9.942177712218836e-05,9.444940951652825e-05,0.0,1000,1000,1000,1000,12600,0,0.003024512203410268,0.0028088903054594994,0.00287444656714797,10,{}
normal_corridor_base_15,0,none,54354,0.0011349148117005825,0.000939006800763309,-0.08939656615257263,-35.3632621,149.1652375,-0.006,-0.01,0.01,0.0,-9.94217480183579e-05,9.444936586078256e-05,0.0,1000,1000,1000,1000,12600,0,0.0028915447182953358,0.00294332392513752,0.0030009583570063114,10,{}
normal_corridor_base_15,0,none,54602,0.0011444736737757921,0.000948312459513545,-0.08951593935489655,-35.3632621,149.1652375,-0.006,-0.01,0.01,0.0,-9.942172619048506e-05,9.444937313674018e-05,0.0,1000,1000,1000,1000,12600,0,0.00264536845497787,0.0027557071298360825,0.002671495545655489,10,{}
normal_corridor_base_15,0,none,54852,0.0011443330440670252,0.0009473909740336239,-0.08964529633522034,-35.3632621,149.1652375,-0.006,-0.01,0.01,0.0,-9.942174074240029e-05,9.444934403290972e-05,0.0,1000,1000,1000,1000,12600,0,0.003174790646880865,0.0029127050656825304,0.0029006493277847767,10,{}
normal_corridor_base_15,0,none,55102,0.0011466871947050095,0.0009494174737483263,-0.08976775407791138,-35.3632621,149.1652375,-0.006,-0.01,0.01,0.0,-9.942173346644267e-05,9.444930037716404e-05,0.0,1000,1000,1000,1000,12600,0,0.002807936631143093,0.002824501832947135,0.0025800231378525496,10,{}
normal_corridor_base_15,0,none,55352,0.0011457601794973016,0.0009510644595138729,-0.08989112079143524,-35.3632621,149.1652375,-0.006,-0.01,0.01,0.0,-9.94217480183579e-05,9.444930037716404e-05,0.0,1000,1000,1000,1000,12600,0,0.0025631352327764034,0.0025228960439562798,0.0025725215673446655,10,{}
normal_corridor_base_15,0,none,55604,0.0011502888519316912,0.000956373056396842,-0.09001854807138443,-35.3632621,149.1652375,-0.006,-0.01,0.01,0.0,-9.942168981069699e-05,9.444925672141835e-05,0.0,1000,1000,1000,1000,12600,0,0.002765510929748416,0.003074964974075556,0.002696338575333357,10,{}
normal_corridor_base_15,0,none,55854,0.0011466194409877062,0.0009505181224085391,-0.09014086425304413,-35.3632621,149.1652375,-0.006,-0.01,0.01,0.0,-9.942168253473938e-05,9.444926399737597e-05,0.0,1000,1000,1000,1000,12600,0,0.0026970626786351204,0.002862347289919853,0.0025826371274888515,10,{}
normal_corridor_base_15,0,none,56104,0.0011461584363132715,0.0009513688273727894,-0.0902649387717247,-35.3632621,149.1652375,-0.006,-0.01,0.01,0.0,-9.942168253473938e-05,9.444926399737597e-05,0.0,1000,1000,1000,1000,12600,0,0.002768162405118346,0.0028675596695393324,0.0030393858905881643,10,{}
normal_corridor_base_15,0,none,56354,0.0011502844281494617,0.0009554664720781147,-0.09038625657558441,-35.3632621,149.1652375,-0.006,-0.01,0.01,0.0,-9.942167525878176e-05,9.444924216950312e-05,0.0,1000,1000,1000,1000,12600,0,0.0027056431863456964,0.0029029136057943106,0.0030944880563765764,10,{}
normal_corridor_base_15,0,none,56602,0.0011527383467182517,0.00096181157277897,-0.09050453454256058,-35.3632621,149.1652375,-0.006,-0.01,0.01,0.0,-9.94216970866546e-05,9.44492785492912e-05,0.0,1000,1000,1000,1000,12600,0,0.002758015412837267,0.002629471942782402,0.0027786518912762403,10,{}
normal_corridor_base_15,0,none,56852,0.0011381834046915174,0.0009591942653059959,-0.0905950516462326,-35.3632621,149.1652375,-0.006,-0.01,0.01,0.0,-9.942175529431552e-05,9.444930765312165e-05,0.0,1000,1000,1000,1000,12600,0,0.002888137474656105,0.002761377254500985,0.002772427164018154,10,{}
normal_corridor_base_15,0,none,57102,0.0011330320267006755,0.0009540771134197712,-0.09070689976215363,-35.3632621,149.1652375,-0.006,-0.01,0.01,0.0,-9.942178439814597e-05,9.444930037716404e-05,0.0,1000,1000,1000,1000,12600,0,0.002785005373880267,0.0029907100833952427,0.002825937932357192,10,{}
normal_corridor_base_15,0,none,57352,0.0011409764410927892,0.0009569668327458203,-0.09082821756601334,-35.3632621,149.1652375,-0.006,-0.01,0.01,0.0,-9.942182805389166e-05,9.444933675695211e-05,0.0,1000,1000,1000,1000,12600,0,0.002815601183101535,0.0029023857787251472,0.002774878405034542,10,{}
normal_corridor_base_15,0,none,57604,0.0011460911482572556,0.0009644821984693408,-0.09094139188528061,-35.3632622,149.1652375,-0.006,-0.01,0.01,0.0,-9.942182805389166e-05,9.444937313674018e-05,0.0,1000,1000,1000,1000,12600,0,0.002687373198568821,0.002643563784658909,0.0024666949175298214,10,{}
normal_corridor_base_15,0,none,57854,0.0011466119904071093,0.000962508434895426,-0.0910528376698494,-35.3632621,149.1652375,-0.006,-0.01,0.01,0.0,-9.942181350197643e-05,9.444936586078256e-05,0.0,1000,1000,1000,1000,12600,0,0.0026802695356309414,0.0025301838759332895,0.0026132501661777496,10,{}
normal_corridor_base_15,0,none,58104,0.0011502383276820183,0.0009602914215065539,-0.09115958958864212,-35.3632621,149.1652375,-0.006,-0.01,0.01,0.0,-9.942185715772212e-05,9.444939496461302e-05,0.0,1000,1000,1000,1000,12600,0,0.0026224867906421423,0.002778815571218729,0.002571041928604245,10,{}
normal_corridor_base_15,0,none,58354,0.0011542538413777947,0.0009660207433626056,-0.09127738326787949,-35.3632621,149.1652375,-0.006,-0.01,0.01,0.0,-9.942185715772212e-05,9.444938041269779e-05,0.0,1000,1000,1000,1000,12600,0,0.0030612251721322536,0.0027113177347928286,0.002757216105237603,10,{}
normal_corridor_base_15,0,none,58604,0.0011546610621735454,0.0009717983193695545,-0.09138084948062897,-35.3632622,149.1652375,-0.006,-0.01,0.01,0.0,-9.942191536538303e-05,9.444943134440109e-05,0.0,1000,1000,1000,1000,12600,0,0.003133420366793871,0.003081529401242733,0.0028623209800571203,10,{}
normal_corridor_base_15,0,none,58852,0.0011538100661709905,0.0009683509124442935,-0.09149660915136337,-35.3632621,149.1652375,-0.006,-0.01,0.01,0.0,-9.942192991729826e-05,9.44494386203587e-05,0.0,1000,1000,1000,1000,12600,0,0.0029170187190175056,0.0027995863929390907,0.002555648796260357,10,{}
normal_corridor_base_15,0,none,59102,0.0011551947100088,0.0009697854402475059,-0.09160082787275314,-35.3632621,149.1652375,-0.006,-0.01,0.01,0.0,-9.942192991729826e-05,9.444942406844348e-05,0.0,1000,1000,1000,1000,12600,0,0.0026698396541178226,0.002687668427824974,0.0025346761103719473,10,{}
normal_corridor_base_15,0,none,59352,0.0011575749376788735,0.0009746067225933075,-0.09170693159103394,-35.3632621,149.1652375,-0.006,-0.01,0.01,0.0,-9.942192991729826e-05,9.444938041269779e-05,0.0,1000,1000,1000,1000,12600,0,0.002957551274448633,0.002569808391854167,0.002684804145246744,10,{}
normal_corridor_base_15,0,none,59604,0.0011625707847997546,0.000980509095825255,-0.09181113541126251,-35.3632622,149.1652375,-0.006,-0.01,0.01,0.0,-9.942194446921349e-05,9.444936586078256e-05,0.0,1000,1000,1000,1000,12600,0,0.0030077449046075344,0.0027688895352184772,0.002743503777310252,10,{}
normal_corridor_base_15,0,none,59854,0.0011516455560922623,0.0009753592894412577,-0.09191368520259857,-35.3632621,149.1652375,-0.006,-0.01,0.01,0.0,-9.942198812495917e-05,9.444939496461302e-05,0.0,1000,1000,1000,1000,12600,0,0.0026662040036171675,0.002803605981171131,0.002736208261922002,10,{}
normal_corridor_base_15,0,none,60104,0.0011504569556564093,0.0009703016839921474,-0.09201113879680634,-35.3632621,149.1652375,-0.006,-0.01,0.01,0.0,-9.942199540091679e-05,9.444936586078256e-05,0.0,1000,1000,1000,1000,12600,0,0.0030158718582242727,0.0027474574744701385,0.002700456418097019,10,{}
normal_corridor_base_15,0,none,60354,0.0011522154090926051,0.0009683694806881249,-0.09211692214012146,-35.3632622,149.1652375,-0.006,-0.01,0.01,0.0,-9.942202450474724e-05,9.444936586078256e-05,0.0,1000,1000,1000,1000,12600,0,0.0026820385828614235,0.002776504959911108,0.0027320347726345062,10,{}
normal_corridor_base_15,0,none,60604,0.0011581178987398744,0.0009714451734907925,-0.0922129899263382,-35.3632622,149.1652375,-0.006,-0.01,0.01,0.0,-9.942203905666247e-05,9.444936586078256e-05,0.0,1000,1000,1000,1000,12600,0,0.002713428344577551,0.0028823455795645714,0.002858642488718033,10,{}
normal_corridor_base_15,0,none,60852,0.0011499288957566023,0.000958397111389786,-0.09232009947299957,-35.3632621,149.1652375,-0.006,-0.01,0.01,0.0,-9.942202450474724e-05,9.444935858482495e-05,0.0,1000,1000,1000,1000,12600,0,0.0028073571156710386,0.0027939474675804377,0.0025490240659564734,10,{}
normal_corridor_base_15,0,none,61102,0.0011544747976586223,0.0009527129586786032,-0.09241677075624466,-35.3632622,149.1652375,-0.006,-0.01,0.01,0.0,-9.94220536085777e-05,9.444938041269779e-05,0.0,1000,1000,1000,1000,12600,0,0.002510633785277605,0.0029175973031669855,0.002739523071795702,10,{}
normal_corridor_base_15,0,none,61352,0.0011564003070816398,0.0009571516420692205,-0.0925113782286644,-35.3632622,149.1652375,-0.006,-0.01,0.01,0.0,-9.942203905666247e-05,9.444936586078256e-05,0.0,1000,1000,1000,1000,12600,0,0.003003196557983756,0.003056483343243599,0.002976182149723172,10,{}
normal_corridor_base_15,0,none,61602,0.0011645826743915677,0.0009608317050151527,-0.0926024466753006,-35.3632622,149.1652375,-0.006,-0.01,0.01,0.0,-9.942208271240816e-05,9.444936586078256e-05,0.0,1000,1000,1000,1000,12600,0,0.0027469261549413204,0.002822626382112503,0.002925677690654993,10,{}
normal_corridor_base_15,0,none,61854,0.0011553490767255425,0.0009530881070531905,-0.09267980605363846,-35.3632622,149.1652375,-0.006,-0.01,0.01,0.0,-9.942209726432338e-05,9.444940951652825e-05,0.0,1000,1000,1000,1000,12600,0,0.002903211396187544,0.002813684055581689,0.0030312021262943745,10,{}
normal_corridor_base_15,0,none,62104,0.001157258404418826,0.0009556295699439943,-0.09276822954416275,-35.3632621,149.1652375,-0.006,-0.01,0.01,0.0,-9.942209726432338e-05,9.444942406844348e-05,0.0,1000,1000,1000,1000,12600,0,0.002529751742258668,0.0028320522978901863,0.002814509440213442,10,{}
normal_corridor_base_15,0,none,62354,0.0011614286340773106,0.0009541811887174845,-0.09286416321992874,-35.3632622,149.1652375,-0.006,-0.01,0.01,0.0,-9.942213364411145e-05,9.444946044823155e-05,0.0,1000,1000,1000,1000,12600,0,0.002675029681995511,0.002683610888198018,0.002634878735989332,10,{}
normal_corridor_base_15,0,none,62604,0.001163510256446898,0.0009637571638450027,-0.09294836223125458,-35.3632622,149.1652375,-0.006,-0.01,0.01,0.0,-9.942212636815384e-05,9.444947500014678e-05,0.0,1000,1000,1000,1000,12600,0,0.0026495237834751606,0.0029550199396908283,0.0028511269483715296,10,{}
normal_corridor_base_15,0,none,62852,0.001160728163085878,0.0009621633216738701,-0.09304382652044296,-35.3632621,149.1652375,-0.006,-0.01,0.01,0.0,-9.942213364411145e-05,9.4449489552062e-05,0.0,1000,1000,1000,1000,12600,0,0.0026120177935808897,0.0031740327831357718,0.0026498541701585054,10,{}
normal_corridor_base_15,0,none,63102,0.001159900100901723,0.000967455271165818,-0.09313782304525375,-35.3632621,149.1652375,-0.006,-0.01,0.01,0.0,-9.942211181623861e-05,9.44494386203587e-05,0.0,1000,1000,1000,1000,12600,0,0.002932027680799365,0.0028574655298143625,0.002698762807995081,10,{}
normal_corridor_base_15,0,none,63352,0.0011587125482037663,0.0009649535641074181,-0.0932362824678421,-35.3632622,149.1652375,-0.006,-0.01,0.01,0.0,-9.9422104540281e-05,9.444940951652825e-05,0.0,1000,1000,1000,1000,12600,0,0.0027855681255459785,0.0026213510427623987,0.0028815087862312794,10,{}
normal_corridor_base_15,0,none,63602,0.0011617381824180484,0.0009743143455125391,-0.0933159589767456,-35.3632622,149.1652375,-0.006,-0.01,0.01,0.0,-9.9422104540281e-05,9.444938041269779e-05,0.0,1000,1000,1000,1000,12600,0,0.0029318092856556177,0.0025605331175029278,0.0025548480916768312,10,{}
normal_corridor_base_15,0,none,63854,0.0011584690073505044,0.0009707882418297231,-0.09340238571166992,-35.3632622,149.1652375,-0.006,-0.01,0.01,0.0,-9.942209726432338e-05,9.444941679248586e-05,0.0,1000,1000,1000,1000,12600,0,0.0029751271940767765,0.0029373522847890854,0.0029288255609571934,10,{}
normal_corridor_base_15,0,none,64104,0.0011628748616203666,0.0009624826489016414,-0.09348593652248383,-35.3632622,149.1652375,-0.006,-0.01,0.01,0.0,-9.942211909219623e-05,9.444942406844348e-05,0.0,1000,1000,1000,1000,12600,0,0.0027495338581502438,0.0030118876602500677,0.0031028869561851025,10,{}
normal_corridor_base_15,0,none,64354,0.0011642989702522755,0.0009641905198805034,-0.09357450902462006,-35.3632622,149.1652375,-0.006,-0.01,0.01,0.0,-9.94221554719843e-05,9.44494386203587e-05,0.0,1000,1000,1000,1000,12600,0,0.0029476762283593416,0.0028871356043964624,0.002852474106475711,10,{}
normal_corridor_base_15,0,none,64604,0.0011741885682567954,0.0009669042192399502,-0.09365779906511307,-35.3632622,149.1652375,-0.006,-0.01,0.01,0.0,-9.942217002389953e-05,9.444946044823155e-05,0.0,1000,1000,1000,1000,12600,0,0.002898129168897867,0.0029549153987318277,0.002889412920922041,10,{}
normal_corridor_base_15,0,none,64854,0.001171768642961979,0.0009591298294253647,-0.09374520927667618,-35.3632622,149.1652375,-0.006,-0.01,0.01,0.0,-9.94222064036876e-05,9.444946044823155e-05,0.0,1000,1000,1000,1000,12600,0,0.0028465164359658957,0.00294336024671793,0.002842680085450411,10,{}
normal_corridor_base_15,0,none,65102,0.001164199085906148,0.0009521534666419029,-0.09382757544517517,-35.3632621,149.1652375,-0.006,-0.01,0.01,0.0,-9.942217729985714e-05,9.444944589631632e-05,0.0,1000,1000,1000,1000,12600,0,0.002917112782597542,0.0030844872817397118,0.002727409591898322,10,{}
normal_corridor_base_15,0,none,65352,0.0011632529785856605,0.0009587622480466962,-0.09391269832849503,-35.3632622,149.1652375,-0.006,-0.01,0.01,0.0,-9.942219912772998e-05,9.444947500014678e-05,0.0,1000,1000,1000,1000,12600,0,0.0028165739495307207,0.0026213927194476128,0.0029441467486321926,10,{}
normal_corridor_base_15,0,none,65602,0.0011653007240965962,0.0009651315049268305,-0.09399529546499252,-35.3632622,149.1652375,-0.006,-0.01,0.01,0.0,-9.942222095560282e-05,9.444951137993485e-05,0.0,1000,1000,1000,1000,12600,0,0.0027411801274865866,0.0025626991409808397,0.002770032500848174,10,{}
normal_corridor_base_15,0,none,65854,0.0011631697416305542,0.0009609948610886931,-0.09408164024353027,-35.3632621,149.1652375,-0.006,-0.01,0.01,0.0,-9.942218457581475e-05,9.4449489552062e-05,0.0,1000,1000,1000,1000,12600,0,0.0027194644790142775,0.002993851201608777,0.0026798939798027277,10,{}
normal_corridor_base_15,0,none,66104,0.0011659893207252026,0.0009625441743992269,-0.09415919333696365,-35.3632621,149.1652375,-0.006,-0.01,0.01,0.0,-9.942219912772998e-05,9.4449489552062e-05,0.0,1000,1000,1000,1000,12600,0,0.0026407046243548393,0.0029035003390163183,0.0028565218672156334,10,{}
normal_corridor_base_15,0,none,66354,0.0011718731839209795,0.0009609108092263341,-0.0942363440990448,-35.3632621,149.1652375,-0.006,-0.01,0.01,0.0,-9.942219912772998e-05,9.444950410397723e-05,0.0,1000,1000,1000,1000,12600,0,0.0027958459686487913,0.00286304485052824,0.0027418937534093857,10,{}
normal_corridor_base_15,0,none,66604,0.0011726110242307186,0.0009753918275237083,-0.09431953728199005,-35.3632621,149.1652375,-0.006,-0.01,0.01,0.0,-9.942219912772998e-05,9.444949682801962e-05,0.0,1000,1000,1000,1000,12600,0,0.0029651187360286713,0.0026440012734383345,0.002666248008608818,10,{}
normal_corridor_base_15,0,none,66854,0.0011725417571142316,0.0009709883597679436,-0.09439033269882202,-35.3632621,149.1652375,-0.006,-0.01,0.01,0.0,-9.94221554719843e-05,9.444948227610439e-05,0.0,1000,1000,1000,1000,12600,0,0.0024607828818261623,0.0028213772457093,0.0029791288543492556,10,{}
normal_corridor_base_15,0,none,67102,0.0011723568895831704,0.0009706027340143919,-0.09445023536682129,-35.3632621,149.1652375,-0.006,-0.01,0.01,0.0,-9.942216274794191e-05,9.444951137993485e-05,0.0,1000,1000,1000,1000,12600,0,0.002986763371154666,0.0026000149082392454,0.0031203904654830694,10,{}
normal_corridor_base_15,0,none,67352,0.001173321041278541,0.0009732607868500054,-0.09451431781053543,-35.3632621,149.1652375,-0.006,-0.01,0.01,0.0,-9.94221554719843e-05,9.4449489552062e-05,0.0,1000,1000,1000,1000,12600,0,0.002960223238915205,0.002874573227018118,0.0029355392325669527,10,{}
normal_corridor_base_15,0,none,67602,0.00117766042239964,0.0009827303001657128,-0.09458618611097336,-35.3632622,149.1652375,-0.006,-0.01,0.01,0.0,-9.942222095560282e-05,9.4449489552062e-05,0.0,1000,1000,1000,1000,12600,0,0.002562410430982709,0.002971244975924492,0.0027293353341519833,10,{}
normal_corridor_base_15,0,none,67852,0.001176556572318077,0.0009819908300414681,-0.09466645121574402,-35.3632621,149.1652375,-0.006,-0.01,0.01,0.0,-9.942214092006907e-05,9.444947500014678e-05,0.0,1000,1000,1000,1000,12600,0,0.002663783263415098,0.002971030306071043,0.0027500344440340996,10,{}
normal_corridor_base_15,0,none,68104,0.0011775109451264143,0.0009816321544349194,-0.09473291039466858,-35.3632621,149.1652375,-0.006,-0.01,0.01,0.0,-9.942214092006907e-05,9.444949682801962e-05,0.0,1000,1000,1000,1000,12600,0,0.0031104327645152807,0.002690546913072467,0.0024643922224640846,10,{}
normal_corridor_base_15,0,none,68354,0.0011824790854007006,0.0009904473554342985,-0.09480943530797958,-35.3632622,149.1652375,-0.006,-0.01,0.01,0.0,-9.942217002389953e-05,9.444948227610439e-05,0.0,1000,1000,1000,1000,12600,0,0.0030359053052961826,0.0027874791994690895,0.0028328639455139637,10,{}
normal_corridor_base_15,0,none,68604,0.0011907374719157815,0.0009965590434148908,-0.09487823396921158,-35.3632622,149.1652375,-0.006,-0.01,0.01,0.0,-9.942212636815384e-05,9.44494386203587e-05,0.0,1000,1000,1000,1000,12600,0,0.0028010692913085222,0.0031360036227852106,0.0030197782907634974,10,{}
normal_corridor_base_15,0,none,68854,0.0011922343401238322,0.0009897721465677023,-0.09495138376951218,-35.3632622,149.1652375,-0.006,-0.01,0.01,0.0,-9.942212636815384e-05,9.444939496461302e-05,0.0,1000,1000,1000,1000,12600,0,0.0027713514864444733,0.0026820129714906216,0.0027829583268612623,10,{}
normal_corridor_base_15,0,none,69102,0.0011961106210947037,0.0009909155778586864,-0.09502002596855164,-35.3632622,149.1652375,-0.006,-0.01,0.01,0.0,-9.942219185177237e-05,9.44494386203587e-05,0.0,1000,1000,1000,1000,12600,0,0.002785666845738888,0.0026549294125288725,0.0025459681637585163,10,{}
