flight_id,label,attack_type,timestamp,att_roll,att_pitch,att_yaw,pos_lat,pos_lon,pos_alt_rel,pos_vx,pos_vy,pos_vz,nav_roll,nav_pitch,nav_alt_error,servo1_raw,servo2_raw,servo3_raw,servo4_raw,sys_voltage_battery,sys_load,vib_x,vib_y,vib_z,gps_sats_visible,attack_params_json
normal_corridor_base_10,0,none,10064,0.0001912941224873066,-4.410741894389503e-05,-0.3456066846847534,-35.3632621,149.1652374,0.0,0.0,0.0,-0.03,-9.942173346644267e-05,9.444946044823155e-05,0.0,1000,1000,1000,1000,12600,0,0.002945486456155777,0.0028978390619158745,0.002749103819951415,3,{}
normal_corridor_base_10,0,none,10396,0.0001970151497516781,-3.5226774343755096e-05,-0.3271171450614929,-35.3632621,149.1652374,0.0,0.0,0.0,-0.03,-9.942168253473938e-05,9.444936586078256e-05,0.0,1000,1000,1000,1000,12600,0,0.0030155775602906942,0.0029678416904062033,0.0026824031956493855,10,{}
normal_corridor_base_10,0,none,10729,0.00020050643070135266,-2.2216619981918484e-05,-0.2862033247947693,-35.3632621,149.1652374,0.0,0.0,0.0,-0.03,-9.942168253473938e-05,9.444936586078256e-05,0.0,1000,1000,1000,1000,12600,0,0.0026510495226830244,0.002909252652898431,0.002867576666176319,10,{}
normal_corridor_base_10,0,none,11062,0.00020473483891692013,-1.3119782124704216e-05,-0.2602076828479767,-35.3632621,149.1652374,0.0,0.0,0.0,-0.03,-9.942165343090892e-05,9.444937313674018e-05,0.0,1000,1000,1000,1000,12600,0,0.0027682597283273935,0.002792874351143837,0.002642769133672118,10,{}
normal_corridor_base_10,0,none,11397,0.00020864777616225183,-7.573533821414458e-06,-0.23574402928352356,-35.3632621,149.1652374,0.0,0.0,0.0,-0.03,-9.9421595223248e-05,9.444938041269779e-05,0.0,1000,1000,1000,1000,12600,0,0.0028481651097536087,0.0027406830340623856,0.0028808910865336657,10,{}
normal_corridor_base_10,0,none,11729,0.00021480301802512258,-1.428917784096484e-07,-0.20650538802146912,-35.3632621,149.1652374,0.0,0.0,0.0,-0.03,-9.9421595223248e-05,9.444938041269779e-05,0.0,1000,1000,1000,1000,12600,0,0.0032265041954815388,0.002711546141654253,0.002429397776722908,10,{}
normal_corridor_base_10,0,none,12061,0.00022109915153123438,1.3677451534022111e-05,-0.18731357157230377,-35.3632621,149.1652374,0.0,0.0,0.0,-0.02,-9.942157339537516e-05,9.444939496461302e-05,0.0,1000,1000,1000,1000,12600,0,0.00300432532094419,0.002870292169973254,0.0028670676983892918,10,{}
normal_corridor_base_10,0,none,12394,0.00022505676315631717,1.8841346900444478e-05,-0.17015381157398224,-35.3632621,149.1652374,0.0,0.0,0.0,-0.02,-9.942166798282415e-05,9.444940951652825e-05,0.0,1000,1000,1000,1000,12600,0,0.002681629965081811,0.002892407588660717,0.0030185445211827755,10,{}
normal_corridor_base_10,0,none,12729,0.00023421720834448934,3.3496366086183116e-05,-0.1502041518688202,-35.3632621,149.1652374,0.0,0.0,0.0,-0.02,-9.942166798282415e-05,9.444940951652825e-05,0.0,1000,1000,1000,1000,12600,0,0.002957269549369812,0.0028937673196196556,0.003053977619856596,10,{}
normal_corridor_base_10,0,none,13062,0.00024547730572521687,3.6421461118152365e-05,-0.13712459802627563,-35.3632621,149.1652374,0.0,0.0,0.0,-0.02,-9.94216461549513e-05,9.444936586078256e-05,0.0,1000,1000,1000,1000,12600,0,0.0028778943233191967,0.002603470114991069,0.0028446889482438564,10,{}
normal_corridor_base_10,0,none,13394,0.0002516931272111833,4.2024195863632485e-05,-0.12564733624458313,-35.3632621,149.1652374,0.0,0.0,0.0,-0.01,-9.942163887899369e-05,9.444939496461302e-05,0.0,1000,1000,1000,1000,12600,0,0.0026417558547109365,0.002648866968229413,0.002922405255958438,10,{}
normal_corridor_base_10,0,none,13727,0.00026439889916218817,5.604143734672107e-05,-0.11247953772544861,-35.3632621,149.1652374,0.0,0.0,0.0,-0.01,-9.942163887899369e-05,9.444939496461302e-05,0.0,1000,1000,1000,1000,12600,0,0.0027178830932825804,0.002756880596280098,0.00263393297791481,10,{}
normal_corridor_base_10,0,none,14059,0.00027650975971482694,6.224587559700012e-05,-0.10400988161563873,-35.3632621,149.1652374,0.0,0.0,0.0,-0.01,-9.942155884345993e-05,9.444938041269779e-05,0.0,1000,1000,1000,1000,12600,0,0.00280212820507586,0.0027040529530495405,0.0028305917512625456,10,{}
normal_corridor_base_10,0,none,14394,0.00028152999584563076,7.053751323837787e-05,-0.09658906608819962,-35.3632621,149.1652374,0.0,0.0,0.0,-0.01,-9.942155884345993e-05,9.444938041269779e-05,0.0,1000,1000,1000,1000,12600,0,0.002766679972410202,0.002826599171385169,0.002807000884786248,10,{}
normal_corridor_base_10,0,none,14726,0.0002979073324240744,8.829063881421462e-05,-0.08815464377403259,-35.3632621,149.1652374,0.0,0.0,0.0,-0.01,-9.942151518771425e-05,9.444933675695211e-05,0.0,1000,1000,1000,1000,12600,0,0.0028637899085879326,0.002752954140305519,0.0028015284333378077,10,{}
normal_corridor_base_10,0,none,15059,0.00030818034429103136,9.670257713878527e-05,-0.08266015350818634,-35.3632621,149.1652374,0.0,0.0,0.0,-0.01,-9.942147153196856e-05,9.444930037716404e-05,0.0,1000,1000,1000,1000,12600,0,0.0029111774638295174,0.0026996994856745005,0.0027333982288837433,10,{}
normal_corridor_base_10,0,none,15359,0.0003211866714991629,0.00010703221778385341,-0.0771338939666748,-35.3632621,149.1652374,0.0,0.0,0.0,-0.01,-9.942147153196856e-05,9.444930037716404e-05,0.0,1000,1000,1000,1000,12600,0,0.0026941520627588034,0.0028424446936696768,0.003049815073609352,10,{}
normal_corridor_base_10,0,none,15609,0.0003307907027192414,0.00011150518548674881,-0.07378612458705902,-35.3632621,149.1652374,0.0,0.0,0.0,-0.01,-9.942150063579902e-05,9.444935858482495e-05,0.0,1000,1000,1000,1000,12600,0,0.0026941520627588034,0.0028424446936696768,0.003049815073609352,10,{}
normal_corridor_base_10,0,none,15859,0.0003363890282344073,0.00012000498827546835,-0.07087501883506775,-35.3632621,149.1652374,0.0,0.0,0.0,0.0,-9.942148608388379e-05,9.444936586078256e-05,0.0,1000,1000,1000,1000,12600,0,0.0026640279684215784,0.002792098093777895,0.0025840585585683584,10,{}
normal_corridor_base_10,0,none,16389,0.00035378028405830264,0.0001375292195007205,-0.06591206789016724,-35.3632621,149.1652374,0.0,0.0,0.0,0.0,-9.942150063579902e-05,9.444938041269779e-05,0.0,1000,1000,1000,1000,12600,0,0.0030702329240739346,0.0028023950289934874,0.0027498232666403055,10,{}
normal_corridor_base_10,0,none,16724,0.00036622723564505577,0.0001452677242923528,-0.06388644129037857,-35.3632621,149.1652374,0.0,0.0,0.0,0.0,-9.942150063579902e-05,9.44493876886554e-05,0.0,1000,1000,1000,1000,12600,0,0.003136045066639781,0.002573417266830802,0.0025887133087962866,10,{}
normal_corridor_base_10,0,none,17057,0.00038410312845371664,0.00015618557517882437,-0.061100371181964874,-35.3632621,149.1652374,0.0,0.0,0.0,0.0,-9.942147153196856e-05,9.444940224057063e-05,0.0,1000,1000,1000,1000,12600,0,0.0028475781437009573,0.0028414553962647915,0.0027528118807822466,10,{}
normal_corridor_base_10,0,none,17389,0.00039458321407437325,0.00016589250299148262,-0.059420760720968246,-35.3632621,149.1652374,0.0,0.0,0.0,0.0,-9.9421595223248e-05,9.44493876886554e-05,0.0,1000,1000,1000,1000,12600,0,0.003016294213011861,0.0026016102638095617,0.003029768355190754,10,{}
normal_corridor_base_10,0,none,17722,0.00041070187580771744,0.00018106753122992814,-0.057568710297346115,-35.3632621,149.1652374,0.0,0.0,0.0,0.0,-9.942160249920562e-05,9.444937313674018e-05,0.0,1000,1000,1000,1000,12600,0,0.003016294213011861,0.0026016102638095617,0.003029768355190754,10,{}
normal_corridor_base_10,0,none,18054,0.00042248520185239613,0.00019276324019301683,-0.056422676891088486,-35.3632621,149.1652374,0.0,0.0,0.0,0.0,-9.94216461549513e-05,9.444936586078256e-05,0.0,1000,1000,1000,1000,12600,0,0.002995462855324149,0.0026886356063187122,0.002632864285260439,10,{}
normal_corridor_base_10,0,none,18389,0.00043392457882873714,0.00020914708147756755,-0.055477894842624664,-35.3632621,149.1652374,0.0,0.0,0.0,0.0,-9.942166070686653e-05,9.444934403290972e-05,0.0,1000,1000,1000,1000,12600,0,0.0025986561086028814,0.0028011202812194824,0.0025489216204732656,10,{}
normal_corridor_base_10,0,none,18721,0.0004479670024011284,0.00022988767886999995,-0.05449802055954933,-35.3632621,149.1652374,0.0,0.0,0.0,0.0,-9.942166070686653e-05,9.444934403290972e-05,0.0,1000,1000,1000,1000,12600,0,0.002709924941882491,0.002860313281416893,0.003039347007870674,10,{}
normal_corridor_base_10,0,none,19054,0.00046994665171951056,0.0002412215108051896,-0.053935617208480835,-35.3632621,149.1652374,0.0,0.0,0.0,0.0,-9.942166070686653e-05,9.444934403290972e-05,0.0,1000,1000,1000,1000,12600,0,0.0029902923852205276,0.0032041766680777073,0.0027413400821387768,10,{}
normal_corridor_base_10,0,none,19387,0.00048268958926200867,0.00025294674560427666,-0.05356481298804283,-35.3632621,149.1652374,0.0,0.0,0.0,0.0,-9.942166070686653e-05,9.444932220503688e-05,0.0,1000,1000,1000,1000,12600,0,0.003081119619309902,0.0029808066319674253,0.002780078910291195,10,{}
normal_corridor_base_10,0,none,19719,0.0005028316518291831,0.0002717072784435004,-0.05314211547374725,-35.3632621,149.1652374,0.0,0.0,0.0,0.0,-9.942163887899369e-05,9.444933675695211e-05,0.0,1000,1000,1000,1000,12600,0,0.0028444919735193253,0.0027936785481870174,0.002571870107203722,10,{}
normal_corridor_base_10,0,none,20054,0.0005250014364719391,0.00028347648913040757,-0.052769266068935394,-35.3632621,149.1652374,0.008,0.0,0.0,0.0,-9.942163887899369e-05,9.444933675695211e-05,0.0,1000,1000,1000,1000,12600,0,0.002852614503353834,0.0027183103375136852,0.002820821013301611,10,{}
normal_corridor_base_10,0,none,20386,0.0005348596605472267,0.00030344081460498273,-0.05262463539838791,-35.3632621,149.1652374,-0.007,0.0,0.0,0.0,-9.94217480183579e-05,9.444940224057063e-05,0.0,1000,1000,1000,1000,12600,0,0.003031084779649973,0.002612218027934432,0.002969917608425021,10,{}
normal_corridor_base_10,0,none,20719,0.0005552101647481322,0.0003240596270188689,-0.05265484377741814,-35.3632621,149.1652374,-0.008,0.0,0.0,0.0,-9.942172619048506e-05,9.444939496461302e-05,0.0,1000,1000,1000,1000,12600,0,0.0028549779672175646,0.0029606602620333433,0.0029049785807728767,10,{}
normal_corridor_base_10,0,none,21051,0.0005708917742595077,0.00034036938450299203,-0.05274617299437523,-35.3632621,149.1652374,-0.006,0.0,0.0,0.0,-9.942172619048506e-05,9.444939496461302e-05,0.0,1000,1000,1000,1000,12600,0,0.0027735356707125902,0.0029042938258498907,0.003114926628768444,10,{}
normal_corridor_base_10,0,none,21384,0.0005879671080037951,0.0003542473423294723,-0.05293460190296173,-35.3632621,149.1652374,-0.005,0.0,0.0,0.0,-9.942178439814597e-05,9.444939496461302e-05,0.0,1000,1000,1000,1000,12600,0,0.0026669325307011604,0.0027789934538304806,0.0029920765664428473,10,{}
normal_corridor_base_10,0,none,21717,0.0006110966205596924,0.00037552224239334464,-0.053194545209407806,-35.3632621,149.1652374,-0.003,0.0,0.0,0.0,-9.94217989500612e-05,9.444934403290972e-05,0.0,1000,1000,1000,1000,12600,0,0.0028422344475984573,0.002868244657292962,0.0028373331297188997,10,{}
normal_corridor_base_10,0,none,22052,0.000631422211881727,0.0003920065937563777,-0.05343345180153847,-35.3632621,149.1652374,-0.002,0.0,0.01,0.0,-9.94217989500612e-05,9.444934403290972e-05,0.0,1000,1000,1000,1000,12600,0,0.0029376831371337175,0.0029291482642292976,0.0028633049223572016,10,{}
normal_corridor_base_10,0,none,22384,0.000649136898573488,0.0004091487207915634,-0.05372783541679382,-35.3632621,149.1652374,0.0,0.0,0.01,0.0,-9.942182805389166e-05,9.444941679248586e-05,0.0,1000,1000,1000,1000,12600,0,0.002598702674731612,0.0030720368959009647,0.0026078002993017435,10,{}
normal_corridor_base_10,0,none,22716,0.0006711240275762975,0.0004374838317744434,-0.05415761470794678,-35.3632621,149.1652374,0.0,0.0,0.01,0.0,-9.94219517451711e-05,9.444948227610439e-05,0.0,1000,1000,1000,1000,12600,0,0.002681483281776309,0.0027515548281371593,0.0027146346401423216,10,{}
normal_corridor_base_10,0,none,23049,0.0006910348311066628,0.000456437497632578,-0.05451177433133125,-35.3632621,149.1652374,0.0,0.0,0.01,0.0,-9.94219517451711e-05,9.444948227610439e-05,0.0,1000,1000,1000,1000,12600,0,0.002938285004347563,0.0026340994518250227,0.0028963705990463495,10,{}
normal_corridor_base_10,0,none,23382,0.0007053529843688011,0.0004713519592769444,-0.05494221672415733,-35.3632621,149.1652374,0.001,-0.01,0.01,0.0,-9.942195902112871e-05,9.444946044823155e-05,0.0,1000,1000,1000,1000,12600,0,0.0028423890471458435,0.002601960441097617,0.002901046071201563,10,{}
normal_corridor_base_10,0,none,23717,0.0007243318832479417,0.0004920267383567989,-0.05546797811985016,-35.3632621,149.1652374,0.002,-0.01,0.01,0.0,-9.942182077793404e-05,9.444943134440109e-05,0.0,1000,1000,1000,1000,12600,0,0.002801255788654089,0.0028519416227936745,0.0028879577293992043,10,{}
normal_corridor_base_10,0,none,24049,0.0007396782748401165,0.0005127252661623061,-0.055868230760097504,-35.3632621,149.1652374,0.002,-0.01,0.01,0.0,-9.942182077793404e-05,9.444943134440109e-05,0.0,1000,1000,1000,1000,12600,0,0.0028321589343249798,0.002656634896993637,0.0028007212094962597,10,{}
normal_corridor_base_10,0,none,24381,0.0007521496736444533,0.0005260746111162007,-0.056330181658267975,-35.3632621,149.1652374,0.002,-0.01,0.01,0.0,-9.942185715772212e-05,9.444940951652825e-05,0.0,1000,1000,1000,1000,12600,0,0.002994642360135913,0.0026531533803790808,0.0027180330362170935,10,{}
normal_corridor_base_10,0,none,24714,0.0007713389932177961,0.0005480187828652561,-0.05689895525574684,-35.3632621,149.1652374,0.002,-0.01,0.01,0.0,-9.94219008134678e-05,9.444946772418916e-05,0.0,1000,1000,1000,1000,12600,0,0.0031432928517460823,0.0027932196389883757,0.002909321803599596,10,{}
normal_corridor_base_10,0,none,25049,0.0007905703969299793,0.0005629915394820273,-0.05734656751155853,-35.3632621,149.1652374,0.003,-0.01,0.01,0.0,-9.94219008134678e-05,9.444946772418916e-05,0.0,1000,1000,1000,1000,12600,0,0.0028212114702910185,0.0028569630812853575,0.0026625809259712696,10,{}
normal_corridor_base_10,0,none,25382,0.0007998521323315799,0.0005775370518676937,-0.05781005322933197,-35.3632621,149.1652374,0.003,-0.01,0.01,0.0,-9.942190808942541e-05,9.444950410397723e-05,0.0,1000,1000,1000,1000,12600,0,0.0027093389071524143,0.0027956366539001465,0.002811444690451026,10,{}
normal_corridor_base_10,0,none,25714,0.0008203944307751954,0.0006003163289278746,-0.05829104036092758,-35.3632621,149.1652374,0.003,-0.01,0.01,0.0,-9.94219008134678e-05,9.444951137993485e-05,0.0,1000,1000,1000,1000,12600,0,0.002550774021074176,0.0029288616497069597,0.002678798045963049,10,{}
normal_corridor_base_10,0,none,26047,0.0008347010589204729,0.0006182743818499148,-0.05877212435007095,-35.3632621,149.1652374,0.002,-0.01,0.01,0.0,-9.94219008134678e-05,9.444951137993485e-05,0.0,1000,1000,1000,1000,12600,0,0.0026434138417243958,0.0027236954774707556,0.00278821331448853,10,{}
normal_corridor_base_10,0,none,26379,0.0008504278375767171,0.000621444545686245,-0.059258684515953064,-35.3632621,149.1652374,0.002,-0.01,0.01,0.0,-9.942192991729826e-05,9.444950410397723e-05,0.0,1000,1000,1000,1000,12600,0,0.0026167850010097027,0.002861310262233019,0.002960408804938197,10,{}
normal_corridor_base_10,0,none,26714,0.0008687119116075337,0.0006325965514406562,-0.059913113713264465,-35.3632621,149.1652374,0.002,-0.01,0.01,0.0,-9.942191536538303e-05,9.444946772418916e-05,0.0,1000,1000,1000,1000,12600,0,0.0026553620118647814,0.002952998038381338,0.0025070689152926207,10,{}
normal_corridor_base_10,0,none,27046,0.0008787972619757056,0.0006449136999435723,-0.0604078434407711,-35.3632621,149.1652374,0.002,-0.01,0.01,0.0,-9.942191536538303e-05,9.444946772418916e-05,0.0,1000,1000,1000,1000,12600,0,0.0027885192539542913,0.003076920285820961,0.0029301904141902924,10,{}
normal_corridor_base_10,0,none,27379,0.0008917716331779957,0.0006556125590577722,-0.06090212240815163,-35.3632621,149.1652374,0.002,-0.01,0.01,0.0,-9.942196629708633e-05,9.4449489552062e-05,0.0,1000,1000,1000,1000,12600,0,0.002628886140882969,0.0026806683745235205,0.0027822903357446194,10,{}
normal_corridor_base_10,0,none,27712,0.0009014707757160068,0.0006638002232648432,-0.061445582658052444,-35.3632621,149.1652374,0.001,-0.01,0.01,0.0,-9.94219517451711e-05,9.444948227610439e-05,0.0,1000,1000,1000,1000,12600,0,0.002840672852471471,0.002677338430657983,0.0023833001032471657,10,{}
normal_corridor_base_10,0,none,28044,0.0009168654796667397,0.0006775773945264518,-0.06208563223481178,-35.3632621,149.1652374,0.001,-0.01,0.01,0.0,-9.94219517451711e-05,9.444948227610439e-05,0.0,1000,1000,1000,1000,12600,0,0.0029418368358165026,0.002989065134897828,0.0028099233750253916,10,{}
normal_corridor_base_10,0,none,28379,0.0009276823839172721,0.000689214444719255,-0.06260070204734802,-35.3632621,149.1652374,0.001,-0.01,0.01,0.0,-9.942201722878963e-05,9.444955503568053e-05,0.0,1000,1000,1000,1000,12600,0,0.002877607475966215,0.0028879146557301283,0.002736738184466958,10,{}
normal_corridor_base_10,0,none,28711,0.0009405235759913921,0.0007051744032651186,-0.063071608543396,-35.3632621,149.1652374,0.0,-0.01,0.01,0.0,-9.942209726432338e-05,9.444961324334145e-05,0.0,1000,1000,1000,1000,12600,0,0.0027108844369649887,0.002555504674091935,0.003034403081983328,10,{}
normal_corridor_base_10,0,none,29044,0.0009513386175967753,0.0007239221013151109,-0.0637107640504837,-35.3632621,149.1652374,0.0,-0.01,0.01,0.0,-9.942209726432338e-05,9.444961324334145e-05,0.0,1000,1000,1000,1000,12600,0,0.00291095650754869,0.002641846891492605,0.002597303129732609,10,{}
normal_corridor_base_10,0,none,29376,0.0009664271492511034,0.0007373483385890722,-0.06418295204639435,-35.3632621,149.1652374,0.0,-0.01,0.01,0.0,-9.94222064036876e-05,9.444967145100236e-05,0.0,1000,1000,1000,1000,12600,0,0.0027398555539548397,0.0027553716208785772,0.002511332044377923,10,{}
normal_corridor_base_10,0,none,29709,0.000976710463874042,0.0007438679458573461,-0.06466590613126755,-35.3632621,149.1652374,0.0,-0.01,0.02,0.0,-9.942229371517897e-05,9.444970055483282e-05,0.0,1000,1000,1000,1000,12600,0,0.002545869443565607,0.0029596525710076094,0.0026174827944487333,10,{}
normal_corridor_base_10,0,none,30042,0.0009896500268951058,0.0007608454907312989,-0.0653083398938179,-35.3632621,149.1652374,0.0,-0.01,0.02,0.0,-9.942229371517897e-05,9.444970055483282e-05,0.0,1000,1000,1000,1000,12600,0,0.003070092061534524,0.0027080499567091465,0.0028933780267834663,10,{}
normal_corridor_base_10,0,none,30359,0.0009993229759857059,0.0007764409529045224,-0.06582429260015488,-35.3632621,149.1652374,-0.001,-0.01,0.02,0.0,-9.942239557858557e-05,9.44497951422818e-05,0.0,1000,1000,1000,1000,12600,0,0.002423244994133711,0.0029068165458738804,0.0031264221761375666,10,{}
normal_corridor_base_10,0,none,30609,0.0009993229759857059,0.0007764409529045224,-0.06582429260015488,-35.3632621,149.1652374,-0.001,-0.01,0.02,0.0,-9.942236647475511e-05,9.444978059036657e-05,0.0,1000,1000,1000,1000,12600,0,0.0028111839201301336,0.0026091155596077442,0.002855250844731927,10,{}
normal_corridor_base_10,0,none,30859,0.0010112462332472205,0.0007880998309701681,-0.06652026623487473,-35.3632621,149.1652374,-0.001,-0.01,0.02,0.0,-9.942243195837364e-05,9.444985334994271e-05,0.0,1000,1000,1000,1000,12600,0,0.0027452956419438124,0.0027041237335652113,0.0029417253099381924,10,{}
normal_corridor_base_10,0,none,31109,0.0010179064702242613,0.0007949945284053683,-0.06697402894496918,-35.3632621,149.1652374,-0.002,-0.01,0.02,0.0,-9.942248289007694e-05,9.444986062590033e-05,0.0,1000,1000,1000,1000,12600,0,0.0025769108906388283,0.0027669810224324465,0.0030055949464440346,10,{}
normal_corridor_base_10,0,none,31359,0.001029076287522912,0.0007991655147634447,-0.06727168709039688,-35.3632621,149.1652374,-0.002,-0.01,0.02,0.0,-9.942250471794978e-05,9.444992610951886e-05,0.0,1000,1000,1000,1000,12600,0,0.002702842466533184,0.002921517239883542,0.0027641686610877514,10,{}
normal_corridor_base_10,0,none,31609,0.0010361296590417624,0.000807842705398798,-0.06767186522483826,-35.3632621,149.1652374,-0.002,-0.01,0.02,0.0,-9.942253382178023e-05,9.444995521334931e-05,0.0,1000,1000,1000,1000,12600,0,0.0028622495010495186,0.002820268040522933,0.002973902504891157,10,{}
normal_corridor_base_10,0,none,31859,0.0010438566096127033,0.0008081701234914362,-0.06792321056127548,-35.3632621,149.1652374,-0.003,-0.01,0.02,0.0,-9.942250471794978e-05,9.444991883356124e-05,0.0,1000,1000,1000,1000,12600,0,0.0028622495010495186,0.002820268040522933,0.002973902504891157,10,{}
normal_corridor_base_10,0,none,32109,0.0010471780551597476,0.0008110878989100456,-0.06837348639965057,-35.3632621,149.1652374,-0.003,-0.01,0.02,0.0,-9.942249016603455e-05,9.444988972973078e-05,0.0,1000,1000,1000,1000,12600,0,0.0027982147876173258,0.0028681610710918903,0.00251778750680387,10,{}
normal_corridor_base_10,0,none,32359,0.0010531051084399223,0.0008186129271052778,-0.0686645656824112,-35.3632621,149.1652374,-0.003,-0.01,0.02,0.0,-9.942246833816171e-05,9.444994066143408e-05,0.0,1000,1000,1000,1000,12600,0,0.002668726956471801,0.002872105222195387,0.002748265862464905,10,{}
normal_corridor_base_10,0,none,32609,0.0010639876127243042,0.0008273915736936033,-0.06912107020616531,-35.3632621,149.1652374,-0.003,-0.01,0.02,0.0,-9.942243923433125e-05,9.444992610951886e-05,0.0,1000,1000,1000,1000,12600,0,0.002662454964593053,0.002671991242095828,0.002990608336403966,10,{}
normal_corridor_base_10,0,none,32859,0.0010669417679309845,0.0008378917700611055,-0.06940210610628128,-35.3632621,149.1652374,-0.004,-0.01,0.02,0.0,-9.942243923433125e-05,9.444992610951886e-05,0.0,1000,1000,1000,1000,12600,0,0.002662454964593053,0.002671991242095828,0.002990608336403966,10,{}
normal_corridor_base_10,0,none,33109,0.0010747268097475171,0.0008536489331163466,-0.06983237713575363,-35.3632621,149.1652374,-0.004,-0.01,0.02,0.0,-9.942254109773785e-05,9.444991883356124e-05,0.0,1000,1000,1000,1000,12600,0,0.002875905018299818,0.002933219075202942,0.002705070422962308,10,{}
normal_corridor_base_10,0,none,33359,0.0010890571866184473,0.0008571227081120014,-0.07011707127094269,-35.3632621,149.1652374,-0.004,-0.01,0.02,0.0,-9.942254109773785e-05,9.444991883356124e-05,0.0,1000,1000,1000,1000,12600,0,0.0027748781722038984,0.0030470616184175014,0.002896881429478526,10,{}
normal_corridor_base_10,0,none,33934,0.001112920232117176,0.0008768925326876342,-0.07097995281219482,-35.3632621,149.1652374,-0.004,-0.01,0.02,0.0,-9.942254109773785e-05,9.444993338547647e-05,0.0,1000,1000,1000,1000,12600,0,0.00265585258603096,0.002816288499161601,0.0027749603614211082,10,{}
normal_corridor_base_10,0,none,34267,0.0011180307483300567,0.0008823166717775166,-0.07138734310865402,-35.3632621,149.1652374,-0.005,-0.02,0.02,0.0,-9.942249016603455e-05,9.444997704122216e-05,0.0,1000,1000,1000,1000,12600,0,0.003187718568369746,0.002557214815169573,0.0028858173172920942,10,{}
normal_corridor_base_10,0,none,34599,0.0011293322313576937,0.0008995511452667415,-0.07178836315870285,-35.3632621,149.1652374,-0.005,-0.02,0.02,0.0,-9.942241740645841e-05,9.444995521334931e-05,0.0,1000,1000,1000,1000,12600,0,0.0025467202067375183,0.0029307168442755938,0.0027971614617854357,10,{}
normal_corridor_base_10,0,none,34934,0.0011436032364144921,0.0009161864873021841,-0.07231877744197845,-35.3632621,149.1652374,-0.005,-0.02,0.02,0.0,-9.942241740645841e-05,9.444995521334931e-05,0.0,1000,1000,1000,1000,12600,0,0.002602976281195879,0.002955813193693757,0.0026752897538244724,10,{}
normal_corridor_base_10,0,none,35266,0.0011487524025142193,0.0009242033120244741,-0.07271582633256912,-35.3632621,149.1652374,-0.005,-0.02,0.02,0.0,-9.942235192283988e-05,9.444994066143408e-05,0.0,1000,1000,1000,1000,12600,0,0.003050436032935977,0.0028036360163241625,0.002765306271612644,10,{}
normal_corridor_base_10,0,none,35599,0.0011571799404919147,0.0009311920148320496,-0.07310416549444199,-35.3632621,149.1652374,-0.005,-0.02,0.02,0.0,-9.942236647475511e-05,9.444992610951886e-05,0.0,1000,1000,1000,1000,12600,0,0.0028139541391283274,0.002756791189312935,0.002751926425844431,10,{}
normal_corridor_base_10,0,none,35932,0.00116404565051198,0.0009336579823866487,-0.07360481470823288,-35.3632621,149.1652374,-0.005,-0.02,0.02,0.0,-9.942236647475511e-05,9.444992610951886e-05,0.0,1000,1000,1000,1000,12600,0,0.0027171289548277855,0.0028055484872311354,0.0029192829970270395,10,{}
normal_corridor_base_10,0,none,36264,0.001170528121292591,0.0009464701870456338,-0.07391981780529022,-35.3632621,149.1652374,-0.005,-0.02,0.02,0.0,-9.942231554305181e-05,9.444993338547647e-05,0.0,1000,1000,1000,1000,12600,0,0.0029029580764472485,0.002714900765568018,0.0028432519175112247,10,{}
normal_corridor_base_10,0,none,36597,0.0011802423978224397,0.0009602865902706981,-0.07430725544691086,-35.3632621,149.1652374,-0.005,-0.02,0.02,0.0,-9.942233737092465e-05,9.444991883356124e-05,0.0,1000,1000,1000,1000,12600,0,0.003022658871486783,0.0027224314399063587,0.0025844681076705456,10,{}
normal_corridor_base_10,0,none,36931,0.001190862967632711,0.0009793175850063562,-0.0747976079583168,-35.3632621,149.1652374,-0.005,-0.02,0.02,0.0,-9.942233737092465e-05,9.444991883356124e-05,0.0,1000,1000,1000,1000,12600,0,0.0026110990438610315,0.0027516516856849194,0.0025934309232980013,10,{}
normal_corridor_base_10,0,none,37264,0.0012001277646049857,0.0009929552907124162,-0.07516150921583176,-35.3632621,149.1652374,-0.005,-0.02,0.02,0.0,-9.942234464688227e-05,9.444988972973078e-05,0.0,1000,1000,1000,1000,12600,0,0.002824292751029134,0.002706769620999694,0.0029216131661087275,10,{}
normal_corridor_base_10,0,none,37596,0.0012074229307472706,0.0010030146222561598,-0.07552476227283478,-35.3632621,149.1652374,-0.005,-0.02,0.02,0.0,-9.942234464688227e-05,9.444991883356124e-05,0.0,1000,1000,1000,1000,12600,0,0.0026773237623274326,0.002539623063057661,0.0025658602826297283,10,{}
normal_corridor_base_10,0,none,37929,0.0012120612664148211,0.0010213989298790693,-0.07600623369216919,-35.3632621,149.1652374,-0.006,-0.02,0.02,0.0,-9.942234464688227e-05,9.444991883356124e-05,0.0,1000,1000,1000,1000,12600,0,0.0028869842644780874,0.002859637141227722,0.002794239204376936,10,{}
normal_corridor_base_10,0,none,38262,0.0012243296951055527,0.0010368941584601998,-0.07636692374944687,-35.3632621,149.1652374,-0.006,-0.02,0.02,0.0,-9.942233737092465e-05,9.444986062590033e-05,0.0,1000,1000,1000,1000,12600,0,0.0026529955212026834,0.0026476115453988314,0.002819475717842579,10,{}
normal_corridor_base_10,0,none,38597,0.0012321793474256992,0.001041569048538804,-0.076711505651474,-35.3632621,149.1652374,-0.006,-0.02,0.02,0.0,-9.942233009496704e-05,9.444986790185794e-05,0.0,1000,1000,1000,1000,12600,0,0.0027072664815932512,0.0029785262886434793,0.0027140367310494184,10,{}
normal_corridor_base_10,0,none,38929,0.0012465246254578233,0.0010564756812527776,-0.07717865705490112,-35.3632621,149.1652374,-0.006,-0.02,0.02,0.0,-9.942233009496704e-05,9.444986790185794e-05,0.0,1000,1000,1000,1000,12600,0,0.0027904417365789413,0.0032181052956730127,0.002738493960350752,10,{}
normal_corridor_base_10,0,none,39261,0.0012512682005763054,0.0010671456111595035,-0.07751814275979996,-35.3632621,149.1652374,-0.006,-0.02,0.02,0.0,-9.942228643922135e-05,9.444988245377317e-05,0.0,1000,1000,1000,1000,12600,0,0.0027881423011422157,0.0027455962263047695,0.002936313394457102,10,{}
normal_corridor_base_10,0,none,39594,0.0012484962353482842,0.001071806880645454,-0.07785364240407944,-35.3632621,149.1652374,-0.006,-0.02,0.02,0.0,-9.942227916326374e-05,9.444990428164601e-05,0.0,1000,1000,1000,1000,12600,0,0.0026907972060143948,0.0027407470624893904,0.002770392457023263,10,{}
normal_corridor_base_10,0,none,39929,0.0012581920018419623,0.0010778800351545215,-0.07829411327838898,-35.3632621,149.1652374,-0.006,-0.02,0.02,0.0,-9.942227916326374e-05,9.444990428164601e-05,0.0,1000,1000,1000,1000,12600,0,0.002710337983444333,0.0027437868993729353,0.002522646216675639,10,{}
normal_corridor_base_10,0,none,40262,0.001266474719159305,0.0010839018505066633,-0.07862132042646408,-35.3632621,149.1652374,-0.006,-0.02,0.02,0.0,-9.942224278347567e-05,9.444991155760363e-05,0.0,1000,1000,1000,1000,12600,0,0.0028805562760680914,0.0030367737635970116,0.0030532910022884607,10,{}
normal_corridor_base_10,0,none,40594,0.001275261864066124,0.0010924915550276637,-0.07893265783786774,-35.3632621,149.1652374,-0.006,-0.02,0.02,0.0,-9.942224278347567e-05,9.444992610951886e-05,0.0,1000,1000,1000,1000,12600,0,0.0027662625070661306,0.003018407616764307,0.0028865444473922253,10,{}
normal_corridor_base_10,0,none,40926,0.0012846479658037424,0.0010966288391500711,-0.07929883897304535,-35.3632621,149.1652374,-0.006,-0.02,0.02,0.0,-9.942224278347567e-05,9.444992610951886e-05,0.0,1000,1000,1000,1000,12600,0,0.0024383687414228916,0.0027100357692688704,0.002699620323255658,10,{}
normal_corridor_base_10,0,none,41259,0.0012899837456643581,0.00110961077734828,-0.0795874148607254,-35.3632621,149.1652374,-0.006,-0.02,0.02,0.0,-9.942227916326374e-05,9.444994066143408e-05,0.0,1000,1000,1000,1000,12600,0,0.0028997536282986403,0.0029945336282253265,0.002841535722836852,10,{}
normal_corridor_base_10,0,none,41594,0.001298242132179439,0.001116408733651042,-0.07989632338285446,-35.3632621,149.1652374,-0.006,-0.02,0.02,0.0,-9.94223082670942e-05,9.444991883356124e-05,0.0,1000,1000,1000,1000,12600,0,0.0027805448044091463,0.002743196440860629,0.002694526454433799,10,{}
normal_corridor_base_10,0,none,41926,0.001346265897154808,0.0011681774631142616,-0.08029813319444656,-35.3632621,149.1652374,-0.006,0.0,0.0,0.0,-9.94223082670942e-05,9.444991883356124e-05,0.0,1000,1000,1000,1000,12600,0,0.003054501488804817,0.002804793883115053,0.002864693058654666,10,{}
normal_corridor_base_10,0,none,42259,0.0014273561537265778,0.0012490579392760992,-0.08061246573925018,-35.3632621,149.1652374,-0.006,0.0,0.0,0.0,-9.942231554305181e-05,9.444991883356124e-05,0.0,1000,1000,1000,1000,12600,0,0.0026871643494814634,0.0027943348977714777,0.002762383781373501,10,{}
normal_corridor_base_10,0,none,42592,0.0014927689917385578,0.0013144504046067595,-0.08091738075017929,-35.3632621,149.1652374,-0.006,0.0,0.0,0.0,-9.942228643922135e-05,9.444991883356124e-05,0.0,1000,1000,1000,1000,12600,0,0.002950197085738182,0.0028438186272978783,0.0026201708242297173,10,{}
normal_corridor_base_10,0,none,42924,0.0015732344472780824,0.0013946057297289371,-0.08131525665521622,-35.3632621,149.1652374,-0.006,0.0,0.01,0.0,-9.942228643922135e-05,9.444991883356124e-05,0.0,1000,1000,1000,1000,12600,0,0.0028039622120559216,0.0026430217549204826,0.0026205964386463165,10,{}
normal_corridor_base_10,0,none,43259,0.0016253888607025146,0.0014437215868383646,-0.08162771165370941,-35.3632621,149.1652374,-0.006,-0.01,0.01,0.0,-9.942231554305181e-05,9.444992610951886e-05,0.0,1000,1000,1000,1000,12600,0,0.0030516821425408125,0.0028549274429678917,0.0029497980140149593,10,{}
normal_corridor_base_10,0,none,43591,0.0016474497970193624,0.0014653089456260204,-0.0819363221526146,-35.3632621,149.1652374,-0.006,-0.01,0.01,0.0,-9.94223591987975e-05,9.444986790185794e-05,0.0,1000,1000,1000,1000,12600,0,0.002715680981054902,0.0029887338168919086,0.002714055823162198,10,{}
normal_corridor_base_10,0,none,43924,0.001657768851146102,0.0014759245095774531,-0.08233794569969177,-35.3632621,149.1652374,-0.006,-0.01,0.01,0.0,-9.94223591987975e-05,9.444986790185794e-05,0.0,1000,1000,1000,1000,12600,0,0.0027601721230894327,0.003104353556409478,0.0025318509433418512,10,{}
normal_corridor_base_10,0,none,44257,0.0016491065034642816,0.001468662521801889,-0.08265255391597748,-35.3632621,149.1652374,-0.006,-0.01,0.01,0.0,-9.942238102667034e-05,9.444988245377317e-05,0.0,1000,1000,1000,1000,12600,0,0.002713028807193041,0.0027850926853716373,0.003129983553662896,10,{}
normal_corridor_base_10,0,none,44589,0.001617803005501628,0.0014299278846010566,-0.08294081687927246,-35.3632621,149.1652375,-0.006,-0.01,0.02,0.0,-9.94223591987975e-05,9.444986790185794e-05,0.0,1000,1000,1000,1000,12600,0,0.0029258800204843283,0.0029323736671358347,0.0026531293988227844,10,{}
normal_corridor_base_10,0,none,44922,0.0015574085991829634,0.0013748082565143704,-0.08331286907196045,-35.3632621,149.1652375,-0.006,-0.01,0.02,0.0,-9.94223591987975e-05,9.444986790185794e-05,0.0,1000,1000,1000,1000,12600,0,0.0028298792894929647,0.0029094493947923183,0.002907759975641966,10,{}
normal_corridor_base_10,0,none,45359,0.001479779719375074,0.0012987024383619428,-0.08371084183454514,-35.3632622,149.1652375,-0.006,-0.01,0.02,0.0,-9.942233009496704e-05,9.444985334994271e-05,0.0,1000,1000,1000,1000,12600,0,0.0027639411855489016,0.0028716193046420813,0.002748779021203518,10,{}
normal_corridor_base_10,0,none,45609,0.0014392905868589878,0.0012611208949238062,-0.08392900973558426,-35.3632622,149.1652375,-0.006,-0.01,0.02,0.0,-9.942233737092465e-05,9.444988972973078e-05,0.0,1000,1000,1000,1000,12600,0,0.0026382827199995518,0.0028984176460653543,0.0026141763664782047,10,{}
normal_corridor_base_10,0,none,45859,0.0013833766570314765,0.0012024238239973783,-0.0841258093714714,-35.3632622,149.1652375,-0.006,-0.01,0.02,0.0,-9.942232281900942e-05,9.444988245377317e-05,0.0,1000,1000,1000,1000,12600,0,0.0030986382625997066,0.0027661113999783993,0.0028485991060733795,10,{}
normal_corridor_base_10,0,none,46109,0.0013420513132587075,0.001157171092927456,-0.0843360424041748,-35.3632622,149.1652375,-0.006,-0.01,0.01,0.0,-9.942230099113658e-05,9.444987517781556e-05,0.0,1000,1000,1000,1000,12600,0,0.002964441664516926,0.0029269512742757797,0.002818138338625431,10,{}
normal_corridor_base_10,0,none,46359,0.001302353455685079,0.0011119218543171883,-0.08450280129909515,-35.3632622,149.1652375,-0.006,-0.01,0.01,0.0,-9.942227916326374e-05,9.444988245377317e-05,0.0,1000,1000,1000,1000,12600,0,0.0026376990135759115,0.0026923753321170807,0.002795394277200103,10,{}
normal_corridor_base_10,0,none,46609,0.0012745825806632638,0.0010905761737376451,-0.0846693366765976,-35.3632622,149.1652375,-0.006,-0.01,0.01,0.0,-9.942231554305181e-05,9.444991883356124e-05,0.0,1000,1000,1000,1000,12600,0,0.002608353039249778,0.0027677789330482483,0.0025946777313947678,10,{}
normal_corridor_base_10,0,none,46859,0.0012297575594857335,0.0010503710946068168,-0.08486422151327133,-35.3632622,149.1652375,-0.006,-0.01,0.01,0.0,-9.942224278347567e-05,9.444988972973078e-05,0.0,1000,1000,1000,1000,12600,0,0.002910564886406064,0.002735384739935398,0.002434569178149104,10,{}
normal_corridor_base_10,0,none,47109,0.001197610516101122,0.001022752607241273,-0.08504755795001984,-35.3632621,149.1652375,-0.006,-0.01,0.01,0.0,-9.942224278347567e-05,9.444992610951886e-05,0.0,1000,1000,1000,1000,12600,0,0.002830331912264228,0.0026740948669612408,0.002407713560387492,10,{}
normal_corridor_base_10,0,none,47359,0.0011716082226485014,0.0010006602387875319,-0.08523144572973251,-35.3632621,149.1652375,-0.006,-0.01,0.01,0.0,-9.942222095560282e-05,9.444990428164601e-05,0.0,1000,1000,1000,1000,12600,0,0.002942302729934454,0.00285010295920074,0.0027276657056063414,10,{}
normal_corridor_base_10,0,none,47609,0.0011574157979339361,0.0009868261404335499,-0.08540232479572296,-35.3632621,149.1652375,-0.006,-0.01,0.01,0.0,-9.942217729985714e-05,9.444986790185794e-05,0.0,1000,1000,1000,1000,12600,0,0.0027303090319037437,0.0027330066077411175,0.002782264491543174,10,{}
normal_corridor_base_10,0,none,47859,0.0011315657757222652,0.0009639391209930182,-0.08558480441570282,-35.3632621,149.1652375,-0.006,-0.01,0.01,0.0,-9.942214819602668e-05,9.444982424611226e-05,0.0,1000,1000,1000,1000,12600,0,0.002810887759551406,0.002708232030272484,0.002716965042054653,10,{}
normal_corridor_base_10,0,none,48109,0.0011161502916365862,0.0009478863212279975,-0.08574502170085907,-35.3632621,149.1652375,-0.006,-0.01,0.01,0.0,-9.942212636815384e-05,9.444983152206987e-05,0.0,1000,1000,1000,1000,12600,0,0.0030491205397993326,0.002733191242441535,0.002740527968853712,10,{}
normal_corridor_base_10,0,none,48359,0.0011058845557272434,0.00093656504759565,-0.0859261080622673,-35.3632621,149.1652375,-0.006,-0.01,0.01,0.0,-9.9422104540281e-05,9.444981697015464e-05,0.0,1000,1000,1000,1000,12600,0,0.0027207722887396812,0.0029172629583626986,0.0028043659403920174,10,{}
normal_corridor_base_10,0,none,48609,0.001100630033761263,0.0009317060466855764,-0.08608795702457428,-35.3632621,149.1652375,-0.006,-0.01,0.01,0.0,-9.942208271240816e-05,9.444980969419703e-05,0.0,1000,1000,1000,1000,12600,0,0.0028970411513000727,0.002719205105677247,0.002963472856208682,10,{}
normal_corridor_base_10,0,none,48859,0.0010899169137701392,0.0009227179689332843,-0.08624119311571121,-35.3632621,149.1652375,-0.006,-0.01,0.01,0.0,-9.942207543645054e-05,9.444978786632419e-05,0.0,1000,1000,1000,1000,12600,0,0.0027527327183634043,0.003072954947128892,0.002835240913555026,10,{}
normal_corridor_base_10,0,none,49109,0.0010844735661521554,0.0009155903244391084,-0.08641602098941803,-35.3632621,149.1652375,-0.006,-0.01,0.01,0.0,-9.942202450474724e-05,9.444976603845134e-05,0.0,1000,1000,1000,1000,12600,0,0.0029563058633357286,0.002996875671669841,0.0026840369682759047,10,{}
normal_corridor_base_10,0,none,49359,0.0010836297878995538,0.0009114728891290724,-0.0865660011768341,-35.3632621,149.1652375,-0.006,-0.01,0.01,0.0,-9.942198812495917e-05,9.444977331440896e-05,0.0,1000,1000,1000,1000,12600,0,0.0026542518753558397,0.002578223589807749,0.00275064492598176,10,{}
normal_corridor_base_10,0,none,49609,0.001083314185962081,0.0009116774308495224,-0.08672421425580978,-35.3632621,149.1652375,-0.006,-0.01,0.01,0.0,-9.942197357304394e-05,9.444972965866327e-05,0.0,1000,1000,1000,1000,12600,0,0.0027467922773212194,0.0029318167362362146,0.0026389684062451124,10,{}
normal_corridor_base_10,0,none,49859,0.0010767091298475862,0.0009133914718404412,-0.08688103407621384,-35.3632621,149.1652375,-0.006,-0.01,0.01,0.0,-9.942198812495917e-05,9.444971510674804e-05,0.0,1000,1000,1000,1000,12600,0,0.0026736531872302294,0.0027801760006695986,0.0026876882184296846,10,{}
normal_corridor_base_10,0,none,50109,0.0010772880632430315,0.0009144202340394258,-0.08704080432653427,-35.3632621,149.1652375,-0.006,-0.01,0.01,0.0,-9.942198812495917e-05,9.444970055483282e-05,0.0,1000,1000,1000,1000,12600,0,0.002833524253219366,0.0027619735337793827,0.0027765596751123667,10,{}
normal_corridor_base_10,0,none,50359,0.0010808486258611083,0.0009159551118500531,-0.08718887716531754,-35.3632621,149.1652375,-0.006,-0.01,0.01,0.0,-9.942198084900156e-05,9.444967145100236e-05,0.0,1000,1000,1000,1000,12600,0,0.0024278932251036167,0.0027282009832561016,0.002920859958976507,10,{}
normal_corridor_base_10,0,none,50609,0.001082921284250915,0.00091378582874313,-0.08735262602567673,-35.3632621,149.1652375,-0.006,-0.01,0.01,0.0,-9.94219517451711e-05,9.44495914154686e-05,0.0,1000,1000,1000,1000,12600,0,0.0028795383404940367,0.002912558615207672,0.002705363789573312,10,{}
normal_corridor_base_10,0,none,50859,0.0010856396984308958,0.0009125049691647291,-0.08749187737703323,-35.3632621,149.1652375,-0.006,-0.01,0.01,0.0,-9.94219517451711e-05,9.444958413951099e-05,0.0,1000,1000,1000,1000,12600,0,0.002730251755565405,0.00309019279666245,0.0029180580750107765,10,{}
normal_corridor_base_10,0,none,51109,0.001086049946025014,0.0009131146362051368,-0.08764593303203583,-35.3632621,149.1652375,-0.006,-0.01,0.01,0.0,-9.942192991729826e-05,9.444955503568053e-05,0.0,1000,1000,1000,1000,12600,0,0.002759188413619995,0.0027631274424493313,0.002692399313673377,10,{}
normal_corridor_base_10,0,none,51359,0.0010868506506085396,0.0009175626910291612,-0.08778399229049683,-35.3632621,149.1652375,-0.006,-0.01,0.01,0.0,-9.942188626155257e-05,9.444951865589246e-05,0.0,1000,1000,1000,1000,12600,0,0.0028520594350993633,0.0027719265781342983,0.002561443718150258,10,{}
normal_corridor_base_10,0,none,51609,0.0010907595278695226,0.0009178295731544495,-0.08793086558580399,-35.3632621,149.1652375,-0.006,-0.01,0.01,0.0,-9.942188626155257e-05,9.444949682801962e-05,0.0,1000,1000,1000,1000,12600,0,0.0028616972267627716,0.0030034955125302076,0.002972721355035901,10,{}
normal_corridor_base_10,0,none,51859,0.0010945609537884593,0.0009136635926552117,-0.08806651085615158,-35.3632621,149.1652375,-0.006,-0.01,0.01,0.0,-9.94219008134678e-05,9.444951137993485e-05,0.0,1000,1000,1000,1000,12600,0,0.002981453202664852,0.0026728399097919464,0.0029063106048852205,10,{}
normal_corridor_base_10,0,none,52109,0.001098877633921802,0.0009065615013241768,-0.08821754157543182,-35.3632621,149.1652375,-0.006,-0.01,0.01,0.0,-9.94219008134678e-05,9.4449489552062e-05,0.0,1000,1000,1000,1000,12600,0,0.002923040883615613,0.0024742335081100464,0.0028510168194770813,10,{}
normal_corridor_base_10,0,none,52359,0.0011044458951801062,0.0009058786672540009,-0.08834592998027802,-35.3632621,149.1652375,-0.006,-0.01,0.01,0.0,-9.942188626155257e-05,9.444948227610439e-05,0.0,1000,1000,1000,1000,12600,0,0.002700075274333358,0.0028381752781569958,0.0027657821774482727,10,{}
normal_corridor_base_10,0,none,52609,0.0011101830750703812,0.0009166558738797903,-0.08846187591552734,-35.3632621,149.1652375,-0.006,-0.01,0.01,0.0,-9.942186443367973e-05,9.444945317227393e-05,0.0,1000,1000,1000,1000,12600,0,0.0030767873395234346,0.0026920665986835957,0.0027921046130359173,10,{}
normal_corridor_base_10,0,none,52859,0.001110072247684002,0.0009179531480185688,-0.08859670162200928,-35.3632621,149.1652375,-0.006,-0.01,0.01,0.0,-9.942185715772212e-05,9.444943134440109e-05,0.0,1000,1000,1000,1000,12600,0,0.002855975879356265,0.00301144877448678,0.002883042674511671,10,{}
normal_corridor_base_10,0,none,53109,0.0011106115998700261,0.0009145463118329644,-0.08872945606708527,-35.3632621,149.1652375,-0.006,-0.01,0.01,0.0,-9.942184260580689e-05,9.444942406844348e-05,0.0,1000,1000,1000,1000,12600,0,0.0026552360504865646,0.0027969314251095057,0.0027470001950860023,10,{}
normal_corridor_base_10,0,none,53359,0.0011165087344124913,0.0009218102204613388,-0.08887452632188797,-35.3632621,149.1652375,-0.006,-0.01,0.01,0.0,-9.942185715772212e-05,9.444944589631632e-05,0.0,1000,1000,1000,1000,12600,0,0.002825675532221794,0.0025820410810410976,0.002596509177237749,10,{}
normal_corridor_base_10,0,none,53609,0.001130168791860342,0.0009308191947638988,-0.0890049859881401,-35.3632621,149.1652375,-0.006,-0.01,0.01,0.0,-9.942181350197643e-05,9.444940951652825e-05,0.0,1000,1000,1000,1000,12600,0,0.002713617868721485,0.00301196682266891,0.0027076255064457655,10,{}
normal_corridor_base_10,0,none,53859,0.0011319947661831975,0.0009267268469557166,-0.08913467079401016,-35.3632621,149.1652375,-0.006,-0.01,0.01,0.0,-9.942180622601882e-05,9.444942406844348e-05,0.0,1000,1000,1000,1000,12600,0,0.002530421130359173,0.0027555502019822598,0.002873047022148967,10,{}
normal_corridor_base_10,0,none,54109,0.0011332229478284717,0.000935083138756454,-0.08926977217197418,-35.3632621,149.1652375,-0.006,-0.01,0.01,0.0,-9.942177712218836e-05,9.444941679248586e-05,0.0,1000,1000,1000,1000,12600,0,0.0029445025138556957,0.0027861802373081446,0.0029055504128336906,10,{}
normal_corridor_base_10,0,none,54359,0.0011347508989274502,0.0009401349816471338,-0.08939773589372635,-35.3632621,149.1652375,-0.006,-0.01,0.01,0.0,-9.942174074240029e-05,9.444936586078256e-05,0.0,1000,1000,1000,1000,12600,0,0.0029112566262483597,0.0028869768138974905,0.0029184368904680014,10,{}
normal_corridor_base_10,0,none,54609,0.001145130256190896,0.0009490324300713837,-0.0895230695605278,-35.3632621,149.1652375,-0.006,-0.01,0.01,0.0,-9.942173346644267e-05,9.444938041269779e-05,0.0,1000,1000,1000,1000,12600,0,0.002589056733995676,0.0028299414552748203,0.0026409763377159834,10,{}
normal_corridor_base_10,0,none,54859,0.001145048881880939,0.0009480275330133736,-0.0896439254283905,-35.3632621,149.1652375,-0.006,-0.01,0.01,0.0,-9.942174074240029e-05,9.444932948099449e-05,0.0,1000,1000,1000,1000,12600,0,0.003179901046678424,0.0028269935864955187,0.002934572286903858,10,{}
normal_corridor_base_10,0,none,55109,0.0011465181596577168,0.0009495709673501551,-0.08977226912975311,-35.3632621,149.1652375,-0.006,-0.01,0.01,0.0,-9.942173346644267e-05,9.444930037716404e-05,0.0,1000,1000,1000,1000,12600,0,0.0027986096683889627,0.0028150491416454315,0.002693748101592064,10,{}
normal_corridor_base_10,0,none,55359,0.001146455411799252,0.0009526344947516918,-0.08989261090755463,-35.3632621,149.1652375,-0.006,-0.01,0.01,0.0,-9.942174074240029e-05,9.444929310120642e-05,0.0,1000,1000,1000,1000,12600,0,0.0025653615593910217,0.002535554813221097,0.0026234781835228205,10,{}
normal_corridor_base_10,0,none,55609,0.0011497512459754944,0.0009569270769134164,-0.09002306312322617,-35.3632621,149.1652375,-0.006,-0.01,0.01,0.0,-9.942168981069699e-05,9.444924944546074e-05,0.0,1000,1000,1000,1000,12600,0,0.002817535540089011,0.003212274983525276,0.002643297892063856,10,{}
normal_corridor_base_10,0,none,55859,0.001146637019701302,0.0009505224879831076,-0.0901414081454277,-35.3632621,149.1652375,-0.006,-0.01,0.01,0.0,-9.942170436261222e-05,9.444929310120642e-05,0.0,1000,1000,1000,1000,12600,0,0.0026250488590449095,0.0027982108294963837,0.0025702097918838263,10,{}
normal_corridor_base_10,0,none,56109,0.0011456083739176393,0.0009517219150438905,-0.09026864171028137,-35.3632621,149.1652375,-0.006,-0.01,0.01,0.0,-9.942168253473938e-05,9.444927127333358e-05,0.0,1000,1000,1000,1000,12600,0,0.0027849364560097456,0.002856514183804393,0.003040461568161845,10,{}
normal_corridor_base_10,0,none,56359,0.001150742289610207,0.0009558619349263608,-0.09038730710744858,-35.3632621,149.1652375,-0.006,-0.01,0.01,0.0,-9.942167525878176e-05,9.444924216950312e-05,0.0,1000,1000,1000,1000,12600,0,0.0027203415520489216,0.002890425967052579,0.003163292771205306,10,{}
normal_corridor_base_10,0,none,56609,0.0011518693063408136,0.0009608949767425656,-0.09050985425710678,-35.3632621,149.1652375,-0.006,-0.01,0.01,0.0,-9.94216970866546e-05,9.444927127333358e-05,0.0,1000,1000,1000,1000,12600,0,0.0027449512854218483,0.0026981437113136053,0.0027362967375665903,10,{}
normal_corridor_base_10,0,none,56859,0.0011375400936231017,0.0009584983345121145,-0.0905952900648117,-35.3632621,149.1652375,-0.006,-0.01,0.01,0.0,-9.94217480183579e-05,9.444930037716404e-05,0.0,1000,1000,1000,1000,12600,0,0.0028893600683659315,0.0026930251624435186,0.0027068881317973137,10,{}
normal_corridor_base_10,0,none,57109,0.0011328201508149505,0.0009548915550112724,-0.09071136265993118,-35.3632621,149.1652375,-0.006,-0.01,0.01,0.0,-9.942180622601882e-05,9.444932220503688e-05,0.0,1000,1000,1000,1000,12600,0,0.00275367870926857,0.00308021972887218,0.0027672003488987684,10,{}
normal_corridor_base_10,0,none,57359,0.0011408270802348852,0.0009573363931849599,-0.09083059430122375,-35.3632621,149.1652375,-0.006,-0.01,0.01,0.0,-9.942182077793404e-05,9.444934403290972e-05,0.0,1000,1000,1000,1000,12600,0,0.002756827510893345,0.0028920324984937906,0.002678319113329053,10,{}
normal_corridor_base_10,0,none,57609,0.0011471644975245,0.0009653907036408782,-0.09094556421041489,-35.3632622,149.1652375,-0.006,-0.01,0.01,0.0,-9.942181350197643e-05,9.444935130886734e-05,0.0,1000,1000,1000,1000,12600,0,0.0026882162783294916,0.002612355398014188,0.002521827584132552,10,{}
normal_corridor_base_10,0,none,57859,0.0011461941758170724,0.0009619080810807645,-0.09105420857667923,-35.3632622,149.1652375,-0.006,-0.01,0.01,0.0,-9.942182805389166e-05,9.444936586078256e-05,0.0,1000,1000,1000,1000,12600,0,0.0026686876080930233,0.0025595328770577908,0.002613175194710493,10,{}
normal_corridor_base_10,0,none,58109,0.0011505525326356292,0.0009610041161067784,-0.09116332978010178,-35.3632621,149.1652375,-0.006,-0.01,0.01,0.0,-9.942185715772212e-05,9.444940224057063e-05,0.0,1000,1000,1000,1000,12600,0,0.0025921626947820187,0.002722289878875017,0.0025753893423825502,10,{}
normal_corridor_base_10,0,none,58359,0.001154232071712613,0.000966985709965229,-0.09127876162528992,-35.3632622,149.1652375,-0.006,-0.01,0.01,0.0,-9.94218498817645e-05,9.444938041269779e-05,0.0,1000,1000,1000,1000,12600,0,0.003136976854875684,0.00285535492002964,0.002741058124229312,10,{}
normal_corridor_base_10,0,none,58609,0.0011553011136129498,0.0009718756773509085,-0.09138531237840652,-35.3632622,149.1652375,-0.006,-0.01,0.01,0.0,-9.942191536538303e-05,9.444943134440109e-05,0.0,1000,1000,1000,1000,12600,0,0.0033145740162581205,0.0030581026803702116,0.0028399054426699877,10,{}
normal_corridor_base_10,0,none,58859,0.00115388969425112,0.0009682156960479915,-0.09149821102619171,-35.3632621,149.1652375,-0.006,-0.01,0.01,0.0,-9.94219517451711e-05,9.444946772418916e-05,0.0,1000,1000,1000,1000,12600,0,0.002873932244256139,0.002750982763245702,0.002643563784658909,10,{}
normal_corridor_base_10,0,none,59109,0.0011556694516912103,0.0009694803738966584,-0.09160532802343369,-35.3632621,149.1652375,-0.006,-0.01,0.01,0.0,-9.942192264134064e-05,9.444939496461302e-05,0.0,1000,1000,1000,1000,12600,0,0.002709657186642289,0.0027901530265808105,0.002635806333273649,10,{}
normal_corridor_base_10,0,none,59359,0.001157964114099741,0.0009754665661603212,-0.09170641750097275,-35.3632621,149.1652375,-0.006,-0.01,0.01,0.0,-9.942193719325587e-05,9.44493876886554e-05,0.0,1000,1000,1000,1000,12600,0,0.002986150560900569,0.0025646232534199953,0.0026288125663995743,10,{}
normal_corridor_base_10,0,none,59609,0.0011633834801614285,0.0009801442502066493,-0.09181450307369232,-35.3632622,149.1652375,-0.006,-0.01,0.01,0.0,-9.942194446921349e-05,9.444936586078256e-05,0.0,1000,1000,1000,1000,12600,0,0.0029572832863777876,0.0027076476253569126,0.0027441259007900953,10,{}
normal_corridor_base_10,0,none,59859,0.001150948228314519,0.0009753514314070344,-0.09191413968801498,-35.3632621,149.1652375,-0.006,-0.01,0.01,0.0,-9.942197357304394e-05,9.44493876886554e-05,0.0,1000,1000,1000,1000,12600,0,0.002691302914172411,0.0028327982872724533,0.002781176706776023,10,{}
normal_corridor_base_10,0,none,60109,0.001150992582552135,0.0009697595960460603,-0.0920155718922615,-35.3632621,149.1652375,-0.006,-0.01,0.01,0.0,-9.942198812495917e-05,9.444936586078256e-05,0.0,1000,1000,1000,1000,12600,0,0.0030766644049435854,0.0027686390094459057,0.0027320855297148228,10,{}
normal_corridor_base_10,0,none,60359,0.001152415294200182,0.0009686223929747939,-0.0921175554394722,-35.3632621,149.1652375,-0.006,-0.01,0.01,0.0,-9.942203178070486e-05,9.444936586078256e-05,0.0,1000,1000,1000,1000,12600,0,0.00264367600902915,0.0028392449021339417,0.0027064899913966656,10,{}
normal_corridor_base_10,0,none,60609,0.0011598190758377314,0.0009716156055219471,-0.09221701323986053,-35.3632622,149.1652375,-0.006,-0.01,0.01,0.0,-9.942204633262008e-05,9.444936586078256e-05,0.0,1000,1000,1000,1000,12600,0,0.0027707696426659822,0.002933873562142253,0.0028347743209451437,10,{}
normal_corridor_base_10,0,none,60859,0.0011506222654134035,0.0009574568248353899,-0.09232082962989807,-35.3632621,149.1652375,-0.006,-0.01,0.01,0.0,-9.942202450474724e-05,9.444936586078256e-05,0.0,1000,1000,1000,1000,12600,0,0.002845232840627432,0.0027584449853748083,0.00260436930693686,10,{}
normal_corridor_base_10,0,none,61109,0.0011541894637048244,0.0009530831011943519,-0.09242058545351028,-35.3632621,149.1652375,-0.006,-0.01,0.01,0.0,-9.94220536085777e-05,9.444938041269779e-05,0.0,1000,1000,1000,1000,12600,0,0.002466082340106368,0.0028912045527249575,0.00280753243714571,10,{}
normal_corridor_base_10,0,none,61359,0.001157370861619711,0.0009573562419973314,-0.09250995516777039,-35.3632622,149.1652375,-0.006,-0.01,0.01,0.0,-9.942203905666247e-05,9.444936586078256e-05,0.0,1000,1000,1000,1000,12600,0,0.0032029920257627964,0.0030849571339786053,0.0030326165724545717,10,{}
normal_corridor_base_10,0,none,61609,0.001163512235507369,0.0009605655213817954,-0.09260693937540054,-35.3632622,149.1652375,-0.006,-0.01,0.01,0.0,-9.942208271240816e-05,9.444936586078256e-05,0.0,1000,1000,1000,1000,12600,0,0.0027413039933890104,0.0028050777036696672,0.0029552169144153595,10,{}
normal_corridor_base_10,0,none,61859,0.0011544275330379605,0.0009527966612949967,-0.09268105775117874,-35.3632622,149.1652375,-0.006,-0.01,0.01,0.0,-9.942208998836577e-05,9.444940224057063e-05,0.0,1000,1000,1000,1000,12600,0,0.0028701815754175186,0.0027552323881536722,0.003020034870132804,10,{}
normal_corridor_base_10,0,none,62109,0.0011569677153602242,0.0009554944699630141,-0.09277230501174927,-35.3632622,149.1652375,-0.006,-0.01,0.01,0.0,-9.9422104540281e-05,9.444942406844348e-05,0.0,1000,1000,1000,1000,12600,0,0.002576263854280114,0.0028237842489033937,0.00281587615609169,10,{}
normal_corridor_base_10,0,none,62359,0.001162378117442131,0.0009543164051137865,-0.09286495298147202,-35.3632622,149.1652375,-0.006,-0.01,0.01,0.0,-9.942212636815384e-05,9.444945317227393e-05,0.0,1000,1000,1000,1000,12600,0,0.0026123153511434793,0.0026703509502112865,0.0027822148986160755,10,{}
normal_corridor_base_10,0,none,62609,0.0011630640365183353,0.0009633832378312945,-0.09295174479484558,-35.3632622,149.1652375,-0.006,-0.01,0.01,0.0,-9.942212636815384e-05,9.444947500014678e-05,0.0,1000,1000,1000,1000,12600,0,0.002607963513582945,0.00300018722191453,0.0027914310339838266,10,{}
normal_corridor_base_10,0,none,62859,0.0011604845058172941,0.0009619378834031522,-0.09304547309875488,-35.3632621,149.1652375,-0.006,-0.01,0.01,0.0,-9.942214092006907e-05,9.4449489552062e-05,0.0,1000,1000,1000,1000,12600,0,0.002651479560881853,0.003121313638985157,0.0026552302297204733,10,{}
normal_corridor_base_10,0,none,63109,0.0011601106962189078,0.0009673222666606307,-0.09314198791980743,-35.3632622,149.1652375,-0.006,-0.01,0.01,0.0,-9.942209726432338e-05,9.444941679248586e-05,0.0,1000,1000,1000,1000,12600,0,0.002965441904962063,0.002840616274625063,0.00271061179228127,10,{}
normal_corridor_base_10,0,none,63359,0.001159029663540423,0.000966163061093539,-0.09323614090681076,-35.3632622,149.1652375,-0.006,-0.01,0.01,0.0,-9.942212636815384e-05,9.444942406844348e-05,0.0,1000,1000,1000,1000,12600,0,0.002757894340902567,0.0027701384387910366,0.0028627743013203144,10,{}
normal_corridor_base_10,0,none,63609,0.0011627719504758716,0.0009760424145497382,-0.09332115203142166,-35.3632622,149.1652375,-0.006,-0.01,0.01,0.0,-9.942211181623861e-05,9.44493876886554e-05,0.0,1000,1000,1000,1000,12600,0,0.0028746810276061296,0.002498235320672393,0.002747178077697754,10,{}
normal_corridor_base_10,0,none,63859,0.0011575233656913042,0.0009708762518130243,-0.09340231865644455,-35.3632622,149.1652375,-0.006,-0.01,0.01,0.0,-9.942208998836577e-05,9.444940951652825e-05,0.0,1000,1000,1000,1000,12600,0,0.002889009192585945,0.0030402233824133873,0.0028160575311630964,10,{}
normal_corridor_base_10,0,none,64109,0.0011629948858171701,0.0009625497623346746,-0.09349004924297333,-35.3632622,149.1652375,-0.006,-0.01,0.01,0.0,-9.942211909219623e-05,9.444942406844348e-05,0.0,1000,1000,1000,1000,12600,0,0.0027221243362873793,0.003016339847818017,0.0031026387587189674,10,{}
normal_corridor_base_10,0,none,64359,0.0011643841862678528,0.0009647234110161662,-0.0935746431350708,-35.3632622,149.1652375,-0.006,-0.01,0.01,0.0,-9.942214819602668e-05,9.444943134440109e-05,0.0,1000,1000,1000,1000,12600,0,0.0028825874906033278,0.00287686032243073,0.002806844422593713,10,{}
normal_corridor_base_10,0,none,64609,0.0011742374626919627,0.0009671474690549076,-0.09366049617528915,-35.3632622,149.1652375,-0.006,-0.01,0.01,0.0,-9.942217002389953e-05,9.444946044823155e-05,0.0,1000,1000,1000,1000,12600,0,0.002824182389304042,0.0028840594459325075,0.0029115660581737757,10,{}
normal_corridor_base_10,0,none,64859,0.0011716042645275593,0.0009586861706338823,-0.09374558180570602,-35.3632621,149.1652375,-0.006,-0.01,0.01,0.0,-9.942219912772998e-05,9.444946772418916e-05,0.0,1000,1000,1000,1000,12600,0,0.0028020250611007214,0.0029560797847807407,0.0029144000727683306,10,{}
normal_corridor_base_10,0,none,65109,0.0011645675403997302,0.0009521180763840675,-0.09383203834295273,-35.3632621,149.1652375,-0.006,-0.01,0.01,0.0,-9.942217729985714e-05,9.444945317227393e-05,0.0,1000,1000,1000,1000,12600,0,0.002846860559657216,0.0030448264442384243,0.0027191070839762688,10,{}
normal_corridor_base_10,0,none,65359,0.0011631917441263795,0.0009598119067959487,-0.09391213208436966,-35.3632622,149.1652375,-0.006,-0.01,0.01,0.0,-9.942219185177237e-05,9.444947500014678e-05,0.0,1000,1000,1000,1000,12600,0,0.0028156533371657133,0.002865562215447426,0.0028732996433973312,10,{}
normal_corridor_base_10,0,none,65609,0.0011656945571303368,0.0009660765063017607,-0.09399912506341934,-35.3632622,149.1652375,-0.006,-0.01,0.01,0.0,-9.942219912772998e-05,9.4449489552062e-05,0.0,1000,1000,1000,1000,12600,0,0.0026665946934372187,0.002545934170484543,0.002667010063305497,10,{}
normal_corridor_base_10,0,none,65859,0.0011626722989603877,0.0009607851970940828,-0.09408099204301834,-35.3632621,149.1652375,-0.006,-0.01,0.01,0.0,-9.942219912772998e-05,9.4449489552062e-05,0.0,1000,1000,1000,1000,12600,0,0.0026679912116378546,0.0029578441753983498,0.002627108246088028,10,{}
normal_corridor_base_10,0,none,66109,0.0011652786051854491,0.0009615044109523296,-0.09416186809539795,-35.3632621,149.1652375,-0.006,-0.01,0.01,0.0,-9.942219185177237e-05,9.4449489552062e-05,0.0,1000,1000,1000,1000,12600,0,0.002651833463460207,0.002939603989943862,0.002944599138572812,10,{}
normal_corridor_base_10,0,none,66359,0.0011716493172571063,0.0009616982424631715,-0.0942365825176239,-35.3632621,149.1652375,-0.006,-0.01,0.01,0.0,-9.942219912772998e-05,9.444951137993485e-05,0.0,1000,1000,1000,1000,12600,0,0.0028581684455275536,0.002851201221346855,0.0026736941654235125,10,{}
normal_corridor_base_10,0,none,66609,0.0011715091532096267,0.0009742812835611403,-0.09432173520326614,-35.3632622,149.1652375,-0.006,-0.01,0.01,0.0,-9.942217729985714e-05,9.444947500014678e-05,0.0,1000,1000,1000,1000,12600,0,0.0029005699325352907,0.0027807378210127354,0.002708904445171356,10,{}
normal_corridor_base_10,0,none,66859,0.001172133139334619,0.0009718957007862628,-0.09439142793416977,-35.3632621,149.1652375,-0.006,-0.01,0.01,0.0,-9.942214819602668e-05,9.444947500014678e-05,0.0,1000,1000,1000,1000,12600,0,0.0024763979017734528,0.0028172589372843504,0.002990212058648467,10,{}
normal_corridor_base_10,0,none,67109,0.001171556068584323,0.000970413675531745,-0.09445430338382721,-35.3632621,149.1652375,-0.006,-0.01,0.01,0.0,-9.94221554719843e-05,9.444950410397723e-05,0.0,1000,1000,1000,1000,12600,0,0.0029315960127860308,0.002608770038932562,0.0031276470981538296,10,{}
normal_corridor_base_10,0,none,67359,0.0011740743648260832,0.0009744778508320451,-0.0945136770606041,-35.3632622,149.1652375,-0.006,-0.01,0.01,0.0,-9.942217002389953e-05,9.444951137993485e-05,0.0,1000,1000,1000,1000,12600,0,0.0030050098430365324,0.0028587067499756813,0.0028557695914059877,10,{}
normal_corridor_base_10,0,none,67609,0.0011759717017412186,0.0009822900174185634,-0.09459088742733002,-35.3632622,149.1652375,-0.006,-0.01,0.01,0.0,-9.94222064036876e-05,9.4449489552062e-05,0.0,1000,1000,1000,1000,12600,0,0.0025982896331697702,0.002940783742815256,0.002750343643128872,10,{}
normal_corridor_base_10,0,none,67859,0.001177049707621336,0.000982400611974299,-0.09466646611690521,-35.3632622,149.1652375,-0.006,-0.01,0.01,0.0,-9.942216274794191e-05,9.4449489552062e-05,0.0,1000,1000,1000,1000,12600,0,0.002685612067580223,0.0029180345591157675,0.0028259065002202988,10,{}
normal_corridor_base_10,0,none,68114,0.0011775991879403591,0.0009818285470828414,-0.09473862498998642,-35.3632621,149.1652375,0.003,-0.01,0.01,0.0,-9.942214092006907e-05,9.444949682801962e-05,0.0,1000,1000,1000,1000,12600,0,0.003075391985476017,0.0026856856420636177,0.0024714276660233736,10,{}
normal_corridor_base_10,0,none,68360,0.0011801185319200158,0.0009884979808703065,-0.09481373429298401,-35.3632622,149.1652375,0.003,-0.01,0.01,0.0,-9.445304749533534e-05,8.972889190772548e-05,0.0,1000,1000,1000,1000,12600,37,0.0029524124693125486,0.0027000554837286472,0.002874829340726137,10,{}
normal_corridor_base_10,0,none,68610,0.001190421637147665,0.0009963532211259007,-0.09488743543624878,-35.3632621,149.1652375,0.003,-0.01,0.01,0.0,-9.445305477129295e-05,8.972889190772548e-05,0.0,1000,1000,1000,1000,12600,0,0.0027335314080119133,0.0030491549987345934,0.002974350471049547,10,{}
