flight_id,label,attack_type,timestamp,att_roll,att_pitch,att_yaw,pos_lat,pos_lon,pos_alt_rel,pos_vx,pos_vy,pos_vz,nav_roll,nav_pitch,nav_alt_error,servo1_raw,servo2_raw,servo3_raw,servo4_raw,sys_voltage_battery,sys_load,vib_x,vib_y,vib_z,gps_sats_visible,attack_params_json
normal_corridor_base_4,0,none,10124,0.0001910095743369311,-4.042672662762925e-05,-0.3437490165233612,-35.3632621,149.1652374,0.0,0.0,0.0,-0.03,-9.942168253473938e-05,9.444944589631632e-05,0.0,1000,1000,1000,1000,12600,0,0.0029076002538204193,0.0027567276265472174,0.0027757897041738033,10,{}
normal_corridor_base_4,0,none,10456,0.00019777214038185775,-2.8482170819188468e-05,-0.3156622648239136,-35.3632621,149.1652374,0.0,0.0,0.0,-0.03,-9.942168253473938e-05,9.444944589631632e-05,0.0,1000,1000,1000,1000,12600,0,0.002756768837571144,0.00284236459992826,0.0028617135249078274,10,{}
normal_corridor_base_4,0,none,10789,0.00020043502445332706,-2.2404750779969618e-05,-0.2856917977333069,-35.3632621,149.1652374,0.0,0.0,0.0,-0.03,-9.94216970866546e-05,9.444939496461302e-05,0.0,1000,1000,1000,1000,12600,0,0.00287394761107862,0.002670970046892762,0.0029361783526837826,10,{}
normal_corridor_base_4,0,none,11122,0.00020477471116464585,-1.270574466616381e-05,-0.2513875961303711,-35.3632621,149.1652374,0.0,0.0,0.0,-0.03,-9.942158794729039e-05,9.44493876886554e-05,0.0,1000,1000,1000,1000,12600,0,0.0025793598033487797,0.002551705576479435,0.0027837641537189484,10,{}
normal_corridor_base_4,0,none,11454,0.00020939602109137923,-2.437372586427955e-06,-0.2276807427406311,-35.3632621,149.1652374,0.0,0.0,0.0,-0.03,-9.942158794729039e-05,9.44493876886554e-05,0.0,1000,1000,1000,1000,12600,0,0.0030236083548516035,0.0026810781564563513,0.002784813055768609,10,{}
normal_corridor_base_4,0,none,11789,0.0002149208594346419,-5.881812015218202e-08,-0.20614860951900482,-35.3632621,149.1652374,0.0,0.0,0.0,-0.03,-9.942158067133278e-05,9.444940951652825e-05,0.0,1000,1000,1000,1000,12600,0,0.0029691383242607117,0.0026434839237481356,0.0025246390141546726,10,{}
normal_corridor_base_4,0,none,12121,0.0002218416630057618,1.8445374735165387e-05,-0.1810736060142517,-35.3632621,149.1652374,0.0,0.0,0.0,-0.02,-9.942166070686653e-05,9.44493876886554e-05,0.0,1000,1000,1000,1000,12600,0,0.002985345432534814,0.0030222784262150526,0.00277982116676867,10,{}
normal_corridor_base_4,0,none,12454,0.00022852732217870653,2.521174246794544e-05,-0.16461537778377533,-35.3632621,149.1652374,0.0,0.0,0.0,-0.02,-9.942166070686653e-05,9.44493876886554e-05,0.0,1000,1000,1000,1000,12600,0,0.002767119323834777,0.0030344733968377113,0.002814879175275564,10,{}
normal_corridor_base_4,0,none,12786,0.00023457928909920156,3.314904461149126e-05,-0.14996697008609772,-35.3632621,149.1652374,0.0,0.0,0.0,-0.02,-9.942166070686653e-05,9.444936586078256e-05,0.0,1000,1000,1000,1000,12600,0,0.0029143725987523794,0.002824185648933053,0.002898759674280882,10,{}
normal_corridor_base_4,0,none,13119,0.0002451728214509785,3.962856499128975e-05,-0.13293473422527313,-35.3632621,149.1652374,0.0,0.0,0.0,-0.02,-9.942162432707846e-05,9.444936586078256e-05,0.0,1000,1000,1000,1000,12600,0,0.0028266478329896927,0.0026815372984856367,0.0028370425570756197,10,{}
normal_corridor_base_4,0,none,13452,0.0002584724861662835,4.5019201934337616e-05,-0.12196764349937439,-35.3632621,149.1652374,0.0,0.0,0.0,-0.01,-9.942162432707846e-05,9.444936586078256e-05,0.0,1000,1000,1000,1000,12600,0,0.002551382640376687,0.002561344299465418,0.0027420963160693645,10,{}
normal_corridor_base_4,0,none,13786,0.00026426583644934,5.606841659755446e-05,-0.11233022809028625,-35.3632621,149.1652374,0.0,0.0,0.0,-0.01,-9.942163160303608e-05,9.444940951652825e-05,0.0,1000,1000,1000,1000,12600,0,0.0028165250550955534,0.0026656317058950663,0.002609702991321683,10,{}
normal_corridor_base_4,0,none,14119,0.00027711791335605085,6.378419493557885e-05,-0.10130181908607483,-35.3632621,149.1652374,0.0,0.0,0.0,-0.01,-9.942163160303608e-05,9.444940951652825e-05,0.0,1000,1000,1000,1000,12600,0,0.002733438042923808,0.002637262223288417,0.002830332610756159,10,{}
normal_corridor_base_4,0,none,14451,0.0002838968357536942,7.718308188486844e-05,-0.09424791485071182,-35.3632621,149.1652374,0.0,0.0,0.0,-0.01,-9.942151518771425e-05,9.444935858482495e-05,0.0,1000,1000,1000,1000,12600,0,0.002821820555254817,0.0028804519679397345,0.002532725688070059,10,{}
normal_corridor_base_4,0,none,14784,0.0002975659444928169,8.810056169750169e-05,-0.08806397765874863,-35.3632621,149.1652374,0.0,0.0,0.0,-0.01,-9.942152973962948e-05,9.444932220503688e-05,0.0,1000,1000,1000,1000,12600,0,0.0027345020789653063,0.0026696359273046255,0.002816035645082593,10,{}
normal_corridor_base_4,0,none,15362,0.0003209811693523079,0.0001067569901351817,-0.07711876183748245,-35.3632621,149.1652374,0.0,0.0,0.0,-0.01,-9.942152973962948e-05,9.444932220503688e-05,0.0,1000,1000,1000,1000,12600,0,0.0028148824349045753,0.0027058806736022234,0.0028362281154841185,10,{}
normal_corridor_base_4,0,none,15612,0.00033054425148293376,0.00011163607268827036,-0.07378540188074112,-35.3632621,149.1652374,0.0,0.0,0.0,-0.01,-9.942150063579902e-05,9.444935130886734e-05,0.0,1000,1000,1000,1000,12600,0,0.0030545052140951157,0.002723335288465023,0.002874585334211588,10,{}
normal_corridor_base_4,0,none,15864,0.0003370653430465609,0.0001203592328238301,-0.07080787420272827,-35.3632621,149.1652374,0.0,0.0,0.0,0.0,-9.942148608388379e-05,9.444936586078256e-05,0.0,1000,1000,1000,1000,12600,0,0.0025455898139625788,0.002930016489699483,0.002482471987605095,10,{}
normal_corridor_base_4,0,none,16114,0.00034534477163106203,0.0001303199678659439,-0.06819181144237518,-35.3632621,149.1652374,0.0,0.0,0.0,0.0,-9.94214933598414e-05,9.444938041269779e-05,0.0,1000,1000,1000,1000,12600,0,0.0025455898139625788,0.002930016489699483,0.002482471987605095,10,{}
normal_corridor_base_4,0,none,16364,0.0003543358761817217,0.00013738028064835817,-0.0658562034368515,-35.3632621,149.1652374,0.0,0.0,0.0,0.0,-9.942147880792618e-05,9.444936586078256e-05,0.0,1000,1000,1000,1000,12600,0,0.002928872127085924,0.0028316923417150974,0.002858760766685009,10,{}
normal_corridor_base_4,0,none,16614,0.0003660316579043865,0.00014555989764630795,-0.06386000663042068,-35.3632621,149.1652374,0.0,0.0,0.0,0.0,-9.942147880792618e-05,9.444936586078256e-05,0.0,1000,1000,1000,1000,12600,0,0.0030593208502978086,0.002724404213950038,0.0026779533363878727,10,{}
normal_corridor_base_4,0,none,16864,0.00037628874997608364,0.0001539368968224153,-0.062053460627794266,-35.3632621,149.1652374,0.0,0.0,0.0,0.0,-9.942150791175663e-05,9.444938041269779e-05,0.0,1000,1000,1000,1000,12600,0,0.0027102159801870584,0.0027918540872633457,0.002889963099732995,10,{}
normal_corridor_base_4,0,none,17112,0.0003881156153511256,0.0001592073094798252,-0.06050898879766464,-35.3632621,149.1652374,0.0,0.0,0.0,0.0,-9.942150791175663e-05,9.444938041269779e-05,0.0,1000,1000,1000,1000,12600,0,0.0027102159801870584,0.0027918540872633457,0.002889963099732995,10,{}
normal_corridor_base_4,0,none,17462,0.0003958085144404322,0.0001683639857219532,-0.05916189029812813,-35.3632621,149.1652374,0.0,0.0,0.0,0.0,-9.942150791175663e-05,9.444938041269779e-05,0.0,1000,1000,1000,1000,12600,0,0.002874169498682022,0.0028606499545276165,0.0028805474285036325,10,{}
normal_corridor_base_4,0,none,17794,0.0004107305430807173,0.0001809494715416804,-0.057555072009563446,-35.3632621,149.1652374,0.0,0.0,0.0,0.0,-9.942162432707846e-05,9.444939496461302e-05,0.0,1000,1000,1000,1000,12600,0,0.00281559769064188,0.002723017241805792,0.0029475977644324303,10,{}
normal_corridor_base_4,0,none,18126,0.00042204491910524666,0.00020027250866405666,-0.05609126389026642,-35.3632621,149.1652374,0.0,0.0,0.0,0.0,-9.942168253473938e-05,9.444935858482495e-05,0.0,1000,1000,1000,1000,12600,0,0.0029141686391085386,0.002892297925427556,0.002619675826281309,10,{}
normal_corridor_base_4,0,none,18459,0.0004387921653687954,0.00021213074796833098,-0.0552070178091526,-35.3632621,149.1652374,0.0,0.0,0.0,0.0,-9.942168253473938e-05,9.444935858482495e-05,0.0,1000,1000,1000,1000,12600,0,0.0027117179706692696,0.0027072352822870016,0.00270332139916718,10,{}
normal_corridor_base_4,0,none,18794,0.00044753620750270784,0.00022945902310311794,-0.05451696366071701,-35.3632621,149.1652374,0.0,0.0,0.0,0.0,-9.9421595223248e-05,9.44492785492912e-05,0.0,1000,1000,1000,1000,12600,0,0.002527008531615138,0.002876574406400323,0.002860062522813678,10,{}
normal_corridor_base_4,0,none,19127,0.0004736003465950489,0.00024575614952482283,-0.05379568785429001,-35.3632621,149.1652374,0.0,0.0,0.0,0.0,-9.942163887899369e-05,9.444931492907926e-05,0.0,1000,1000,1000,1000,12600,0,0.0029446210246533155,0.003274827264249325,0.00268892222084105,10,{}
normal_corridor_base_4,0,none,19459,0.0004860938061028719,0.0002563541638664901,-0.05343354865908623,-35.3632621,149.1652374,0.0,0.0,0.0,0.0,-9.942163887899369e-05,9.444931492907926e-05,0.0,1000,1000,1000,1000,12600,0,0.002935432130470872,0.002898840932175517,0.0031894496642053127,10,{}
normal_corridor_base_4,0,none,19792,0.000503192248288542,0.00027161792968399823,-0.05312401428818703,-35.3632621,149.1652374,0.0,0.0,0.0,0.0,-9.942165343090892e-05,9.444935130886734e-05,0.0,1000,1000,1000,1000,12600,0,0.0030903525184839964,0.0025421851314604282,0.002696631010621786,10,{}
normal_corridor_base_4,0,none,20124,0.0005285866209305823,0.0002933171926997602,-0.05268457159399986,-35.3632621,149.1652374,0.006,0.0,0.0,0.0,-9.942174074240029e-05,9.444937313674018e-05,0.0,1000,1000,1000,1000,12600,0,0.0028363813180476427,0.0028665740974247456,0.002757033798843622,10,{}
normal_corridor_base_4,0,none,20459,0.0005421199603006244,0.0003075026033911854,-0.05261050909757614,-35.3632621,149.1652374,-0.008,0.0,0.0,0.0,-9.942174074240029e-05,9.444937313674018e-05,0.0,1000,1000,1000,1000,12600,0,0.0028797301929444075,0.0028402500320225954,0.0027622049674391747,10,{}
normal_corridor_base_4,0,none,20791,0.0005549211637116969,0.0003242348902858794,-0.05266126990318298,-35.3632621,149.1652374,-0.007,0.0,0.0,0.0,-9.942174074240029e-05,9.444942406844348e-05,0.0,1000,1000,1000,1000,12600,0,0.0027345274575054646,0.0026091360487043858,0.003019591560587287,10,{}
normal_corridor_base_4,0,none,21124,0.0005749294068664312,0.0003431770601309836,-0.05278314650058746,-35.3632621,149.1652374,-0.006,0.0,0.0,0.0,-9.942179167410359e-05,9.444939496461302e-05,0.0,1000,1000,1000,1000,12600,0,0.002854580758139491,0.0028359980788081884,0.0029873703606426716,10,{}
normal_corridor_base_4,0,none,21457,0.0005931018386036158,0.00035940573434345424,-0.05298406630754471,-35.3632621,149.1652374,-0.004,0.0,0.0,0.0,-9.942179167410359e-05,9.444939496461302e-05,0.0,1000,1000,1000,1000,12600,0,0.0026045585982501507,0.0028235791251063347,0.00287880701944232,10,{}
normal_corridor_base_4,0,none,21789,0.0006109377136453986,0.00037575786700472236,-0.053172748535871506,-35.3632621,149.1652374,-0.003,0.0,0.0,0.0,-9.942179167410359e-05,9.444935130886734e-05,0.0,1000,1000,1000,1000,12600,0,0.003016333794221282,0.0026852318551391363,0.002756627043709159,10,{}
normal_corridor_base_4,0,none,22124,0.0006375843076966703,0.0003942363546229899,-0.05351975932717323,-35.3632621,149.1652374,-0.001,0.0,0.01,0.0,-9.942183532984927e-05,9.444941679248586e-05,0.0,1000,1000,1000,1000,12600,0,0.0029761698096990585,0.0026734673883765936,0.0029403523076325655,10,{}
normal_corridor_base_4,0,none,22456,0.0006541990442201495,0.00041484192479401827,-0.05381971597671509,-35.3632621,149.1652374,0.0,0.0,0.01,0.0,-9.942183532984927e-05,9.444941679248586e-05,0.0,1000,1000,1000,1000,12600,0,0.002670367481186986,0.0028361575677990913,0.0027159303426742554,10,{}
normal_corridor_base_4,0,none,22789,0.0006712839240208268,0.0004378552839625627,-0.05414766073226929,-35.3632621,149.1652374,0.0,0.0,0.01,0.0,-9.942193719325587e-05,9.444947500014678e-05,0.0,1000,1000,1000,1000,12600,0,0.002537676366046071,0.0026743938215076923,0.00264692772179842,10,{}
normal_corridor_base_4,0,none,23121,0.0006960704340599477,0.00046192051377147436,-0.05463748052716255,-35.3632621,149.1652374,0.001,-0.01,0.01,0.0,-9.942192991729826e-05,9.444944589631632e-05,0.0,1000,1000,1000,1000,12600,0,0.002907214220613241,0.0027324992697685957,0.0026885613333433867,10,{}
normal_corridor_base_4,0,none,23454,0.0007087197154760361,0.00047945219557732344,-0.05507836490869522,-35.3632621,149.1652374,0.001,-0.01,0.01,0.0,-9.942192991729826e-05,9.444944589631632e-05,0.0,1000,1000,1000,1000,12600,0,0.002791190752759576,0.002703271573409438,0.0027857108507305384,10,{}
normal_corridor_base_4,0,none,23787,0.0007243515574373305,0.0004925218527205288,-0.05544988065958023,-35.3632621,149.1652374,0.002,-0.01,0.01,0.0,-9.942184260580689e-05,9.444942406844348e-05,0.0,1000,1000,1000,1000,12600,0,0.002720662858337164,0.0029016630724072456,0.002824283204972744,10,{}
normal_corridor_base_4,0,none,24122,0.0007443875074386597,0.0005171074881218374,-0.056029029190540314,-35.3632621,149.1652374,0.002,-0.01,0.01,0.0,-9.942186443367973e-05,9.444940951652825e-05,0.0,1000,1000,1000,1000,12600,0,0.002855840604752302,0.003028535284101963,0.002579456428065896,10,{}
normal_corridor_base_4,0,none,24454,0.0007545879343524575,0.0005323437508195639,-0.05646231397986412,-35.3632621,149.1652374,0.002,-0.01,0.01,0.0,-9.942186443367973e-05,9.444940951652825e-05,0.0,1000,1000,1000,1000,12600,0,0.002675683004781604,0.0026335916481912136,0.0027780430391430855,10,{}
normal_corridor_base_4,0,none,24786,0.0007714558159932494,0.0005482063861563802,-0.05689254030585289,-35.3632621,149.1652374,0.003,-0.01,0.01,0.0,-9.942189353751019e-05,9.444945317227393e-05,0.0,1000,1000,1000,1000,12600,0,0.0029523279517889023,0.002895427169278264,0.0027183203492313623,10,{}
normal_corridor_base_4,0,none,25119,0.0007920205825939775,0.0005712514976039529,-0.05750273913145065,-35.3632621,149.1652374,0.003,-0.01,0.01,0.0,-9.942192264134064e-05,9.444952593185008e-05,0.0,1000,1000,1000,1000,12600,0,0.0026810800191015005,0.0028242820408195257,0.0026214588433504105,10,{}
normal_corridor_base_4,0,none,25452,0.0008037599618546665,0.0005806045955978334,-0.057971663773059845,-35.3632621,149.1652374,0.003,-0.01,0.01,0.0,-9.942192264134064e-05,9.444952593185008e-05,0.0,1000,1000,1000,1000,12600,0,0.002849991898983717,0.002928000409156084,0.0029636539984494448,10,{}
normal_corridor_base_4,0,none,25787,0.0008204769110307097,0.0006005761097185314,-0.058272864669561386,-35.3632621,149.1652374,0.003,-0.01,0.01,0.0,-9.94219008134678e-05,9.444952593185008e-05,0.0,1000,1000,1000,1000,12600,0,0.002701130462810397,0.003096467349678278,0.0029379872139543295,10,{}
normal_corridor_base_4,0,none,26119,0.0008405272965319455,0.0006199306808412075,-0.05891958624124527,-35.3632621,149.1652374,0.002,-0.01,0.01,0.0,-9.942190808942541e-05,9.444947500014678e-05,0.0,1000,1000,1000,1000,12600,0,0.0029822480864822865,0.002655979013070464,0.003047463484108448,10,{}
normal_corridor_base_4,0,none,26451,0.0008543324074707925,0.0006234436295926571,-0.059415701776742935,-35.3632621,149.1652374,0.002,-0.01,0.01,0.0,-9.942190808942541e-05,9.444947500014678e-05,0.0,1000,1000,1000,1000,12600,0,0.002644092310220003,0.0029155865777283907,0.0028507933020591736,10,{}
normal_corridor_base_4,0,none,26784,0.0008685604552738369,0.0006324246060103178,-0.059903766959905624,-35.3632621,149.1652374,0.002,-0.01,0.01,0.0,-9.942191536538303e-05,9.444945317227393e-05,0.0,1000,1000,1000,1000,12600,0,0.002577410778030753,0.0028544170781970024,0.002553730271756649,10,{}
normal_corridor_base_4,0,none,27119,0.0008812083397060633,0.0006491969106718898,-0.060570914298295975,-35.3632621,149.1652374,0.002,-0.01,0.01,0.0,-9.942195902112871e-05,9.4449489552062e-05,0.0,1000,1000,1000,1000,12600,0,0.0030539273284375668,0.003175775520503521,0.0029828797560185194,10,{}
normal_corridor_base_4,0,none,27452,0.0008939274703152478,0.000654171803034842,-0.06107965111732483,-35.3632621,149.1652374,0.002,-0.01,0.01,0.0,-9.942195902112871e-05,9.4449489552062e-05,0.0,1000,1000,1000,1000,12600,0,0.0025904690846800804,0.0028572382871061563,0.0029285189229995012,10,{}
normal_corridor_base_4,0,none,27784,0.0009070594096556306,0.0006649525021202862,-0.06159375607967377,-35.3632621,149.1652374,0.001,-0.01,0.01,0.0,-9.942195902112871e-05,9.444949682801962e-05,0.0,1000,1000,1000,1000,12600,0,0.0029696766287088394,0.002582824556156993,0.00267494167201221,10,{}
normal_corridor_base_4,0,none,28117,0.00091810233425349,0.0006849322817288339,-0.06223583593964577,-35.3632621,149.1652374,0.001,-0.01,0.01,0.0,-9.942203905666247e-05,9.444956958759576e-05,0.0,1000,1000,1000,1000,12600,0,0.002834443235769868,0.0030830225441604853,0.002744318451732397,10,{}
normal_corridor_base_4,0,none,28449,0.0009307295549660921,0.0006950355018489063,-0.06275379657745361,-35.3632621,149.1652374,0.001,-0.01,0.01,0.0,-9.942203905666247e-05,9.444956958759576e-05,0.0,1000,1000,1000,1000,12600,0,0.0027278068009763956,0.002787801204249263,0.0028049976099282503,10,{}
normal_corridor_base_4,0,none,28784,0.0009434240055270493,0.0007097560446709394,-0.06322424113750458,-35.3632621,149.1652374,0.0,-0.01,0.01,0.0,-9.942211181623861e-05,9.444963507121429e-05,0.0,1000,1000,1000,1000,12600,0,0.002932919654995203,0.0026936535723507404,0.0029684111941605806,10,{}
normal_corridor_base_4,0,none,29116,0.0009564831852912903,0.0007301450823433697,-0.06386923044919968,-35.3632621,149.1652374,0.0,-0.01,0.01,0.0,-9.942222095560282e-05,9.444967872695997e-05,0.0,1000,1000,1000,1000,12600,0,0.0027153778355568647,0.002798675559461117,0.0026191112119704485,10,{}
normal_corridor_base_4,0,none,29449,0.0009706057026050985,0.0007397612207569182,-0.06433182954788208,-35.3632621,149.1652374,0.0,-0.01,0.01,0.0,-9.942222095560282e-05,9.444967872695997e-05,0.0,1000,1000,1000,1000,12600,0,0.0027120441664010286,0.002474878914654255,0.002832310041412711,10,{}
normal_corridor_base_4,0,none,29782,0.000979847740381956,0.0007489045383408666,-0.06482702493667603,-35.3632621,149.1652374,0.0,-0.01,0.02,0.0,-9.942230099113658e-05,9.444968600291759e-05,0.0,1000,1000,1000,1000,12600,0,0.002937373472377658,0.00310351699590683,0.0027990839444100857,10,{}
normal_corridor_base_4,0,none,30112,0.0009908454958349466,0.0007629285682924092,-0.0654650628566742,-35.3632621,149.1652374,-0.001,-0.01,0.02,0.0,-9.942230099113658e-05,9.444968600291759e-05,0.0,1000,1000,1000,1000,12600,0,0.002849315758794546,0.0029003953095525503,0.0029304437339305878,10,{}
normal_corridor_base_4,0,none,30362,0.0009993229759857059,0.0007764409529045224,-0.06582429260015488,-35.3632621,149.1652374,-0.001,-0.01,0.02,0.0,-9.942240285454318e-05,9.44497951422818e-05,0.0,1000,1000,1000,1000,12600,0,0.002849315758794546,0.0029003953095525503,0.0029304437339305878,10,{}
normal_corridor_base_4,0,none,30614,0.0010029174154624343,0.0007828158559277654,-0.06623439490795135,-35.3632621,149.1652374,-0.001,-0.01,0.02,0.0,-9.942240285454318e-05,9.44497951422818e-05,0.0,1000,1000,1000,1000,12600,0,0.002777456073090434,0.002584557281807065,0.0028129650745540857,10,{}
normal_corridor_base_4,0,none,30864,0.001015550922602415,0.0007898227195255458,-0.0665876716375351,-35.3632621,149.1652374,-0.001,-0.01,0.02,0.0,-9.942247561411932e-05,9.444986790185794e-05,0.0,1000,1000,1000,1000,12600,0,0.002741817384958267,0.002703367965295911,0.002896038582548499,10,{}
normal_corridor_base_4,0,none,31114,0.0010180212557315826,0.0007947878912091255,-0.06699758768081665,-35.3632621,149.1652374,-0.002,-0.01,0.02,0.0,-9.942247561411932e-05,9.444986790185794e-05,0.0,1000,1000,1000,1000,12600,0,0.0026138490065932274,0.0026999760884791613,0.0029984640423208475,10,{}
normal_corridor_base_4,0,none,31469,0.001030848827213049,0.0008007604628801346,-0.0673462450504303,-35.3632621,149.1652374,-0.002,-0.01,0.02,0.0,-9.942253382178023e-05,9.444993338547647e-05,0.0,1000,1000,1000,1000,12600,0,0.002804586198180914,0.00279876752756536,0.0030515529215335846,10,{}
normal_corridor_base_4,0,none,31802,0.0010409002425149083,0.0008100729901343584,-0.06780628114938736,-35.3632621,149.1652374,-0.003,-0.01,0.02,0.0,-9.942249016603455e-05,9.444988972973078e-05,0.0,1000,1000,1000,1000,12600,0,0.002662199316546321,0.002904022578150034,0.0029109499882906675,10,{}
normal_corridor_base_4,0,none,32134,0.0010472623398527503,0.000810338940937072,-0.06838750094175339,-35.3632621,149.1652374,-0.003,-0.01,0.02,0.0,-9.942249016603455e-05,9.444988972973078e-05,0.0,1000,1000,1000,1000,12600,0,0.0030057565309107304,0.0029345352668315172,0.0028191276360303164,10,{}
normal_corridor_base_4,0,none,32467,0.0010565078118816018,0.0008210423402488232,-0.06883739680051804,-35.3632621,149.1652374,-0.003,-0.01,0.02,0.0,-9.942249016603455e-05,9.444996248930693e-05,0.0,1000,1000,1000,1000,12600,0,0.0031338995322585106,0.002715198090299964,0.002902282401919365,10,{}
normal_corridor_base_4,0,none,32799,0.0010669693583622575,0.0008338763727806509,-0.06927793473005295,-35.3632621,149.1652374,-0.004,-0.01,0.02,0.0,-9.942251199390739e-05,9.444996248930693e-05,0.0,1000,1000,1000,1000,12600,0,0.0031338995322585106,0.002715198090299964,0.002902282401919365,10,{}
normal_corridor_base_4,0,none,33134,0.0010748474160209298,0.0008537513203918934,-0.06985007226467133,-35.3632621,149.1652374,-0.004,-0.01,0.02,0.0,-9.942251199390739e-05,9.444996248930693e-05,0.0,1000,1000,1000,1000,12600,0,0.0029645422473549843,0.0026316242292523384,0.002994873560965061,10,{}
normal_corridor_base_4,0,none,33466,0.0010929767740890384,0.0008611081866547465,-0.07028231769800186,-35.3632621,149.1652374,-0.004,-0.01,0.02,0.0,-9.942256292561069e-05,9.444994066143408e-05,0.0,1000,1000,1000,1000,12600,0,0.002643831539899111,0.0026420324575155973,0.0027350110467523336,10,{}
normal_corridor_base_4,0,none,33799,0.0011052810586988926,0.000872004427947104,-0.07069497555494308,-35.3632621,149.1652374,-0.004,-0.01,0.02,0.0,-9.942254837369546e-05,9.444996976526454e-05,0.0,1000,1000,1000,1000,12600,0,0.002852614503353834,0.002746754325926304,0.0026485545095056295,10,{}
normal_corridor_base_4,0,none,34132,0.001116148428991437,0.0008814961765892804,-0.07126271724700928,-35.3632621,149.1652374,-0.005,-0.02,0.02,0.0,-9.942254837369546e-05,9.444996976526454e-05,0.0,1000,1000,1000,1000,12600,0,0.0027999202720820904,0.0028001093305647373,0.002828165888786316,10,{}
normal_corridor_base_4,0,none,34464,0.0011233247350901365,0.0008912483463063836,-0.07166319340467453,-35.3632621,149.1652374,-0.005,-0.02,0.02,0.0,-9.942249016603455e-05,9.444996976526454e-05,0.0,1000,1000,1000,1000,12600,0,0.002587974537163973,0.0027566631324589252,0.002868629526346922,10,{}
normal_corridor_base_4,0,none,34799,0.0011351642897352576,0.0009046156774275005,-0.07207522541284561,-35.3632621,149.1652374,-0.005,-0.02,0.02,0.0,-9.94224101305008e-05,9.444995521334931e-05,0.0,1000,1000,1000,1000,12600,0,0.002577324630692601,0.002887512557208538,0.003154077799990773,10,{}
normal_corridor_base_4,0,none,35131,0.0011466696159914136,0.0009172423160634935,-0.0725967139005661,-35.3632621,149.1652374,-0.005,-0.02,0.02,0.0,-9.94224101305008e-05,9.444995521334931e-05,0.0,1000,1000,1000,1000,12600,0,0.0029077460058033466,0.0029183898586779833,0.0026163419242948294,10,{}
normal_corridor_base_4,0,none,35464,0.0011545541929081082,0.0009300367673859,-0.07299318164587021,-35.3632621,149.1652374,-0.005,-0.02,0.02,0.0,-9.942232281900942e-05,9.444993338547647e-05,0.0,1000,1000,1000,1000,12600,0,0.0025630230084061623,0.003018396906554699,0.0026036205235868692,10,{}
normal_corridor_base_4,0,none,35797,0.0011605079052969813,0.0009330993634648621,-0.07338668406009674,-35.3632621,149.1652374,-0.005,-0.02,0.02,0.0,-9.942236647475511e-05,9.444993338547647e-05,0.0,1000,1000,1000,1000,12600,0,0.0024661622010171413,0.0030634929426014423,0.0027677472680807114,10,{}
normal_corridor_base_4,0,none,36129,0.0011680215829983354,0.0009424216113984585,-0.07381069660186768,-35.3632621,149.1652374,-0.005,-0.02,0.02,0.0,-9.942236647475511e-05,9.444993338547647e-05,0.0,1000,1000,1000,1000,12600,0,0.002913645701482892,0.002749413251876831,0.0029041015077382326,10,{}
normal_corridor_base_4,0,none,36462,0.0011765450472012162,0.0009529442177154124,-0.07418755441904068,-35.3632621,149.1652374,-0.005,-0.02,0.02,0.0,-9.942227916326374e-05,9.444991155760363e-05,0.0,1000,1000,1000,1000,12600,0,0.0029645131435245275,0.0027078234124928713,0.0027882596477866173,10,{}
normal_corridor_base_4,0,none,36796,0.0011852540774270892,0.0009687822312116623,-0.074579618871212,-35.3632621,149.1652374,-0.005,-0.02,0.02,0.0,-9.942233009496704e-05,9.444991883356124e-05,0.0,1000,1000,1000,1000,12600,0,0.002669441280886531,0.0028074905276298523,0.0028575086034834385,10,{}
normal_corridor_base_4,0,none,37129,0.001195960445329547,0.0009878649143502116,-0.07505550980567932,-35.3632621,149.1652374,-0.005,-0.02,0.02,0.0,-9.942233009496704e-05,9.444991883356124e-05,0.0,1000,1000,1000,1000,12600,0,0.002757546491920948,0.0028180815279483795,0.0028302022255957127,10,{}
normal_corridor_base_4,0,none,37461,0.0012065432965755463,0.0009990372927859426,-0.07542326301336288,-35.3632621,149.1652374,-0.005,-0.02,0.02,0.0,-9.942233737092465e-05,9.444988972973078e-05,0.0,1000,1000,1000,1000,12600,0,0.0029377175960689783,0.0030683937948197126,0.002461138181388378,10,{}
normal_corridor_base_4,0,none,37794,0.0012130645336583257,0.00100977614056319,-0.07578140497207642,-35.3632621,149.1652374,-0.005,-0.02,0.02,0.0,-9.942231554305181e-05,9.444988972973078e-05,0.0,1000,1000,1000,1000,12600,0,0.0028528759721666574,0.002838131971657276,0.0027344331610947847,10,{}
normal_corridor_base_4,0,none,38127,0.0012210370041429996,0.0010323933092877269,-0.07625707238912582,-35.3632621,149.1652374,-0.006,-0.02,0.02,0.0,-9.942231554305181e-05,9.444988972973078e-05,0.0,1000,1000,1000,1000,12600,0,0.002907702699303627,0.0027615937869995832,0.002467743121087551,10,{}
normal_corridor_base_4,0,none,38462,0.001230598776601255,0.0010410241084173322,-0.07660561054944992,-35.3632621,149.1652374,-0.006,-0.02,0.02,0.0,-9.942233737092465e-05,9.444986062590033e-05,0.0,1000,1000,1000,1000,12600,0,0.002985764294862747,0.003066280158236623,0.0031037209555506706,10,{}
normal_corridor_base_4,0,none,38794,0.0012437223922461271,0.0010450677946209908,-0.076949842274189,-35.3632621,149.1652374,-0.006,-0.02,0.02,0.0,-9.94223082670942e-05,9.444986062590033e-05,0.0,1000,1000,1000,1000,12600,0,0.0027048338670283556,0.0028921407647430897,0.0026707258075475693,10,{}
normal_corridor_base_4,0,none,39126,0.0012477799318730831,0.0010643710847944021,-0.07741625607013702,-35.3632621,149.1652374,-0.006,-0.02,0.02,0.0,-9.94223082670942e-05,9.444986062590033e-05,0.0,1000,1000,1000,1000,12600,0,0.003129510208964348,0.0028085769154131413,0.002835319610312581,10,{}
normal_corridor_base_4,0,none,39459,0.0012486448977142572,0.0010691594798117876,-0.07775968313217163,-35.3632621,149.1652374,-0.006,-0.02,0.02,0.0,-9.942225005943328e-05,9.444986062590033e-05,0.0,1000,1000,1000,1000,12600,0,0.0025302895810455084,0.0028226005379110575,0.002772218780592084,10,{}
normal_corridor_base_4,0,none,39794,0.0012535492423921824,0.0010732818627730012,-0.07808676362037659,-35.3632621,149.1652374,-0.006,-0.02,0.02,0.0,-9.942227916326374e-05,9.444991155760363e-05,0.0,1000,1000,1000,1000,12600,0,0.002895020879805088,0.0027999645099043846,0.0026325006037950516,10,{}
normal_corridor_base_4,0,none,40127,0.0012634105514734983,0.0010824952041730285,-0.07852883636951447,-35.3632621,149.1652374,-0.006,-0.02,0.02,0.0,-9.942227916326374e-05,9.444991155760363e-05,0.0,1000,1000,1000,1000,12600,0,0.002635479439049959,0.00268888333812356,0.0027742250822484493,10,{}
normal_corridor_base_4,0,none,40459,0.0012735690688714385,0.001091985497623682,-0.07883613556623459,-35.3632621,149.1652374,-0.006,-0.02,0.02,0.0,-9.942225005943328e-05,9.444992610951886e-05,0.0,1000,1000,1000,1000,12600,0,0.002749118022620678,0.0026088436134159565,0.003057711059227586,10,{}
normal_corridor_base_4,0,none,40792,0.0012778505915775895,0.0010946861002594233,-0.0791492760181427,-35.3632621,149.1652374,-0.006,-0.02,0.02,0.0,-9.942222823156044e-05,9.444991883356124e-05,0.0,1000,1000,1000,1000,12600,0,0.002728328574448824,0.0026736995205283165,0.002627826761454344,10,{}
normal_corridor_base_4,0,none,41124,0.0012886959593743086,0.0011063386918976903,-0.07949980348348618,-35.3632621,149.1652374,-0.006,-0.02,0.02,0.0,-9.942222823156044e-05,9.444991883356124e-05,0.0,1000,1000,1000,1000,12600,0,0.0029052828904241323,0.0030527100898325443,0.0029689576476812363,10,{}
normal_corridor_base_4,0,none,41459,0.0012964786728844047,0.0011136216344311833,-0.07980816811323166,-35.3632621,149.1652374,-0.006,-0.02,0.02,0.0,-9.942227188730612e-05,9.444994066143408e-05,0.0,1000,1000,1000,1000,12600,0,0.0027688529808074236,0.003045666264370084,0.002791627310216427,10,{}
normal_corridor_base_4,0,none,41791,0.0013076949398964643,0.001131304888986051,-0.08011551201343536,-35.3632621,149.1652374,-0.006,0.0,0.0,0.0,-9.942233737092465e-05,9.444992610951886e-05,0.0,1000,1000,1000,1000,12600,0,0.002857717452570796,0.002905881032347679,0.002870508935302496,10,{}
normal_corridor_base_4,0,none,42124,0.0014037387445569038,0.0012233498273417354,-0.08051841706037521,-35.3632621,149.1652374,-0.006,0.0,0.0,0.0,-9.942233737092465e-05,9.444992610951886e-05,0.0,1000,1000,1000,1000,12600,0,0.0028805946931242943,0.002676524454727769,0.0027544768527150154,10,{}
normal_corridor_base_4,0,none,42457,0.0014754292787984014,0.001294599613174796,-0.08082298934459686,-35.3632621,149.1652374,-0.006,0.0,0.0,0.0,-9.942230099113658e-05,9.444991155760363e-05,0.0,1000,1000,1000,1000,12600,0,0.0028580918442457914,0.0028412844985723495,0.002564971335232258,10,{}
normal_corridor_base_4,0,none,42789,0.001533613889478147,0.0013564697001129389,-0.08112776279449463,-35.3632621,149.1652374,-0.006,0.0,0.0,0.0,-9.942229371517897e-05,9.444992610951886e-05,0.0,1000,1000,1000,1000,12600,0,0.0026643769815564156,0.002778844442218542,0.002574979793280363,10,{}
normal_corridor_base_4,0,none,43124,0.0016070374986156821,0.0014303132193163037,-0.08153663575649261,-35.3632621,149.1652374,-0.006,-0.01,0.01,0.0,-9.942229371517897e-05,9.444992610951886e-05,0.0,1000,1000,1000,1000,12600,0,0.0027954631950706244,0.002975354203954339,0.0027731081936508417,10,{}
normal_corridor_base_4,0,none,43456,0.0016445853980258107,0.0014612155500799417,-0.081844761967659,-35.3632621,149.1652374,-0.006,-0.01,0.01,0.0,-9.942230099113658e-05,9.444988972973078e-05,0.0,1000,1000,1000,1000,12600,0,0.0026969709433615208,0.0029198259580880404,0.0028376514092087746,10,{}
normal_corridor_base_4,0,none,43789,0.001659831148572266,0.0014709741808474064,-0.08215341717004776,-35.3632621,149.1652374,-0.006,-0.01,0.01,0.0,-9.942235192283988e-05,9.444986790185794e-05,0.0,1000,1000,1000,1000,12600,0,0.0032080537639558315,0.00302587216719985,0.002748596016317606,10,{}
normal_corridor_base_4,0,none,44122,0.0016479729674756527,0.0014667832292616367,-0.08255688101053238,-35.3632621,149.1652374,-0.006,-0.01,0.01,0.0,-9.942235192283988e-05,9.444986790185794e-05,0.0,1000,1000,1000,1000,12600,0,0.0028224398847669363,0.0030298104975372553,0.0028602711390703917,10,{}
normal_corridor_base_4,0,none,44454,0.0016361231682822108,0.0014494374627247453,-0.08285725861787796,-35.3632621,149.1652375,-0.006,-0.01,0.02,0.0,-9.942239557858557e-05,9.444990428164601e-05,0.0,1000,1000,1000,1000,12600,0,0.0026938566006720066,0.0030421826522797346,0.0027881963178515434,10,{}
normal_corridor_base_4,0,none,44787,0.0015915263211354613,0.001400945009663701,-0.08313237130641937,-35.3632621,149.1652375,-0.006,-0.01,0.02,0.0,-9.94223591987975e-05,9.444986790185794e-05,0.0,1000,1000,1000,1000,12600,0,0.0029116591904312372,0.002819639630615711,0.0027336720377206802,10,{}
normal_corridor_base_4,0,none,45114,0.001520225196145475,0.0013389855157583952,-0.08350783586502075,-35.3632621,149.1652375,-0.006,-0.01,0.02,0.0,-9.94223591987975e-05,9.444986790185794e-05,0.0,1000,1000,1000,1000,12600,0,0.0028116218745708466,0.002652616472914815,0.00285589718259871,10,{}
normal_corridor_base_4,0,none,45364,0.0014800212811678648,0.0012981294421479106,-0.08371257781982422,-35.3632622,149.1652375,-0.006,-0.01,0.02,0.0,-9.942233009496704e-05,9.444986062590033e-05,0.0,1000,1000,1000,1000,12600,0,0.0028116218745708466,0.002652616472914815,0.00285589718259871,10,{}
normal_corridor_base_4,0,none,45614,0.0014378167688846588,0.0012592056300491095,-0.08393517136573792,-35.3632622,149.1652375,-0.006,-0.01,0.02,0.0,-9.942233737092465e-05,9.444988972973078e-05,0.0,1000,1000,1000,1000,12600,0,0.0025864390190690756,0.0028558983467519283,0.0026194199454039335,10,{}
normal_corridor_base_4,0,none,45864,0.0013816807186231017,0.0012012558290734887,-0.08412635326385498,-35.3632622,149.1652375,-0.006,-0.01,0.02,0.0,-9.942230099113658e-05,9.444986062590033e-05,0.0,1000,1000,1000,1000,12600,0,0.003062034258618951,0.0028594506438821554,0.0028223067056387663,10,{}
normal_corridor_base_4,0,none,46114,0.001340930350124836,0.0011563028674572706,-0.08434121310710907,-35.3632622,149.1652375,-0.006,-0.01,0.01,0.0,-9.942230099113658e-05,9.444987517781556e-05,0.0,1000,1000,1000,1000,12600,0,0.002918966580182314,0.00288771721534431,0.002818889217451215,10,{}
normal_corridor_base_4,0,none,46362,0.0013022763887420297,0.0011120374547317624,-0.0845031812787056,-35.3632622,149.1652375,-0.006,-0.01,0.01,0.0,-9.942227916326374e-05,9.444988245377317e-05,0.0,1000,1000,1000,1000,12600,0,0.002618103986606002,0.0026897420175373554,0.0028415583074092865,10,{}
normal_corridor_base_4,0,none,46612,0.0012732928153127432,0.0010895379818975925,-0.08467589318752289,-35.3632622,149.1652375,-0.006,-0.01,0.01,0.0,-9.942231554305181e-05,9.444992610951886e-05,0.0,1000,1000,1000,1000,12600,0,0.0026726669166237116,0.0027469443157315254,0.002584557281807065,10,{}
normal_corridor_base_4,0,none,46862,0.0012289519654586911,0.0010499715572223067,-0.08486755192279816,-35.3632622,149.1652375,-0.006,-0.01,0.01,0.0,-9.942224278347567e-05,9.444988972973078e-05,0.0,1000,1000,1000,1000,12600,0,0.002929387614130974,0.0027270419523119926,0.002430849941447377,10,{}
normal_corridor_base_4,0,none,47114,0.001196554978378117,0.0010217420058324933,-0.08505457639694214,-35.3632621,149.1652375,-0.006,-0.01,0.01,0.0,-9.942225005943328e-05,9.444992610951886e-05,0.0,1000,1000,1000,1000,12600,0,0.0028053440619260073,0.002663202350959182,0.0024029449559748173,10,{}
normal_corridor_base_4,0,none,47364,0.0011716863373294473,0.0010006423108279705,-0.08523301035165787,-35.3632621,149.1652375,-0.006,-0.01,0.01,0.0,-9.942222095560282e-05,9.444990428164601e-05,0.0,1000,1000,1000,1000,12600,0,0.0029100060928612947,0.002798662055283785,0.0028448377270251513,10,{}
normal_corridor_base_4,0,none,47614,0.0011568331392481923,0.0009863941231742501,-0.08540874719619751,-35.3632621,149.1652375,-0.006,-0.01,0.01,0.0,-9.942217729985714e-05,9.444987517781556e-05,0.0,1000,1000,1000,1000,12600,0,0.0026555873919278383,0.002707539824768901,0.002958343829959631,10,{}
normal_corridor_base_4,0,none,47864,0.0011307047680020332,0.0009633820736780763,-0.08558645844459534,-35.3632621,149.1652375,-0.006,-0.01,0.01,0.0,-9.942214819602668e-05,9.444982424611226e-05,0.0,1000,1000,1000,1000,12600,0,0.0027675952296704054,0.0026486471761018038,0.0026957194786518812,10,{}
normal_corridor_base_4,0,none,48114,0.001115239574573934,0.0009469210635870695,-0.08575151860713959,-35.3632621,149.1652375,-0.006,-0.01,0.01,0.0,-9.942213364411145e-05,9.444983879802749e-05,0.0,1000,1000,1000,1000,12600,0,0.003081633010879159,0.0027065586764365435,0.0027786886785179377,10,{}
normal_corridor_base_4,0,none,48362,0.0011056929361075163,0.0009363481076434255,-0.0859263688325882,-35.3632621,149.1652375,-0.006,-0.01,0.01,0.0,-9.9422104540281e-05,9.444982424611226e-05,0.0,1000,1000,1000,1000,12600,0,0.0026955988723784685,0.002933512208983302,0.0029286197386682034,10,{}
normal_corridor_base_4,0,none,48612,0.0010998258367180824,0.0009309784509241581,-0.08609310537576675,-35.3632621,149.1652375,-0.006,-0.01,0.01,0.0,-9.942208271240816e-05,9.444980969419703e-05,0.0,1000,1000,1000,1000,12600,0,0.0028613151516765356,0.0026908842846751213,0.0029448356945067644,10,{}
normal_corridor_base_4,0,none,48862,0.001089063473045826,0.0009223392698913813,-0.08624381572008133,-35.3632621,149.1652375,-0.006,-0.01,0.01,0.0,-9.942206816049293e-05,9.44497951422818e-05,0.0,1000,1000,1000,1000,12600,0,0.002736056922003627,0.00307962903752923,0.002819468267261982,10,{}
normal_corridor_base_4,0,none,49112,0.001084271352738142,0.0009159315377473831,-0.08641840517520905,-35.3632621,149.1652375,-0.006,-0.01,0.01,0.0,-9.942201722878963e-05,9.444976603845134e-05,0.0,1000,1000,1000,1000,12600,0,0.002927824854850769,0.0029858448542654514,0.0026630752254277468,10,{}
normal_corridor_base_4,0,none,49364,0.001084032584913075,0.0009118268499150872,-0.08656604588031769,-35.3632621,149.1652375,-0.006,-0.01,0.01,0.0,-9.942195902112871e-05,9.444973693462089e-05,0.0,1000,1000,1000,1000,12600,0,0.0026257415302097797,0.00265246769413352,0.002751481020823121,10,{}
normal_corridor_base_4,0,none,49614,0.00108332687523216,0.000911195355001837,-0.08672873675823212,-35.3632621,149.1652375,-0.006,-0.01,0.01,0.0,-9.942197357304394e-05,9.444972965866327e-05,0.0,1000,1000,1000,1000,12600,0,0.002728296909481287,0.002921637147665024,0.002581929322332144,10,{}
normal_corridor_base_4,0,none,49864,0.0010767397470772266,0.0009128969395533204,-0.08688169717788696,-35.3632621,149.1652375,-0.006,-0.01,0.01,0.0,-9.942198812495917e-05,9.444970783079043e-05,0.0,1000,1000,1000,1000,12600,0,0.002605713438242674,0.002810624660924077,0.002667507389560342,10,{}
normal_corridor_base_4,0,none,50114,0.0010779653675854206,0.0009142723283730447,-0.08704518526792526,-35.3632621,149.1652375,-0.006,-0.01,0.01,0.0,-9.942198812495917e-05,9.444970055483282e-05,0.0,1000,1000,1000,1000,12600,0,0.002857169834896922,0.0028192184399813414,0.0027777189388871193,10,{}
normal_corridor_base_4,0,none,50362,0.0010813879780471325,0.0009162100614048541,-0.08718884736299515,-35.3632621,149.1652375,-0.006,-0.01,0.01,0.0,-9.942198084900156e-05,9.444967145100236e-05,0.0,1000,1000,1000,1000,12600,0,0.0025132689625024796,0.0027441701386123896,0.0028942746575921774,10,{}
normal_corridor_base_4,0,none,50612,0.0010826512007042766,0.0009138212772086263,-0.08735466003417969,-35.3632621,149.1652375,-0.006,-0.01,0.01,0.0,-9.942198084900156e-05,9.444961324334145e-05,0.0,1000,1000,1000,1000,12600,0,0.0028937342576682568,0.002915671095252037,0.0026677222922444344,10,{}
normal_corridor_base_4,0,none,50862,0.0010853573912754655,0.0009119497844949365,-0.08749434351921082,-35.3632621,149.1652375,-0.006,-0.01,0.01,0.0,-9.942194446921349e-05,9.444958413951099e-05,0.0,1000,1000,1000,1000,12600,0,0.0027463706210255623,0.0030555385164916515,0.002876244019716978,10,{}
normal_corridor_base_4,0,none,51112,0.001085833297111094,0.0009135184227488935,-0.08764757961034775,-35.3632621,149.1652375,-0.006,-0.01,0.01,0.0,-9.942192264134064e-05,9.444955503568053e-05,0.0,1000,1000,1000,1000,12600,0,0.002779569709673524,0.0027506330516189337,0.0026843100786209106,10,{}
normal_corridor_base_4,0,none,51364,0.0010874721920117736,0.0009173019207082689,-0.08778434991836548,-35.3632621,149.1652375,-0.006,-0.01,0.01,0.0,-9.942191536538303e-05,9.444954775972292e-05,0.0,1000,1000,1000,1000,12600,0,0.0028406332712620497,0.002797425491735339,0.0025944930966943502,10,{}
normal_corridor_base_4,0,none,51614,0.0010900762863457203,0.0009171158308163285,-0.08793514221906662,-35.3632621,149.1652375,-0.006,-0.01,0.01,0.0,-9.942188626155257e-05,9.444950410397723e-05,0.0,1000,1000,1000,1000,12600,0,0.0028968409169465303,0.0029660884756594896,0.002934064483270049,10,{}
normal_corridor_base_4,0,none,51864,0.0010945666581392288,0.0009134297724813223,-0.0880674496293068,-35.3632621,149.1652375,-0.006,-0.01,0.01,0.0,-9.94219008134678e-05,9.444951865589246e-05,0.0,1000,1000,1000,1000,12600,0,0.002981295343488455,0.0026883697137236595,0.0028831055387854576,10,{}
normal_corridor_base_4,0,none,52114,0.0010988739086315036,0.0009067913633771241,-0.08822201937437057,-35.3632621,149.1652375,-0.006,-0.01,0.01,0.0,-9.94219008134678e-05,9.4449489552062e-05,0.0,1000,1000,1000,1000,12600,0,0.0030136590357869864,0.002517662476748228,0.0028240890242159367,10,{}
normal_corridor_base_4,0,none,52364,0.0011043399572372437,0.0009054496185854077,-0.08834703266620636,-35.3632621,149.1652375,-0.006,-0.01,0.01,0.0,-9.942187898559496e-05,9.444948227610439e-05,0.0,1000,1000,1000,1000,12600,0,0.002767449477687478,0.002890127245336771,0.002813109429553151,10,{}
normal_corridor_base_4,0,none,52612,0.0011105039156973362,0.0009170364355668426,-0.08846471458673477,-35.3632621,149.1652375,-0.006,-0.01,0.01,0.0,-9.942187170963734e-05,9.444945317227393e-05,0.0,1000,1000,1000,1000,12600,0,0.0029858171474188566,0.0027116304263472557,0.002747654216364026,10,{}
normal_corridor_base_4,0,none,52862,0.0011094572255387902,0.0009175060549750924,-0.0885995477437973,-35.3632621,149.1652375,-0.006,-0.01,0.01,0.0,-9.942182805389166e-05,9.444940951652825e-05,0.0,1000,1000,1000,1000,12600,0,0.0028704130090773106,0.002978396834805608,0.00290682609193027,10,{}
normal_corridor_base_4,0,none,53112,0.001109872478991747,0.0009143245406448841,-0.08873429894447327,-35.3632621,149.1652375,-0.006,-0.01,0.01,0.0,-9.942186443367973e-05,9.444944589631632e-05,0.0,1000,1000,1000,1000,12600,0,0.002683037891983986,0.0028280047699809074,0.0028239376842975616,10,{}
normal_corridor_base_4,0,none,53364,0.0011166378390043974,0.0009218366467393935,-0.0888744592666626,-35.3632621,149.1652375,-0.006,-0.01,0.01,0.0,-9.942187170963734e-05,9.444946772418916e-05,0.0,1000,1000,1000,1000,12600,0,0.0028005412314087152,0.0026226439513266087,0.002574521116912365,10,{}
normal_corridor_base_4,0,none,53614,0.0011301758931949735,0.0009310054592788219,-0.0890086367726326,-35.3632621,149.1652375,-0.006,-0.01,0.01,0.0,-9.942181350197643e-05,9.444940951652825e-05,0.0,1000,1000,1000,1000,12600,0,0.002643703017383814,0.0029316735453903675,0.002659688936546445,10,{}
normal_corridor_base_4,0,none,53864,0.0011323452927172184,0.0009267202112823725,-0.08913474529981613,-35.3632621,149.1652375,-0.006,-0.01,0.01,0.0,-9.942180622601882e-05,9.444940951652825e-05,0.0,1000,1000,1000,1000,12600,0,0.002644538413733244,0.0028250785544514656,0.002837246749550104,10,{}
normal_corridor_base_4,0,none,54114,0.001132771372795105,0.0009350096806883812,-0.0892743170261383,-35.3632621,149.1652375,-0.006,-0.01,0.01,0.0,-9.942177712218836e-05,9.444941679248586e-05,0.0,1000,1000,1000,1000,12600,0,0.002944755367934704,0.002748725935816765,0.0028836263809353113,10,{}
normal_corridor_base_4,0,none,54364,0.0011351399589329958,0.000941115606110543,-0.08939792960882187,-35.3632621,149.1652375,-0.006,-0.01,0.01,0.0,-9.942176257027313e-05,9.444938041269779e-05,0.0,1000,1000,1000,1000,12600,0,0.002886915812268853,0.00292462226934731,0.002842999529093504,10,{}
normal_corridor_base_4,0,none,54612,0.0011447281576693058,0.0009481870220042765,-0.08952537178993225,-35.3632621,149.1652375,-0.006,-0.01,0.01,0.0,-9.942172619048506e-05,9.444937313674018e-05,0.0,1000,1000,1000,1000,12600,0,0.0026312433183193207,0.002967722248286009,0.0027005255687981844,10,{}
normal_corridor_base_4,0,none,54862,0.001144992420449853,0.0009475122205913067,-0.08964616805315018,-35.3632621,149.1652375,-0.006,-0.01,0.01,0.0,-9.942174074240029e-05,9.444932948099449e-05,0.0,1000,1000,1000,1000,12600,0,0.0031677745282649994,0.002826001960784197,0.002902168547734618,10,{}
normal_corridor_base_4,0,none,55112,0.0011464658891782165,0.000949519220739603,-0.08977609127759933,-35.3632621,149.1652375,-0.006,-0.01,0.01,0.0,-9.942172619048506e-05,9.444929310120642e-05,0.0,1000,1000,1000,1000,12600,0,0.002834615996107459,0.002797930734232068,0.0026992938946932554,10,{}
normal_corridor_base_4,0,none,55362,0.001147305709309876,0.0009526896756142378,-0.08989294618368149,-35.3632621,149.1652375,-0.006,-0.01,0.01,0.0,-9.942171891452745e-05,9.44492785492912e-05,0.0,1000,1000,1000,1000,12600,0,0.00257885898463428,0.0025154391769319773,0.0026829189155250788,10,{}
normal_corridor_base_4,0,none,55614,0.001149649964645505,0.0009566075750626624,-0.09002640843391418,-35.3632621,149.1652375,-0.006,-0.01,0.01,0.0,-9.942171163856983e-05,9.444928582524881e-05,0.0,1000,1000,1000,1000,12600,0,0.0029594667721539736,0.003191207768395543,0.00262128422036767,10,{}
normal_corridor_base_4,0,none,55864,0.0011467593722045422,0.0009511852404102683,-0.09014133363962173,-35.3632621,149.1652375,-0.006,-0.01,0.01,0.0,-9.94216970866546e-05,9.444928582524881e-05,0.0,1000,1000,1000,1000,12600,0,0.002665179083123803,0.0027619246393442154,0.0025793551467359066,10,{}
normal_corridor_base_4,0,none,56114,0.0011460178066045046,0.0009514584671705961,-0.0902719721198082,-35.3632621,149.1652375,-0.006,-0.01,0.01,0.0,-9.942168253473938e-05,9.444927127333358e-05,0.0,1000,1000,1000,1000,12600,0,0.002747852588072419,0.0028290182817727327,0.003065848955884576,10,{}
normal_corridor_base_4,0,none,56364,0.0011517124949023128,0.0009565672371536493,-0.09038671106100082,-35.3632621,149.1652375,-0.006,-0.01,0.01,0.0,-9.942168253473938e-05,9.444924216950312e-05,0.0,1000,1000,1000,1000,12600,0,0.0026614810340106487,0.0028658488299697638,0.0030841270927339792,10,{}
normal_corridor_base_4,0,none,56612,0.0011519164545461535,0.0009610516135580838,-0.09051184356212616,-35.3632621,149.1652375,-0.006,-0.01,0.01,0.0,-9.942170436261222e-05,9.444927127333358e-05,0.0,1000,1000,1000,1000,12600,0,0.002871153177693486,0.002624186687171459,0.002704842248931527,10,{}
normal_corridor_base_4,0,none,56862,0.0011374038876965642,0.0009582687052898109,-0.09059537202119827,-35.3632621,149.1652375,-0.006,-0.01,0.01,0.0,-9.94217480183579e-05,9.444930037716404e-05,0.0,1000,1000,1000,1000,12600,0,0.0028520592022687197,0.0027335749473422766,0.00269590737298131,10,{}
normal_corridor_base_4,0,none,57112,0.0011328940745443106,0.0009545058128423989,-0.09071553498506546,-35.3632621,149.1652375,-0.006,-0.01,0.01,0.0,-9.942178439814597e-05,9.444930037716404e-05,0.0,1000,1000,1000,1000,12600,0,0.002742365002632141,0.003041894407942891,0.0027265881653875113,10,{}
normal_corridor_base_4,0,none,57362,0.0011413187021389604,0.0009576485026627779,-0.09083066880702972,-35.3632621,149.1652375,-0.006,-0.01,0.01,0.0,-9.942181350197643e-05,9.444934403290972e-05,0.0,1000,1000,1000,1000,12600,0,0.0027337369974702597,0.0028737299144268036,0.002679405501112342,10,{}
normal_corridor_base_4,0,none,57614,0.0011478033848106861,0.0009654397726990283,-0.090949647128582,-35.3632622,149.1652375,-0.006,-0.01,0.01,0.0,-9.942181350197643e-05,9.444935130886734e-05,0.0,1000,1000,1000,1000,12600,0,0.0026542418636381626,0.002591473748907447,0.0025361122097820044,10,{}
normal_corridor_base_4,0,none,57864,0.0011462013935670257,0.0009619974880479276,-0.09105385094881058,-35.3632621,149.1652375,-0.006,-0.01,0.01,0.0,-9.942185715772212e-05,9.44493876886554e-05,0.0,1000,1000,1000,1000,12600,0,0.0027647032402455807,0.0025306681636720896,0.002619617385789752,10,{}
normal_corridor_base_4,0,none,58114,0.0011512351920828223,0.000961720070336014,-0.09116790443658829,-35.3632621,149.1652375,-0.006,-0.01,0.01,0.0,-9.942186443367973e-05,9.444939496461302e-05,0.0,1000,1000,1000,1000,12600,0,0.002578618936240673,0.0026749472599476576,0.0026817014440894127,10,{}
normal_corridor_base_4,0,none,58364,0.0011544859735295177,0.0009667760459706187,-0.09127957373857498,-35.3632621,149.1652375,-0.006,-0.01,0.01,0.0,-9.942187170963734e-05,9.444940224057063e-05,0.0,1000,1000,1000,1000,12600,0,0.0030656871385872364,0.002792201703414321,0.002702280879020691,10,{}
normal_corridor_base_4,0,none,58614,0.0011558322003111243,0.0009721046080812812,-0.09138835966587067,-35.3632622,149.1652375,-0.006,-0.01,0.01,0.0,-9.942191536538303e-05,9.444943134440109e-05,0.0,1000,1000,1000,1000,12600,0,0.0033028353936970234,0.003100547008216381,0.0028364562895148993,10,{}
normal_corridor_base_4,0,none,58862,0.0011535866651684046,0.0009684491669759154,-0.09149837493896484,-35.3632621,149.1652375,-0.006,-0.01,0.01,0.0,-9.942192264134064e-05,9.44494386203587e-05,0.0,1000,1000,1000,1000,12600,0,0.0029191430658102036,0.002911964198574424,0.002656505210325122,10,{}
normal_corridor_base_4,0,none,59112,0.0011553660733625293,0.0009692007442936301,-0.09160888195037842,-35.3632621,149.1652375,-0.006,-0.01,0.01,0.0,-9.942192264134064e-05,9.444939496461302e-05,0.0,1000,1000,1000,1000,12600,0,0.0027180423494428396,0.002775313099846244,0.0026291266549378633,10,{}
normal_corridor_base_4,0,none,59362,0.001157816732302308,0.0009752921178005636,-0.09170807152986526,-35.3632621,149.1652375,-0.006,-0.01,0.01,0.0,-9.942193719325587e-05,9.44493876886554e-05,0.0,1000,1000,1000,1000,12600,0,0.0030292992014437914,0.002577677136287093,0.0026274260599166155,10,{}
normal_corridor_base_4,0,none,59614,0.001162252970971167,0.0009795079240575433,-0.09181731939315796,-35.3632622,149.1652375,-0.006,-0.01,0.01,0.0,-9.942193719325587e-05,9.444935858482495e-05,0.0,1000,1000,1000,1000,12600,0,0.002976951887831092,0.0026798767503350973,0.00271718786098063,10,{}
normal_corridor_base_4,0,none,59864,0.001151504460722208,0.0009754697093740106,-0.09191455692052841,-35.3632621,149.1652375,-0.006,-0.01,0.01,0.0,-9.942198084900156e-05,9.44493876886554e-05,0.0,1000,1000,1000,1000,12600,0,0.0026804173830896616,0.0028437464497983456,0.00277235871180892,10,{}
normal_corridor_base_4,0,none,60114,0.0011511637130752206,0.0009696998749859631,-0.09201834350824356,-35.3632621,149.1652375,-0.006,-0.01,0.01,0.0,-9.942199540091679e-05,9.444936586078256e-05,0.0,1000,1000,1000,1000,12600,0,0.003065321361646056,0.002761606825515628,0.0029724170453846455,10,{}
normal_corridor_base_4,0,none,60364,0.0011523382272571325,0.0009693807223811746,-0.09211713075637817,-35.3632622,149.1652375,-0.006,-0.01,0.01,0.0,-9.942203178070486e-05,9.444936586078256e-05,0.0,1000,1000,1000,1000,12600,0,0.002775149652734399,0.0028251633048057556,0.0026467526331543922,10,{}
normal_corridor_base_4,0,none,60614,0.0011595063842833042,0.0009714167681522667,-0.09222019463777542,-35.3632622,149.1652375,-0.006,-0.01,0.01,0.0,-9.942204633262008e-05,9.444936586078256e-05,0.0,1000,1000,1000,1000,12600,0,0.002721461933106184,0.0028637079522013664,0.002788995858281851,10,{}
normal_corridor_base_4,0,none,60862,0.0011499576503410935,0.0009573731222189963,-0.09232109040021896,-35.3632621,149.1652375,-0.006,-0.01,0.01,0.0,-9.942203178070486e-05,9.444936586078256e-05,0.0,1000,1000,1000,1000,12600,0,0.002924336353316903,0.0026828462723642588,0.002647983143106103,10,{}
normal_corridor_base_4,0,none,61112,0.001154039055109024,0.0009527383954264224,-0.09242385625839233,-35.3632622,149.1652375,-0.006,-0.01,0.01,0.0,-9.94220536085777e-05,9.444938041269779e-05,0.0,1000,1000,1000,1000,12600,0,0.0024775033816695213,0.0028557716868817806,0.00284243724308908,10,{}
normal_corridor_base_4,0,none,61362,0.0011575942626222968,0.0009575157891958952,-0.09251204133033752,-35.3632622,149.1652375,-0.006,-0.01,0.01,0.0,-9.942204633262008e-05,9.444936586078256e-05,0.0,1000,1000,1000,1000,12600,0,0.0031784079037606716,0.0030637611635029316,0.003019671654328704,10,{}
normal_corridor_base_4,0,none,61612,0.001162606873549521,0.0009603386861272156,-0.0926089808344841,-35.3632622,149.1652375,-0.006,-0.01,0.01,0.0,-9.942208271240816e-05,9.444936586078256e-05,0.0,1000,1000,1000,1000,12600,0,0.002766632940620184,0.002776553388684988,0.0029957008082419634,10,{}
normal_corridor_base_4,0,none,61864,0.0011538758408278227,0.0009525792556814849,-0.09268204867839813,-35.3632621,149.1652375,-0.006,-0.01,0.01,0.0,-9.942208271240816e-05,9.444940224057063e-05,0.0,1000,1000,1000,1000,12600,0,0.002905850065872073,0.002729507628828287,0.0029965753201395273,10,{}
normal_corridor_base_4,0,none,62114,0.0011569124180823565,0.0009561724145896733,-0.09277612715959549,-35.3632621,149.1652375,-0.006,-0.01,0.01,0.0,-9.942209726432338e-05,9.444942406844348e-05,0.0,1000,1000,1000,1000,12600,0,0.002569698030129075,0.002818763954564929,0.0027993645053356886,10,{}
normal_corridor_base_4,0,none,62364,0.001162362052127719,0.0009542549378238618,-0.09286560863256454,-35.3632622,149.1652375,-0.006,-0.01,0.01,0.0,-9.942214819602668e-05,9.444948227610439e-05,0.0,1000,1000,1000,1000,12600,0,0.002571352757513523,0.0027299332432448864,0.002837392268702388,10,{}
normal_corridor_base_4,0,none,62614,0.0011627477360889316,0.0009624391095712781,-0.09295504540205002,-35.3632621,149.1652375,-0.006,-0.01,0.01,0.0,-9.94221554719843e-05,9.444949682801962e-05,0.0,1000,1000,1000,1000,12600,0,0.002571413293480873,0.003010719083249569,0.0027562379837036133,10,{}
normal_corridor_base_4,0,none,62862,0.0011608960339799523,0.0009620863129384816,-0.09304575622081757,-35.3632621,149.1652375,-0.006,-0.01,0.01,0.0,-9.942211181623861e-05,9.444947500014678e-05,0.0,1000,1000,1000,1000,12600,0,0.002669219160452485,0.0030922123696655035,0.0025961147621273994,10,{}
normal_corridor_base_4,0,none,63112,0.001159890671260655,0.0009671522420831025,-0.09314434975385666,-35.3632621,149.1652375,-0.006,-0.01,0.01,0.0,-9.942209726432338e-05,9.444941679248586e-05,0.0,1000,1000,1000,1000,12600,0,0.00298924813978374,0.002869306830689311,0.002699088305234909,10,{}
normal_corridor_base_4,0,none,63362,0.001159174251370132,0.0009659240604378283,-0.09323807805776596,-35.3632622,149.1652375,-0.006,-0.01,0.01,0.0,-9.942212636815384e-05,9.444942406844348e-05,0.0,1000,1000,1000,1000,12600,0,0.002780455630272627,0.0027543283067643642,0.0028531812131404877,10,{}
normal_corridor_base_4,0,none,63612,0.001163544482551515,0.0009764936985448003,-0.09332327544689178,-35.3632622,149.1652375,-0.006,-0.01,0.01,0.0,-9.942211181623861e-05,9.44493876886554e-05,0.0,1000,1000,1000,1000,12600,0,0.0029409779235720634,0.002492816187441349,0.0027401873376220465,10,{}
normal_corridor_base_4,0,none,63864,0.0011576298857107759,0.0009709278820082545,-0.09340273588895798,-35.3632622,149.1652375,-0.006,-0.01,0.01,0.0,-9.942211181623861e-05,9.444943134440109e-05,0.0,1000,1000,1000,1000,12600,0,0.0028609842993319035,0.003023355733603239,0.0027770274318754673,10,{}
normal_corridor_base_4,0,none,64114,0.0011625420302152634,0.0009620357304811478,-0.09349331259727478,-35.3632622,149.1652375,-0.006,-0.01,0.01,0.0,-9.942211909219623e-05,9.444942406844348e-05,0.0,1000,1000,1000,1000,12600,0,0.0027447633910924196,0.0030378263909369707,0.003080870257690549,10,{}
normal_corridor_base_4,0,none,64364,0.0011651070090010762,0.0009648841805756092,-0.09357436001300812,-35.3632622,149.1652375,-0.006,-0.01,0.01,0.0,-9.942214819602668e-05,9.44494386203587e-05,0.0,1000,1000,1000,1000,12600,0,0.0028536957688629627,0.0028703107964247465,0.002867660252377391,10,{}
normal_corridor_base_4,0,none,64614,0.001174669829197228,0.0009668102138675749,-0.09366367012262344,-35.3632622,149.1652375,-0.006,-0.01,0.01,0.0,-9.942217002389953e-05,9.444946044823155e-05,0.0,1000,1000,1000,1000,12600,0,0.002880808198824525,0.0028693184722214937,0.0028976169414818287,10,{}
normal_corridor_base_4,0,none,64864,0.0011716478038579226,0.0009586340165697038,-0.09374593943357468,-35.3632622,149.1652375,-0.006,-0.01,0.01,0.0,-9.942217729985714e-05,9.444944589631632e-05,0.0,1000,1000,1000,1000,12600,0,0.002788268495351076,0.0028863479383289814,0.002873412100598216,10,{}
normal_corridor_base_4,0,none,65112,0.0011648157378658652,0.0009526614448986948,-0.09383337199687958,-35.3632621,149.1652375,-0.006,-0.01,0.01,0.0,-9.942217729985714e-05,9.444945317227393e-05,0.0,1000,1000,1000,1000,12600,0,0.0028645112179219723,0.0031163888052105904,0.0027205103542655706,10,{}
normal_corridor_base_4,0,none,65362,0.0011633787071332335,0.00095985276857391,-0.09391374886035919,-35.3632622,149.1652375,-0.006,-0.01,0.01,0.0,-9.942219912772998e-05,9.444947500014678e-05,0.0,1000,1000,1000,1000,12600,0,0.0028184689581394196,0.0028676078654825687,0.002879890613257885,10,{}
normal_corridor_base_4,0,none,65612,0.0011654170230031013,0.0009657948976382613,-0.09400201588869095,-35.3632622,149.1652375,-0.006,-0.01,0.01,0.0,-9.942219912772998e-05,9.4449489552062e-05,0.0,1000,1000,1000,1000,12600,0,0.0027040590066462755,0.002539893379434943,0.0027268228586763144,10,{}
normal_corridor_base_4,0,none,65864,0.001162795932032168,0.0009602332138456404,-0.09408064931631088,-35.3632621,149.1652375,-0.006,-0.01,0.01,0.0,-9.942219912772998e-05,9.4449489552062e-05,0.0,1000,1000,1000,1000,12600,0,0.0026579764671623707,0.0029520858079195023,0.0026381632778793573,10,{}
normal_corridor_base_4,0,none,66114,0.0011653490364551544,0.0009618460317142308,-0.09416449069976807,-35.3632621,149.1652375,-0.006,-0.01,0.01,0.0,-9.942219185177237e-05,9.4449489552062e-05,0.0,1000,1000,1000,1000,12600,0,0.002636214718222618,0.0028943067882210016,0.002916575176641345,10,{}
normal_corridor_base_4,0,none,66364,0.0011721202172338963,0.0009623203077353537,-0.09423589706420898,-35.3632622,149.1652375,-0.006,-0.01,0.01,0.0,-9.942219912772998e-05,9.444949682801962e-05,0.0,1000,1000,1000,1000,12600,0,0.002859035972505808,0.0028940397314727306,0.002633301541209221,10,{}
normal_corridor_base_4,0,none,66614,0.0011707718949764967,0.0009740011300891638,-0.09432382881641388,-35.3632622,149.1652375,-0.006,-0.01,0.01,0.0,-9.94222064036876e-05,9.444949682801962e-05,0.0,1000,1000,1000,1000,12600,0,0.0028530042618513107,0.0028260990511626005,0.0027102066669613123,10,{}
normal_corridor_base_4,0,none,66864,0.0011721642222255468,0.0009721278329379857,-0.09439100325107574,-35.3632621,149.1652375,-0.006,-0.01,0.01,0.0,-9.942214819602668e-05,9.444947500014678e-05,0.0,1000,1000,1000,1000,12600,0,0.0024953430984169245,0.002844113390892744,0.002954330760985613,10,{}
normal_corridor_base_4,0,none,67112,0.0011721131158992648,0.0009701495291665196,-0.09445599466562271,-35.3632621,149.1652375,-0.006,-0.01,0.01,0.0,-9.94221554719843e-05,9.444949682801962e-05,0.0,1000,1000,1000,1000,12600,0,0.002904037944972515,0.0026091996114701033,0.0030607348307967186,10,{}
normal_corridor_base_4,0,none,67362,0.0011739331530407071,0.0009744541603140533,-0.09451544284820557,-35.3632622,149.1652375,-0.006,-0.01,0.01,0.0,-9.942217002389953e-05,9.444950410397723e-05,0.0,1000,1000,1000,1000,12600,0,0.0029686575289815664,0.002874748781323433,0.0028438426088541746,10,{}
normal_corridor_base_4,0,none,67612,0.0011753799626603723,0.0009816242381930351,-0.09459393471479416,-35.3632622,149.1652375,-0.006,-0.01,0.01,0.0,-9.94222064036876e-05,9.4449489552062e-05,0.0,1000,1000,1000,1000,12600,0,0.002611213829368353,0.0029214026872068644,0.002728827530518174,10,{}
normal_corridor_base_4,0,none,67862,0.001177140511572361,0.0009826009627431631,-0.09466589242219925,-35.3632622,149.1652375,-0.006,-0.01,0.01,0.0,-9.942214092006907e-05,9.444947500014678e-05,0.0,1000,1000,1000,1000,12600,0,0.0026695786509662867,0.002919699065387249,0.0028357331175357103,10,{}
normal_corridor_base_4,0,none,68114,0.0011775991879403591,0.0009818285470828414,-0.09473862498998642,-35.3632621,149.1652375,-0.006,-0.01,0.01,0.0,-9.942217002389953e-05,9.444952593185008e-05,0.0,1000,1000,1000,1000,12600,0,0.003243871731683612,0.0027595057617872953,0.0024372681509703398,10,{}
normal_corridor_base_4,0,none,68364,0.00118325708899647,0.0009920421289280057,-0.0948103815317154,-35.3632622,149.1652375,-0.006,-0.01,0.01,0.0,-9.942216274794191e-05,9.444947500014678e-05,0.0,1000,1000,1000,1000,12600,0,0.0029524124693125486,0.0027000554837286472,0.002874829340726137,10,{}
normal_corridor_base_4,0,none,68614,0.0011891601607203484,0.0009951211977750063,-0.09488483518362045,-35.3632622,149.1652375,-0.006,-0.01,0.01,0.0,-9.942213364411145e-05,9.44494386203587e-05,0.0,1000,1000,1000,1000,12600,0,0.0026911250315606594,0.002982583362609148,0.0029414035379886627,10,{}
normal_corridor_base_4,0,none,68864,0.0011934471549466252,0.0009888941422104836,-0.09495271742343903,-35.3632621,149.1652375,-0.006,-0.01,0.01,0.0,-9.942213364411145e-05,9.44493876886554e-05,0.0,1000,1000,1000,1000,12600,0,0.0027476500254124403,0.0026652514934539795,0.0028286539018154144,10,{}
