flight_id,label,attack_type,timestamp,att_roll,att_pitch,att_yaw,pos_lat,pos_lon,pos_alt_rel,pos_vx,pos_vy,pos_vz,nav_roll,nav_pitch,nav_alt_error,servo1_raw,servo2_raw,servo3_raw,servo4_raw,sys_voltage_battery,sys_load,vib_x,vib_y,vib_z,gps_sats_visible,attack_params_json
normal_corridor_base_7,0,none,10204,0.00019454912398941815,-3.797787940129638e-05,-0.34038814902305603,-35.3632621,149.1652374,0.0,0.0,0.0,-0.03,-9.942168253473938e-05,9.444943134440109e-05,0.0,1000,1000,1000,1000,12600,0,0.0028675561770796776,0.0029772287234663963,0.0027860975824296474,10,{}
normal_corridor_base_7,0,none,10536,0.00019946147222071886,-2.8413054678821936e-05,-0.30950045585632324,-35.3632621,149.1652374,0.0,0.0,0.0,-0.03,-9.942168253473938e-05,9.444943134440109e-05,0.0,1000,1000,1000,1000,12600,0,0.002643662504851818,0.0027377114165574312,0.0030474369414150715,10,{}
normal_corridor_base_7,0,none,10869,0.00020193566160742193,-2.1120275050634518e-05,-0.2803114652633667,-35.3632621,149.1652374,0.0,0.0,0.0,-0.03,-9.942168253473938e-05,9.444938041269779e-05,0.0,1000,1000,1000,1000,12600,0,0.0025596574414521456,0.00256520789116621,0.0027807275764644146,10,{}
normal_corridor_base_7,0,none,11202,0.00020514620700851083,-1.0788807230710518e-05,-0.2464565634727478,-35.3632621,149.1652374,0.0,0.0,0.0,-0.03,-9.942160977516323e-05,9.444940951652825e-05,0.0,1000,1000,1000,1000,12600,0,0.002664396073669195,0.0027099926955997944,0.0030754113104194403,10,{}
normal_corridor_base_7,0,none,11534,0.0002098420081892982,-4.286737578240718e-07,-0.22320666909217834,-35.3632621,149.1652374,0.0,0.0,0.0,-0.03,-9.942160977516323e-05,9.444940951652825e-05,0.0,1000,1000,1000,1000,12600,0,0.003086324315518141,0.002729385159909725,0.0029041895177215338,10,{}
normal_corridor_base_7,0,none,11869,0.00022093406005296856,3.89309252568637e-06,-0.20210911333560944,-35.3632621,149.1652374,0.0,0.0,0.0,-0.02,-9.942157339537516e-05,9.444940224057063e-05,0.0,1000,1000,1000,1000,12600,0,0.003028291277587414,0.002609644317999482,0.0026846867986023426,10,{}
normal_corridor_base_7,0,none,12201,0.00022302263823803514,1.927107950905338e-05,-0.17758210003376007,-35.3632621,149.1652374,0.0,0.0,0.0,-0.02,-9.942167525878176e-05,9.444942406844348e-05,0.0,1000,1000,1000,1000,12600,0,0.0029450845904648304,0.0026060710661113262,0.0029119292739778757,10,{}
normal_corridor_base_7,0,none,12534,0.0002311996795469895,2.5546481992932968e-05,-0.16146229207515717,-35.3632621,149.1652374,0.0,0.0,0.0,-0.02,-9.942167525878176e-05,9.444942406844348e-05,0.0,1000,1000,1000,1000,12600,0,0.0028534745797514915,0.003115403465926647,0.0028567027766257524,10,{}
normal_corridor_base_7,0,none,12867,0.00023882384994067252,3.527367880451493e-05,-0.14715319871902466,-35.3632621,149.1652374,0.0,0.0,0.0,-0.02,-9.942165343090892e-05,9.444936586078256e-05,0.0,1000,1000,1000,1000,12600,0,0.0026706946082413197,0.0029354833532124758,0.0027871839702129364,10,{}
normal_corridor_base_7,0,none,13199,0.0002469272294547409,4.079690916114487e-05,-0.13058100640773773,-35.3632621,149.1652374,0.0,0.0,0.0,-0.02,-9.942163160303608e-05,9.444936586078256e-05,0.0,1000,1000,1000,1000,12600,0,0.0027065137401223183,0.0027123400941491127,0.002810284961014986,10,{}
normal_corridor_base_7,0,none,13532,0.00025818424182944,4.6270215534605086e-05,-0.1198815405368805,-35.3632621,149.1652374,0.0,0.0,0.0,-0.01,-9.942163160303608e-05,9.444936586078256e-05,0.0,1000,1000,1000,1000,12600,0,0.002790022874251008,0.002652977127581835,0.002924981527030468,10,{}
normal_corridor_base_7,0,none,13866,0.0002677571901585907,5.632330430671573e-05,-0.11046017706394196,-35.3632621,149.1652374,0.0,0.0,0.0,-0.01,-9.942163160303608e-05,9.444940224057063e-05,0.0,1000,1000,1000,1000,12600,0,0.0029537410009652376,0.0027013998478651047,0.002717008115723729,10,{}
normal_corridor_base_7,0,none,14199,0.0002782234223559499,6.539437163155526e-05,-0.09971003234386444,-35.3632621,149.1652374,0.0,0.0,0.0,-0.01,-9.942153701558709e-05,9.444936586078256e-05,0.0,1000,1000,1000,1000,12600,0,0.002758793067187071,0.0027501750737428665,0.0027629267424345016,10,{}
normal_corridor_base_7,0,none,14531,0.00028721976559609175,7.729626668151468e-05,-0.09281208366155624,-35.3632621,149.1652374,0.0,0.0,0.0,-0.01,-9.942153701558709e-05,9.444936586078256e-05,0.0,1000,1000,1000,1000,12600,0,0.0027488756459206343,0.0028161455411463976,0.0023218425922095776,10,{}
normal_corridor_base_7,0,none,14864,0.00030165459611453116,9.013641101773828e-05,-0.08679626137018204,-35.3632621,149.1652374,0.0,0.0,0.0,-0.01,-9.942152973962948e-05,9.444933675695211e-05,0.0,1000,1000,1000,1000,12600,0,0.0028279456309974194,0.0027563583571463823,0.0028011230751872063,10,{}
normal_corridor_base_7,0,none,15352,0.0003202961233910173,0.00010656270023901016,-0.07727712392807007,-35.3632621,149.1652374,0.0,0.0,0.0,-0.01,-9.942152973962948e-05,9.444933675695211e-05,0.0,1000,1000,1000,1000,12600,0,0.0027023665606975555,0.0027013954240828753,0.002471613697707653,10,{}
normal_corridor_base_7,0,none,15602,0.0003311962354928255,0.0001118296422646381,-0.07388365268707275,-35.3632621,149.1652374,0.0,0.0,0.0,-0.01,-9.942150063579902e-05,9.444935130886734e-05,0.0,1000,1000,1000,1000,12600,0,0.0027988802175968885,0.0027518440037965775,0.002646474866196513,10,{}
normal_corridor_base_7,0,none,15854,0.0003366611781530082,0.00012025694741168991,-0.07094002515077591,-35.3632621,149.1652374,0.0,0.0,0.0,0.0,-9.942148608388379e-05,9.444936586078256e-05,0.0,1000,1000,1000,1000,12600,0,0.0027988802175968885,0.0027518440037965775,0.002646474866196513,10,{}
normal_corridor_base_7,0,none,16104,0.0003452042583376169,0.00012997495650779456,-0.06826519221067429,-35.3632621,149.1652374,0.0,0.0,0.0,0.0,-9.94214933598414e-05,9.444938041269779e-05,0.0,1000,1000,1000,1000,12600,0,0.0027182139456272125,0.0026065378915518522,0.0027197382878512144,10,{}
normal_corridor_base_7,0,none,16354,0.0003532669215928763,0.00013789819786325097,-0.06596497446298599,-35.3632621,149.1652374,0.0,0.0,0.0,0.0,-9.942150791175663e-05,9.444938041269779e-05,0.0,1000,1000,1000,1000,12600,0,0.003118454245850444,0.0025356316473335028,0.0028688397724181414,10,{}
normal_corridor_base_7,0,none,16604,0.00036598052247427404,0.00014508528693113476,-0.06390956789255142,-35.3632621,149.1652374,0.0,0.0,0.0,0.0,-9.942150791175663e-05,9.444938041269779e-05,0.0,1000,1000,1000,1000,12600,0,0.003091690829023719,0.0026633823290467262,0.0026695828419178724,10,{}
normal_corridor_base_7,0,none,16854,0.00037629168946295977,0.00015352379705291241,-0.06214262917637825,-35.3632621,149.1652374,0.0,0.0,0.0,0.0,-9.942148608388379e-05,9.444938041269779e-05,0.0,1000,1000,1000,1000,12600,0,0.003091690829023719,0.0026633823290467262,0.0026695828419178724,10,{}
normal_corridor_base_7,0,none,17102,0.0003875784750562161,0.0001590102765476331,-0.06053543463349342,-35.3632621,149.1652374,0.0,0.0,0.0,0.0,-9.942148608388379e-05,9.444938041269779e-05,0.0,1000,1000,1000,1000,12600,0,0.002825044561177492,0.0027470679488033056,0.002836329396814108,10,{}
normal_corridor_base_7,0,none,17579,0.00039533182280138135,0.0001676493848208338,-0.059236761182546616,-35.3632621,149.1652374,0.0,0.0,0.0,0.0,-9.942156611941755e-05,9.44493876886554e-05,0.0,1000,1000,1000,1000,12600,0,0.002825816161930561,0.003049371996894479,0.0028852818068116903,10,{}
normal_corridor_base_7,0,none,17911,0.00041775908903218806,0.00018775025091599673,-0.05693657696247101,-35.3632621,149.1652374,0.0,0.0,0.0,0.0,-9.942163160303608e-05,9.444934403290972e-05,0.0,1000,1000,1000,1000,12600,0,0.002824755385518074,0.002836064202710986,0.0025788487400859594,10,{}
normal_corridor_base_7,0,none,18244,0.00042614529957063496,0.0002047225716523826,-0.05589234456419945,-35.3632621,149.1652374,0.0,0.0,0.0,0.0,-9.942163160303608e-05,9.444934403290972e-05,0.0,1000,1000,1000,1000,12600,0,0.0027812067419290543,0.0029723630286753178,0.0028827933128923178,10,{}
normal_corridor_base_7,0,none,18579,0.0004427329113241285,0.00021960581943858415,-0.054798275232315063,-35.3632621,149.1652374,0.0,0.0,0.0,0.0,-9.942166798282415e-05,9.444932948099449e-05,0.0,1000,1000,1000,1000,12600,0,0.00285006663762033,0.0030651409178972244,0.0030045497696846724,10,{}
normal_corridor_base_7,0,none,18911,0.0004594650526996702,0.00023282290203496814,-0.05418718606233597,-35.3632621,149.1652374,0.0,0.0,0.0,0.0,-9.942162432707846e-05,9.444930037716404e-05,0.0,1000,1000,1000,1000,12600,0,0.003002847544848919,0.0028176037594676018,0.002877030987292528,10,{}
normal_corridor_base_7,0,none,19244,0.0004760489973705262,0.0002483213320374489,-0.05370071530342102,-35.3632621,149.1652374,0.0,0.0,0.0,0.0,-9.942162432707846e-05,9.444930037716404e-05,0.0,1000,1000,1000,1000,12600,0,0.0026970484759658575,0.0030098112765699625,0.002638560952618718,10,{}
normal_corridor_base_7,0,none,19577,0.0004935090546496212,0.00026274161064065993,-0.053238943219184875,-35.3632621,149.1652374,0.0,0.0,0.0,0.0,-9.942161705112085e-05,9.444935858482495e-05,0.0,1000,1000,1000,1000,12600,0,0.0028135457541793585,0.002852020785212517,0.0027769373264163733,10,{}
normal_corridor_base_7,0,none,19909,0.0005109798512421548,0.00027763860998675227,-0.05297987908124924,-35.3632621,149.1652374,0.0,0.0,0.0,0.0,-9.942166070686653e-05,9.444933675695211e-05,0.0,1000,1000,1000,1000,12600,0,0.0029929259326308966,0.0028067955281585455,0.002883009612560272,10,{}
normal_corridor_base_7,0,none,20244,0.0005291852285154164,0.00029762962367385626,-0.05266076326370239,-35.3632621,149.1652374,-0.006,0.0,0.0,0.0,-9.942166070686653e-05,9.444933675695211e-05,0.0,1000,1000,1000,1000,12600,0,0.0029321867041289806,0.0028470561373978853,0.002631999785080552,10,{}
normal_corridor_base_7,0,none,20576,0.0005516259698197246,0.0003183468652423471,-0.05263078212738037,-35.3632621,149.1652374,-0.008,0.0,0.0,0.0,-9.942175529431552e-05,9.44493876886554e-05,0.0,1000,1000,1000,1000,12600,0,0.002659890800714493,0.002789271529763937,0.002582876943051815,10,{}
normal_corridor_base_7,0,none,20909,0.0005647751968353987,0.00033166707726195455,-0.052709951996803284,-35.3632621,149.1652374,-0.007,0.0,0.0,0.0,-9.94217480183579e-05,9.444939496461302e-05,0.0,1000,1000,1000,1000,12600,0,0.00290850130841136,0.0028136640321463346,0.003074054839089513,10,{}
normal_corridor_base_7,0,none,21242,0.0005797043559141457,0.00034904686617664993,-0.05281529948115349,-35.3632621,149.1652374,-0.005,0.0,0.0,0.0,-9.94217480183579e-05,9.444939496461302e-05,0.0,1000,1000,1000,1000,12600,0,0.00292440177872777,0.0027683761436492205,0.002917094621807337,10,{}
normal_corridor_base_7,0,none,21574,0.0006003817543387413,0.00036981693119741976,-0.053088705986738205,-35.3632621,149.1652374,-0.004,0.0,0.0,0.0,-9.942176257027313e-05,9.444936586078256e-05,0.0,1000,1000,1000,1000,12600,0,0.0027347845025360584,0.0029187605250626802,0.0027319861110299826,10,{}
normal_corridor_base_7,0,none,21907,0.000620477250777185,0.0003834378730971366,-0.05330842733383179,-35.3632621,149.1652374,-0.002,0.0,0.0,0.0,-9.942176984623075e-05,9.444932220503688e-05,0.0,1000,1000,1000,1000,12600,0,0.003103294875472784,0.0028319458942860365,0.0027751342859119177,10,{}
normal_corridor_base_7,0,none,22241,0.0006391000933945179,0.00039897789247334003,-0.053569406270980835,-35.3632621,149.1652374,-0.001,0.0,0.01,0.0,-9.942176984623075e-05,9.444932220503688e-05,0.0,1000,1000,1000,1000,12600,0,0.002680514007806778,0.0026695949491113424,0.0028103345539420843,10,{}
normal_corridor_base_7,0,none,22574,0.0006616011960431933,0.00042742674122564495,-0.053976643830537796,-35.3632621,149.1652374,0.0,0.0,0.01,0.0,-9.942186443367973e-05,9.444946044823155e-05,0.0,1000,1000,1000,1000,12600,0,0.002710989210754633,0.0027152535039931536,0.0028230929747223854,10,{}
normal_corridor_base_7,0,none,22906,0.0006818819674663246,0.0004474455490708351,-0.054335691034793854,-35.3632621,149.1652374,0.0,0.0,0.01,0.0,-9.942194446921349e-05,9.444945317227393e-05,0.0,1000,1000,1000,1000,12600,0,0.0027242512442171574,0.0025301091372966766,0.0029564802534878254,10,{}
normal_corridor_base_7,0,none,23239,0.00070012646028772,0.00046339340042322874,-0.054684996604919434,-35.3632621,149.1652374,0.001,-0.01,0.01,0.0,-9.942194446921349e-05,9.444945317227393e-05,0.0,1000,1000,1000,1000,12600,0,0.003081945702433586,0.002861928893253207,0.002657620469108224,10,{}
normal_corridor_base_7,0,none,23572,0.0007187282317318022,0.000487150507979095,-0.055241383612155914,-35.3632621,149.1652374,0.001,-0.01,0.01,0.0,-9.942188626155257e-05,9.444942406844348e-05,0.0,1000,1000,1000,1000,12600,0,0.00269619794562459,0.003010902786627412,0.002590735210105777,10,{}
normal_corridor_base_7,0,none,23907,0.000733180611860007,0.0005019335076212883,-0.05564441904425621,-35.3632621,149.1652374,0.002,-0.01,0.01,0.0,-9.942183532984927e-05,9.44493876886554e-05,0.0,1000,1000,1000,1000,12600,0,0.00251419423148036,0.002686239080503583,0.0027024035807698965,10,{}
normal_corridor_base_7,0,none,24239,0.0007468365947715938,0.0005213632830418646,-0.05607698857784271,-35.3632621,149.1652374,0.002,-0.01,0.01,0.0,-9.942183532984927e-05,9.44493876886554e-05,0.0,1000,1000,1000,1000,12600,0,0.0025687452871352434,0.002660042140632868,0.0025630593299865723,10,{}
normal_corridor_base_7,0,none,24571,0.0007632261840626597,0.0005400826339609921,-0.05665126070380211,-35.3632621,149.1652374,0.002,-0.01,0.01,0.0,-9.942185715772212e-05,9.444940224057063e-05,0.0,1000,1000,1000,1000,12600,0,0.002729373751208186,0.0028063859790563583,0.0029431628063321114,10,{}
normal_corridor_base_7,0,none,24904,0.0007810788811184466,0.000556446029804647,-0.05710027739405632,-35.3632621,149.1652374,0.002,-0.01,0.01,0.0,-9.942193719325587e-05,9.444949682801962e-05,0.0,1000,1000,1000,1000,12600,0,0.0027245711535215378,0.002915424294769764,0.002791911829262972,10,{}
normal_corridor_base_7,0,none,25239,0.0007927296683192253,0.0005740036722272635,-0.05755478888750076,-35.3632621,149.1652374,0.003,-0.01,0.01,0.0,-9.942193719325587e-05,9.444949682801962e-05,0.0,1000,1000,1000,1000,12600,0,0.0028294669464230537,0.002783691044896841,0.002869171090424061,10,{}
normal_corridor_base_7,0,none,25572,0.0008146381005644798,0.0005932780914008617,-0.05811090022325516,-35.3632621,149.1652374,0.003,-0.01,0.01,0.0,-9.942189353751019e-05,9.444951865589246e-05,0.0,1000,1000,1000,1000,12600,0,0.002666208893060684,0.002760491566732526,0.002870257943868637,10,{}
normal_corridor_base_7,0,none,25904,0.0008248572703450918,0.0006093677948229015,-0.058527592569589615,-35.3632621,149.1652374,0.002,-0.01,0.01,0.0,-9.94219008134678e-05,9.444950410397723e-05,0.0,1000,1000,1000,1000,12600,0,0.0027407456655055285,0.0031168251298367977,0.002877187682315707,10,{}
normal_corridor_base_7,0,none,26237,0.0008452644106000662,0.0006193353328853846,-0.05901447311043739,-35.3632621,149.1652374,0.002,-0.01,0.01,0.0,-9.94219008134678e-05,9.444950410397723e-05,0.0,1000,1000,1000,1000,12600,0,0.0030175328720360994,0.002643467392772436,0.0030625939834862947,10,{}
normal_corridor_base_7,0,none,26569,0.0008633318357169628,0.0006289681186899543,-0.05967145040631294,-35.3632621,149.1652374,0.002,-0.01,0.01,0.0,-9.942191536538303e-05,9.444946772418916e-05,0.0,1000,1000,1000,1000,12600,0,0.0026209428906440735,0.0027027337346225977,0.0028494400903582573,10,{}
normal_corridor_base_7,0,none,26904,0.0008724535582587123,0.0006371575873345137,-0.06016233190894127,-35.3632621,149.1652374,0.002,-0.01,0.01,0.0,-9.942193719325587e-05,9.444944589631632e-05,0.0,1000,1000,1000,1000,12600,0,0.002772416453808546,0.002801745431497693,0.0025789355859160423,10,{}
normal_corridor_base_7,0,none,27236,0.0008868402219377458,0.0006506893550977111,-0.06066504865884781,-35.3632621,149.1652374,0.002,-0.01,0.01,0.0,-9.942193719325587e-05,9.444944589631632e-05,0.0,1000,1000,1000,1000,12600,0,0.0027184125501662493,0.0030934480018913746,0.002741360804066062,10,{}
normal_corridor_base_7,0,none,27569,0.0008996718097478151,0.0006594445439986885,-0.06135183200240135,-35.3632621,149.1652374,0.001,-0.01,0.01,0.0,-9.94219517451711e-05,9.444950410397723e-05,0.0,1000,1000,1000,1000,12600,0,0.0026867373380810022,0.0029153579380363226,0.0027361188549548388,10,{}
normal_corridor_base_7,0,none,27902,0.000912673189304769,0.0006739055388607085,-0.06183336302638054,-35.3632621,149.1652374,0.001,-0.01,0.01,0.0,-9.942199540091679e-05,9.444951137993485e-05,0.0,1000,1000,1000,1000,12600,0,0.0027357342187315226,0.002696841722354293,0.002879287814721465,10,{}
normal_corridor_base_7,0,none,28234,0.0009210641146637499,0.0006859229761175811,-0.06231032311916351,-35.3632621,149.1652374,0.001,-0.01,0.01,0.0,-9.942199540091679e-05,9.444951137993485e-05,0.0,1000,1000,1000,1000,12600,0,0.0028160151559859514,0.0028845788910984993,0.002575053134933114,10,{}
normal_corridor_base_7,0,none,28569,0.0009367683087475598,0.0007018165197223425,-0.06297571212053299,-35.3632621,149.1652374,0.0,-0.01,0.01,0.0,-9.942202450474724e-05,9.444956231163815e-05,0.0,1000,1000,1000,1000,12600,0,0.0026494180783629417,0.0026145312003791332,0.0027721195947378874,10,{}
normal_corridor_base_7,0,none,28901,0.0009464585455134511,0.0007165868300944567,-0.06345467269420624,-35.3632621,149.1652374,0.0,-0.01,0.01,0.0,-9.942211181623861e-05,9.444962779525667e-05,0.0,1000,1000,1000,1000,12600,0,0.002955704927444458,0.00283805257640779,0.0026077800430357456,10,{}
normal_corridor_base_7,0,none,29234,0.0009584385552443564,0.0007324896869249642,-0.06393662840127945,-35.3632621,149.1652374,0.0,-0.01,0.01,0.0,-9.942211181623861e-05,9.444962779525667e-05,0.0,1000,1000,1000,1000,12600,0,0.002933125477284193,0.0024980290327221155,0.0025952886790037155,10,{}
normal_corridor_base_7,0,none,29567,0.0009751858306117356,0.0007438089232891798,-0.06455470621585846,-35.3632621,149.1652374,0.0,-0.01,0.01,0.0,-9.942224278347567e-05,9.444967872695997e-05,0.0,1000,1000,1000,1000,12600,0,0.0029121777042746544,0.002822786569595337,0.0026580863632261753,10,{}
normal_corridor_base_7,0,none,29899,0.0009859170531854033,0.0007557593053206801,-0.06505013257265091,-35.3632621,149.1652374,0.0,-0.01,0.02,0.0,-9.942230099113658e-05,9.444968600291759e-05,0.0,1000,1000,1000,1000,12600,0,0.0027389819733798504,0.0028520224150270224,0.0027131428942084312,10,{}
normal_corridor_base_7,0,none,30352,0.0009988810634240508,0.0007762580644339323,-0.06582269817590714,-35.3632621,149.1652374,-0.001,-0.01,0.02,0.0,-9.942230099113658e-05,9.444968600291759e-05,0.0,1000,1000,1000,1000,12600,0,0.0027133256662636995,0.002804769668728113,0.0026525319553911686,10,{}
normal_corridor_base_7,0,none,30604,0.0010026745731011033,0.0007829213282093406,-0.06621085107326508,-35.3632621,149.1652374,-0.001,-0.01,0.02,0.0,-9.942230099113658e-05,9.444968600291759e-05,0.0,1000,1000,1000,1000,12600,0,0.0027133256662636995,0.002804769668728113,0.0026525319553911686,10,{}
normal_corridor_base_7,0,none,30854,0.001014680601656437,0.0007896236493252218,-0.06658640503883362,-35.3632621,149.1652374,-0.001,-0.01,0.02,0.0,-9.942249016603455e-05,9.444988972973078e-05,0.0,1000,1000,1000,1000,12600,0,0.002649520756676793,0.002705460647121072,0.0029449232388287783,10,{}
normal_corridor_base_7,0,none,31104,0.0010177631629630923,0.0007951052393764257,-0.0669742152094841,-35.3632621,149.1652374,-0.002,-0.01,0.02,0.0,-9.942249016603455e-05,9.444988972973078e-05,0.0,1000,1000,1000,1000,12600,0,0.0026380515191704035,0.0026918735820800066,0.0029353960417211056,10,{}
normal_corridor_base_7,0,none,31579,0.0010303289163857698,0.0007989954319782555,-0.06734567135572433,-35.3632621,149.1652374,-0.002,-0.01,0.02,0.0,-9.942253382178023e-05,9.444995521334931e-05,0.0,1000,1000,1000,1000,12600,0,0.002871585311368108,0.002759430557489395,0.002892202464863658,10,{}
normal_corridor_base_7,0,none,31912,0.0010418774327263236,0.0008084059809334576,-0.06801380962133408,-35.3632621,149.1652374,-0.003,-0.01,0.02,0.0,-9.942248289007694e-05,9.444988245377317e-05,0.0,1000,1000,1000,1000,12600,0,0.0027398988604545593,0.0029678023420274258,0.0028223826084285975,10,{}
normal_corridor_base_7,0,none,32247,0.0010526175610721111,0.0008172173984348774,-0.06845620274543762,-35.3632621,149.1652374,-0.003,-0.01,0.02,0.0,-9.942248289007694e-05,9.444988245377317e-05,0.0,1000,1000,1000,1000,12600,0,0.002995274495333433,0.002925897715613246,0.0027299353387206793,10,{}
normal_corridor_base_7,0,none,32579,0.0010610006283968687,0.0008249238017015159,-0.06892155110836029,-35.3632621,149.1652374,-0.003,-0.01,0.02,0.0,-9.942247561411932e-05,9.44499479373917e-05,0.0,1000,1000,1000,1000,12600,0,0.0031205571722239256,0.0027488183695822954,0.0027960475999861956,10,{}
normal_corridor_base_7,0,none,32911,0.0010688315378502011,0.0008449205779470503,-0.06949161738157272,-35.3632621,149.1652374,-0.004,-0.01,0.02,0.0,-9.942254109773785e-05,9.444996976526454e-05,0.0,1000,1000,1000,1000,12600,0,0.002646987559273839,0.002667822875082493,0.002976579824462533,10,{}
normal_corridor_base_7,0,none,33244,0.0010816798312589526,0.0008544589509256184,-0.0699271485209465,-35.3632621,149.1652374,-0.004,-0.01,0.02,0.0,-9.942254109773785e-05,9.444996976526454e-05,0.0,1000,1000,1000,1000,12600,0,0.002849764423444867,0.0029291792307049036,0.0027127766516059637,10,{}
normal_corridor_base_7,0,none,33579,0.0010957142803817987,0.0008657012949697673,-0.0703541710972786,-35.3632621,149.1652374,-0.004,-0.01,0.02,0.0,-9.942254837369546e-05,9.444992610951886e-05,0.0,1000,1000,1000,1000,12600,0,0.0027867495082318783,0.0027670308481901884,0.002821423579007387,10,{}
normal_corridor_base_7,0,none,33912,0.0011126878671348095,0.0008767626713961363,-0.07093016803264618,-35.3632621,149.1652374,-0.004,-0.02,0.02,0.0,-9.942253382178023e-05,9.444995521334931e-05,0.0,1000,1000,1000,1000,12600,0,0.002545477356761694,0.0028996693436056376,0.002719758078455925,10,{}
normal_corridor_base_7,0,none,34244,0.0011176522821187973,0.0008824842516332865,-0.07133402675390244,-35.3632621,149.1652374,-0.005,-0.02,0.02,0.0,-9.942253382178023e-05,9.444995521334931e-05,0.0,1000,1000,1000,1000,12600,0,0.0032935491763055325,0.002470319624990225,0.002919071353971958,10,{}
normal_corridor_base_7,0,none,34576,0.001128799864090979,0.0008983018924482167,-0.07174009829759598,-35.3632621,149.1652374,-0.005,-0.02,0.02,0.0,-9.942249016603455e-05,9.445001342101023e-05,0.0,1000,1000,1000,1000,12600,0,0.00276155024766922,0.0029038069769740105,0.0028333510272204876,10,{}
normal_corridor_base_7,0,none,34909,0.0011428899597376585,0.000915486307349056,-0.07227416336536407,-35.3632621,149.1652374,-0.005,-0.02,0.02,0.0,-9.942238830262795e-05,9.444998431717977e-05,0.0,1000,1000,1000,1000,12600,0,0.0023848062846809626,0.0029019599314779043,0.0027990255039185286,10,{}
normal_corridor_base_7,0,none,35244,0.0011489292373880744,0.000923744635656476,-0.0726700872182846,-35.3632621,149.1652374,-0.005,-0.02,0.02,0.0,-9.942238830262795e-05,9.444998431717977e-05,0.0,1000,1000,1000,1000,12600,0,0.0029748366214334965,0.002803597366437316,0.0026156872045248747,10,{}
normal_corridor_base_7,0,none,35576,0.001156963873654604,0.0009315219940617681,-0.07306474447250366,-35.3632621,149.1652374,-0.005,-0.02,0.02,0.0,-9.94223082670942e-05,9.444993338547647e-05,0.0,1000,1000,1000,1000,12600,0,0.0026393476873636246,0.002728042658418417,0.002645203610882163,10,{}
normal_corridor_base_7,0,none,35909,0.0011641628807410598,0.0009332394110970199,-0.07356568425893784,-35.3632621,149.1652374,-0.005,-0.02,0.02,0.0,-9.94223591987975e-05,9.444991883356124e-05,0.0,1000,1000,1000,1000,12600,0,0.0027221492491662502,0.0027540933806449175,0.002934487536549568,10,{}
normal_corridor_base_7,0,none,36242,0.0011696172878146172,0.0009462599991820753,-0.0738685205578804,-35.3632621,149.1652374,-0.005,-0.02,0.02,0.0,-9.94223591987975e-05,9.444991883356124e-05,0.0,1000,1000,1000,1000,12600,0,0.0030365220736712217,0.002760553266853094,0.0029405588284134865,10,{}
normal_corridor_base_7,0,none,36574,0.001179106649942696,0.0009590226109139621,-0.07425902783870697,-35.3632621,149.1652374,-0.005,-0.02,0.02,0.0,-9.942230099113658e-05,9.444992610951886e-05,0.0,1000,1000,1000,1000,12600,0,0.003087260527536273,0.0026460709050297737,0.002706602681428194,10,{}
normal_corridor_base_7,0,none,36909,0.001191356685012579,0.0009806053712964058,-0.07475560158491135,-35.3632621,149.1652374,-0.005,-0.02,0.02,0.0,-9.942233737092465e-05,9.444991883356124e-05,0.0,1000,1000,1000,1000,12600,0,0.0025853593833744526,0.00283193401992321,0.002583537483587861,10,{}
normal_corridor_base_7,0,none,37241,0.0011992267100140452,0.0009932273533195257,-0.07511848956346512,-35.3632621,149.1652374,-0.005,-0.02,0.02,0.0,-9.942233737092465e-05,9.444991883356124e-05,0.0,1000,1000,1000,1000,12600,0,0.002956477226689458,0.002846020506694913,0.0027477650437504053,10,{}
normal_corridor_base_7,0,none,37574,0.0012097603175789118,0.0010020443005487323,-0.07548502087593079,-35.3632621,149.1652374,-0.005,-0.02,0.02,0.0,-9.942234464688227e-05,9.44498970056884e-05,0.0,1000,1000,1000,1000,12600,0,0.0026805135421454906,0.0024963992182165384,0.0026848691049963236,10,{}
normal_corridor_base_7,0,none,37907,0.0012108368100598454,0.0010209191823378205,-0.07596071064472198,-35.3632621,149.1652374,-0.006,-0.02,0.02,0.0,-9.942233009496704e-05,9.444988972973078e-05,0.0,1000,1000,1000,1000,12600,0,0.0027748316060751677,0.002743612742051482,0.002831879537552595,10,{}
normal_corridor_base_7,0,none,38239,0.0012250393629074097,0.001036826171912253,-0.07632233202457428,-35.3632621,149.1652374,-0.006,-0.02,0.02,0.0,-9.942233009496704e-05,9.444988972973078e-05,0.0,1000,1000,1000,1000,12600,0,0.0027646790258586407,0.0027631509583443403,0.002819669432938099,10,{}
normal_corridor_base_7,0,none,38572,0.0012329797027632594,0.001040867529809475,-0.07666778564453125,-35.3632621,149.1652374,-0.006,-0.02,0.02,0.0,-9.942233009496704e-05,9.444986062590033e-05,0.0,1000,1000,1000,1000,12600,0,0.0028753771912306547,0.0029479472432285547,0.0028579120989888906,10,{}
normal_corridor_base_7,0,none,38906,0.001246721833012998,0.0010569773148745298,-0.07713848352432251,-35.3632621,149.1652374,-0.006,-0.02,0.02,0.0,-9.942229371517897e-05,9.444985334994271e-05,0.0,1000,1000,1000,1000,12600,0,0.002610185882076621,0.002929538721218705,0.0027746916748583317,10,{}
normal_corridor_base_7,0,none,39239,0.0012509310618042946,0.001067229313775897,-0.0774788185954094,-35.3632621,149.1652374,-0.006,-0.02,0.02,0.0,-9.942229371517897e-05,9.444985334994271e-05,0.0,1000,1000,1000,1000,12600,0,0.0028495865408331156,0.002867085160687566,0.0028418595902621746,10,{}
normal_corridor_base_7,0,none,39571,0.0012480112491175532,0.0010727312183007598,-0.07781906425952911,-35.3632621,149.1652374,-0.006,-0.02,0.02,0.0,-9.942227916326374e-05,9.444987517781556e-05,0.0,1000,1000,1000,1000,12600,0,0.002615527482703328,0.0027471790090203285,0.002967891050502658,10,{}
normal_corridor_base_7,0,none,39904,0.0012591194827109575,0.001080174813978374,-0.0782550796866417,-35.3632621,149.1652374,-0.006,-0.02,0.02,0.0,-9.942226461134851e-05,9.44498970056884e-05,0.0,1000,1000,1000,1000,12600,0,0.0028063696809113026,0.002887075301259756,0.0025386151392012835,10,{}
normal_corridor_base_7,0,none,40237,0.001265833037905395,0.0010844683274626732,-0.07858869433403015,-35.3632621,149.1652374,-0.006,-0.02,0.02,0.0,-9.942226461134851e-05,9.44498970056884e-05,0.0,1000,1000,1000,1000,12600,0,0.0027844738215208054,0.0031509932596236467,0.00323976157233119,10,{}
normal_corridor_base_7,0,none,40572,0.0012749930610880256,0.001094470382668078,-0.07889565825462341,-35.3632621,149.1652374,-0.006,-0.02,0.02,0.0,-9.942229371517897e-05,9.444993338547647e-05,0.0,1000,1000,1000,1000,12600,0,0.0026420848444104195,0.002904323861002922,0.0027778539806604385,10,{}
normal_corridor_base_7,0,none,40904,0.0012861494906246662,0.0010967556154355407,-0.07926444709300995,-35.3632621,149.1652374,-0.006,-0.02,0.02,0.0,-9.942226461134851e-05,9.444992610951886e-05,0.0,1000,1000,1000,1000,12600,0,0.002635553479194641,0.002750574378296733,0.002673871349543333,10,{}
normal_corridor_base_7,0,none,41236,0.0012900868896394968,0.0011086368467658758,-0.07955040037631989,-35.3632621,149.1652374,-0.006,-0.02,0.02,0.0,-9.942226461134851e-05,9.444992610951886e-05,0.0,1000,1000,1000,1000,12600,0,0.002926739864051342,0.0029517929069697857,0.0028163925744593143,10,{}
normal_corridor_base_7,0,none,41569,0.0012985521461814642,0.0011168541386723518,-0.07986173033714294,-35.3632621,149.1652374,-0.006,-0.02,0.02,0.0,-9.942227188730612e-05,9.444992610951886e-05,0.0,1000,1000,1000,1000,12600,0,0.0028551388531923294,0.002923312596976757,0.0027412939816713333,10,{}
normal_corridor_base_7,0,none,41904,0.0013416522415354848,0.001163192093372345,-0.08026579022407532,-35.3632621,149.1652374,-0.006,0.0,0.0,0.0,-9.942231554305181e-05,9.444991883356124e-05,0.0,1000,1000,1000,1000,12600,0,0.0029501612298190594,0.002717595314607024,0.002898195292800665,10,{}
normal_corridor_base_7,0,none,42237,0.0014236929127946496,0.0012450041249394417,-0.08057807385921478,-35.3632621,149.1652374,-0.006,0.0,0.0,0.0,-9.942231554305181e-05,9.444991883356124e-05,0.0,1000,1000,1000,1000,12600,0,0.0027265832759439945,0.0026968596503138542,0.002913632895797491,10,{}
normal_corridor_base_7,0,none,42569,0.0014888086589053273,0.0013102164957672358,-0.08087770640850067,-35.3632621,149.1652374,-0.006,0.0,0.0,0.0,-9.942230099113658e-05,9.444992610951886e-05,0.0,1000,1000,1000,1000,12600,0,0.0030430895276367664,0.002794854575768113,0.0027094383258372545,10,{}
normal_corridor_base_7,0,none,42901,0.0015690235886722803,0.0013915278250351548,-0.08127924054861069,-35.3632621,149.1652374,-0.006,0.0,0.01,0.0,-9.942231554305181e-05,9.444993338547647e-05,0.0,1000,1000,1000,1000,12600,0,0.002717282623052597,0.002687489613890648,0.0025946383830159903,10,{}
normal_corridor_base_7,0,none,43234,0.0016208488959819078,0.0014412106247618794,-0.08159206062555313,-35.3632621,149.1652374,-0.006,-0.01,0.01,0.0,-9.942231554305181e-05,9.444993338547647e-05,0.0,1000,1000,1000,1000,12600,0,0.003003360703587532,0.0027820433024317026,0.0028897272422909737,10,{}
normal_corridor_base_7,0,none,43569,0.001648467849008739,0.0014640463050454855,-0.08190040290355682,-35.3632621,149.1652374,-0.006,-0.01,0.01,0.0,-9.942233009496704e-05,9.44498970056884e-05,0.0,1000,1000,1000,1000,12600,0,0.0028131951112300158,0.002984279068186879,0.0028197853825986385,10,{}
normal_corridor_base_7,0,none,43901,0.001656689797528088,0.0014754080912098289,-0.0823056623339653,-35.3632621,149.1652374,-0.006,-0.01,0.01,0.0,-9.942235192283988e-05,9.444986790185794e-05,0.0,1000,1000,1000,1000,12600,0,0.0029408440459519625,0.0030819172970950603,0.002535538747906685,10,{}
normal_corridor_base_7,0,none,44234,0.001647216035053134,0.0014670786913484335,-0.08262131363153458,-35.3632621,149.1652374,-0.006,-0.01,0.01,0.0,-9.942235192283988e-05,9.444986790185794e-05,0.0,1000,1000,1000,1000,12600,0,0.002754655433818698,0.00288203451782465,0.003103417344391346,10,{}
normal_corridor_base_7,0,none,44567,0.001619444228708744,0.001432375400327146,-0.08290622383356094,-35.3632621,149.1652375,-0.006,-0.01,0.02,0.0,-9.942238830262795e-05,9.444990428164601e-05,0.0,1000,1000,1000,1000,12600,0,0.0027946638874709606,0.0028540974017232656,0.002594121964648366,10,{}
normal_corridor_base_7,0,none,44899,0.0015623654471710324,0.0013788302894681692,-0.08328162878751755,-35.3632621,149.1652375,-0.006,-0.01,0.02,0.0,-9.942233009496704e-05,9.444986062590033e-05,0.0,1000,1000,1000,1000,12600,0,0.002718118019402027,0.0029168236069381237,0.0026421567890793085,10,{}
normal_corridor_base_7,0,none,45354,0.0014804797247052193,0.0012993920827284455,-0.08371040970087051,-35.3632621,149.1652375,-0.006,-0.01,0.02,0.0,-9.942233009496704e-05,9.444986062590033e-05,0.0,1000,1000,1000,1000,12600,0,0.002774430438876152,0.0027995281852781773,0.002617563819512725,10,{}
normal_corridor_base_7,0,none,45604,0.0014411400770768523,0.0012627006508409977,-0.0839231014251709,-35.3632622,149.1652375,-0.006,-0.01,0.02,0.0,-9.942233737092465e-05,9.444988972973078e-05,0.0,1000,1000,1000,1000,12600,0,0.002774430438876152,0.0027995281852781773,0.002617563819512725,10,{}
normal_corridor_base_7,0,none,45854,0.0013846403453499079,0.0012035705149173737,-0.08412586897611618,-35.3632622,149.1652375,-0.006,-0.01,0.02,0.0,-9.942232281900942e-05,9.444987517781556e-05,0.0,1000,1000,1000,1000,12600,0,0.0030863878782838583,0.0027566668577492237,0.002908692229539156,10,{}
normal_corridor_base_7,0,none,46104,0.0013428085949271917,0.001158235245384276,-0.08433030545711517,-35.3632622,149.1652375,-0.006,-0.01,0.01,0.0,-9.942230099113658e-05,9.444988245377317e-05,0.0,1000,1000,1000,1000,12600,0,0.002984887221828103,0.0028086963575333357,0.0028126961551606655,10,{}
normal_corridor_base_7,0,none,46352,0.0013025023508816957,0.0011123078875243664,-0.08450182527303696,-35.3632622,149.1652375,-0.006,-0.01,0.01,0.0,-9.942228643922135e-05,9.444988245377317e-05,0.0,1000,1000,1000,1000,12600,0,0.00257099443115294,0.002707461826503277,0.0028636532370001078,10,{}
normal_corridor_base_7,0,none,46602,0.0012772622285410762,0.0010922300862148404,-0.08466111123561859,-35.3632622,149.1652375,-0.006,-0.01,0.01,0.0,-9.942232281900942e-05,9.444991155760363e-05,0.0,1000,1000,1000,1000,12600,0,0.00264216517098248,0.002815608400851488,0.002646306762471795,10,{}
normal_corridor_base_7,0,none,46852,0.0012309965677559376,0.001052438747137785,-0.08486385643482208,-35.3632621,149.1652375,-0.006,-0.01,0.01,0.0,-9.942226461134851e-05,9.444991155760363e-05,0.0,1000,1000,1000,1000,12600,0,0.0029707022476941347,0.002645723056048155,0.0024611451663076878,10,{}
normal_corridor_base_7,0,none,47104,0.0011975904926657677,0.001022713491693139,-0.08504047244787216,-35.3632621,149.1652375,-0.006,-0.01,0.01,0.0,-9.942225005943328e-05,9.444992610951886e-05,0.0,1000,1000,1000,1000,12600,0,0.0028023007325828075,0.002653572941198945,0.002382361562922597,10,{}
normal_corridor_base_7,0,none,47354,0.0011719116009771824,0.001000384334474802,-0.08522963523864746,-35.3632621,149.1652375,-0.006,-0.01,0.01,0.0,-9.942221367964521e-05,9.44498970056884e-05,0.0,1000,1000,1000,1000,12600,0,0.00298507884144783,0.0028518245089799166,0.0027925963513553143,10,{}
normal_corridor_base_7,0,none,47604,0.0011588070774450898,0.000987262581475079,-0.08539555966854095,-35.3632621,149.1652375,-0.006,-0.01,0.01,0.0,-9.942217729985714e-05,9.444986062590033e-05,0.0,1000,1000,1000,1000,12600,0,0.0027651889249682426,0.00278066867031157,0.002833001781255007,10,{}
normal_corridor_base_7,0,none,47854,0.001132429693825543,0.0009647379629313946,-0.08558318018913269,-35.3632621,149.1652375,-0.006,-0.01,0.01,0.0,-9.942214819602668e-05,9.444982424611226e-05,0.0,1000,1000,1000,1000,12600,0,0.0028726437594741583,0.002711338922381401,0.0027382494881749153,10,{}
normal_corridor_base_7,0,none,48104,0.0011169440113008022,0.0009482037858106196,-0.08573798090219498,-35.3632621,149.1652375,-0.006,-0.01,0.01,0.0,-9.942211909219623e-05,9.444982424611226e-05,0.0,1000,1000,1000,1000,12600,0,0.0030948978383094072,0.0027696487959474325,0.002795629668980837,10,{}
normal_corridor_base_7,0,none,48352,0.0011059866519644856,0.0009370085899718106,-0.08592329174280167,-35.3632621,149.1652375,-0.006,-0.01,0.01,0.0,-9.9422104540281e-05,9.444980969419703e-05,0.0,1000,1000,1000,1000,12600,0,0.0026993537321686745,0.0029867307748645544,0.002863135654479265,10,{}
normal_corridor_base_7,0,none,48602,0.001099247019737959,0.0009307488217018545,-0.0860808938741684,-35.3632621,149.1652375,-0.006,-0.01,0.01,0.0,-9.942207543645054e-05,9.444980969419703e-05,0.0,1000,1000,1000,1000,12600,0,0.0028912005946040154,0.0027307234704494476,0.002998277312144637,10,{}
normal_corridor_base_7,0,none,48852,0.0010890064295381308,0.0009223561501130462,-0.08624280244112015,-35.3632621,149.1652375,-0.006,-0.01,0.01,0.0,-9.942206816049293e-05,9.444978786632419e-05,0.0,1000,1000,1000,1000,12600,0,0.002841594396159053,0.003061505500227213,0.0027512952219694853,10,{}
normal_corridor_base_7,0,none,49102,0.0010843920754268765,0.0009158637840300798,-0.08640726655721664,-35.3632621,149.1652375,-0.006,-0.01,0.01,0.0,-9.942202450474724e-05,9.444976603845134e-05,0.0,1000,1000,1000,1000,12600,0,0.0028043596539646387,0.0031085521914064884,0.0027516770642250776,10,{}
normal_corridor_base_7,0,none,49354,0.0010827458463609219,0.0009113935520872474,-0.08656544238328934,-35.3632621,149.1652375,-0.006,-0.01,0.01,0.0,-9.942195902112871e-05,9.444973693462089e-05,0.0,1000,1000,1000,1000,12600,0,0.002732842927798629,0.0026489251758903265,0.002798243658617139,10,{}
normal_corridor_base_7,0,none,49604,0.001083318260498345,0.0009119200403802097,-0.08671832084655762,-35.3632621,149.1652375,-0.006,-0.01,0.01,0.0,-9.942197357304394e-05,9.444972238270566e-05,0.0,1000,1000,1000,1000,12600,0,0.002705017104744911,0.0028584597166627645,0.002694720169529319,10,{}
normal_corridor_base_7,0,none,49854,0.0010778730502352118,0.0009135783184319735,-0.08688031882047653,-35.3632621,149.1652375,-0.006,-0.01,0.01,0.0,-9.942198812495917e-05,9.444972238270566e-05,0.0,1000,1000,1000,1000,12600,0,0.0026668154168874025,0.002837886568158865,0.002634619129821658,10,{}
normal_corridor_base_7,0,none,50104,0.001077523222193122,0.0009146906668320298,-0.08703603595495224,-35.3632621,149.1652375,-0.006,-0.01,0.01,0.0,-9.942198812495917e-05,9.444970055483282e-05,0.0,1000,1000,1000,1000,12600,0,0.0028905768413096666,0.0027850077021867037,0.0027597155421972275,10,{}
normal_corridor_base_7,0,none,50352,0.001080704852938652,0.0009156184969469905,-0.08718600124120712,-35.3632621,149.1652375,-0.006,-0.01,0.01,0.0,-9.94219517451711e-05,9.444964962312952e-05,0.0,1000,1000,1000,1000,12600,0,0.0024053682573139668,0.002637889701873064,0.002970012603327632,10,{}
normal_corridor_base_7,0,none,50602,0.0010835247812792659,0.0009137835004366934,-0.08734474331140518,-35.3632621,149.1652375,-0.006,-0.01,0.01,0.0,-9.942196629708633e-05,9.444961324334145e-05,0.0,1000,1000,1000,1000,12600,0,0.002823560731485486,0.003015998052433133,0.002757385838776827,10,{}
normal_corridor_base_7,0,none,50852,0.001085303258150816,0.0009118804591707885,-0.08749375492334366,-35.3632621,149.1652375,-0.006,-0.01,0.01,0.0,-9.942192991729826e-05,9.444955503568053e-05,0.0,1000,1000,1000,1000,12600,0,0.002834909362718463,0.003081076079979539,0.0029645063914358616,10,{}
normal_corridor_base_7,0,none,51102,0.0010853878920897841,0.0009120735921896994,-0.08763807266950607,-35.3632621,149.1652375,-0.006,-0.01,0.01,0.0,-9.942192264134064e-05,9.444954775972292e-05,0.0,1000,1000,1000,1000,12600,0,0.0026799850165843964,0.00263270759023726,0.0027050108183175325,10,{}
normal_corridor_base_7,0,none,51354,0.0010858133900910616,0.0009175768354907632,-0.08778438717126846,-35.3632621,149.1652375,-0.006,-0.01,0.01,0.0,-9.942189353751019e-05,9.444951865589246e-05,0.0,1000,1000,1000,1000,12600,0,0.0029122401028871536,0.0027383274864405394,0.0025523535441607237,10,{}
normal_corridor_base_7,0,none,51604,0.0010916340397670865,0.0009184255613945425,-0.08792717009782791,-35.3632621,149.1652375,-0.006,-0.01,0.01,0.0,-9.942188626155257e-05,9.444950410397723e-05,0.0,1000,1000,1000,1000,12600,0,0.002893341239541769,0.0029222385492175817,0.0029246697667986155,10,{}
normal_corridor_base_7,0,none,51854,0.0010946730617433786,0.0009140240726992488,-0.08806680142879486,-35.3632621,149.1652375,-0.006,-0.01,0.01,0.0,-9.942190808942541e-05,9.444951865589246e-05,0.0,1000,1000,1000,1000,12600,0,0.002978250617161393,0.002636110410094261,0.0029025685507804155,10,{}
normal_corridor_base_7,0,none,52104,0.001099464832805097,0.0009063141187652946,-0.08821365237236023,-35.3632621,149.1652375,-0.006,-0.01,0.01,0.0,-9.94219008134678e-05,9.4449489552062e-05,0.0,1000,1000,1000,1000,12600,0,0.002980356104671955,0.0025234532076865435,0.0028609002474695444,10,{}
normal_corridor_base_7,0,none,52354,0.0011040210956707597,0.0009052871610037982,-0.08834532648324966,-35.3632621,149.1652375,-0.006,-0.01,0.01,0.0,-9.942187898559496e-05,9.4449489552062e-05,0.0,1000,1000,1000,1000,12600,0,0.0027319409418851137,0.002879194915294647,0.0028401061426848173,10,{}
normal_corridor_base_7,0,none,52602,0.001108131487853825,0.0009157033637166023,-0.08845441788434982,-35.3632621,149.1652375,-0.006,-0.01,0.01,0.0,-9.942186443367973e-05,9.444945317227393e-05,0.0,1000,1000,1000,1000,12600,0,0.003151178127154708,0.0027405773289501667,0.002797189634293318,10,{}
normal_corridor_base_7,0,none,52852,0.0011104063596576452,0.0009180120541714132,-0.08859742432832718,-35.3632621,149.1652375,-0.006,-0.01,0.01,0.0,-9.942183532984927e-05,9.444941679248586e-05,0.0,1000,1000,1000,1000,12600,0,0.002935736207291484,0.0030668750405311584,0.002910713432356715,10,{}
normal_corridor_base_7,0,none,53102,0.0011100290575996041,0.0009140246547758579,-0.08872392773628235,-35.3632621,149.1652375,-0.006,-0.01,0.01,0.0,-9.942186443367973e-05,9.444943134440109e-05,0.0,1000,1000,1000,1000,12600,0,0.0027094644028693438,0.0028501420747488737,0.002694841008633375,10,{}
normal_corridor_base_7,0,none,53354,0.0011169607751071453,0.0009218837949447334,-0.08887330442667007,-35.3632621,149.1652375,-0.006,-0.01,0.01,0.0,-9.942185715772212e-05,9.444944589631632e-05,0.0,1000,1000,1000,1000,12600,0,0.0027912037912756205,0.0025407737120985985,0.0025785721372812986,10,{}
normal_corridor_base_7,0,none,53604,0.0011289530666545033,0.0009298947406932712,-0.08899985998868942,-35.3632621,149.1652375,-0.006,-0.01,0.01,0.0,-9.942184260580689e-05,9.444943134440109e-05,0.0,1000,1000,1000,1000,12600,0,0.0027636028826236725,0.003063402371481061,0.0027509357314556837,10,{}
normal_corridor_base_7,0,none,53854,0.0011316254967823625,0.0009272624738514423,-0.08913362771272659,-35.3632621,149.1652375,-0.006,-0.01,0.01,0.0,-9.942180622601882e-05,9.444941679248586e-05,0.0,1000,1000,1000,1000,12600,0,0.002527629490941763,0.002687640953809023,0.002939477562904358,10,{}
normal_corridor_base_7,0,none,54104,0.0011331761488690972,0.000935543270315975,-0.08926473557949066,-35.3632621,149.1652375,-0.006,-0.01,0.01,0.0,-9.942177712218836e-05,9.444940951652825e-05,0.0,1000,1000,1000,1000,12600,0,0.003024512203410268,0.0028088903054594994,0.00287444656714797,10,{}
normal_corridor_base_7,0,none,54354,0.0011349148117005825,0.000939006800763309,-0.08939656615257263,-35.3632621,149.1652375,-0.006,-0.01,0.01,0.0,-9.94217480183579e-05,9.444936586078256e-05,0.0,1000,1000,1000,1000,12600,0,0.0028915447182953358,0.00294332392513752,0.0030009583570063114,10,{}
normal_corridor_base_7,0,none,54602,0.0011444736737757921,0.000948312459513545,-0.08951593935489655,-35.3632621,149.1652375,-0.006,-0.01,0.01,0.0,-9.942172619048506e-05,9.444937313674018e-05,0.0,1000,1000,1000,1000,12600,0,0.00264536845497787,0.0027557071298360825,0.002671495545655489,10,{}
normal_corridor_base_7,0,none,54852,0.0011443330440670252,0.0009473909740336239,-0.08964529633522034,-35.3632621,149.1652375,-0.006,-0.01,0.01,0.0,-9.942174074240029e-05,9.444934403290972e-05,0.0,1000,1000,1000,1000,12600,0,0.003174790646880865,0.0029127050656825304,0.0029006493277847767,10,{}
normal_corridor_base_7,0,none,55102,0.0011466871947050095,0.0009494174737483263,-0.08976775407791138,-35.3632621,149.1652375,-0.006,-0.01,0.01,0.0,-9.942173346644267e-05,9.444930037716404e-05,0.0,1000,1000,1000,1000,12600,0,0.002807936631143093,0.002824501832947135,0.0025800231378525496,10,{}
normal_corridor_base_7,0,none,55352,0.0011457601794973016,0.0009510644595138729,-0.08989112079143524,-35.3632621,149.1652375,-0.006,-0.01,0.01,0.0,-9.94217480183579e-05,9.444930037716404e-05,0.0,1000,1000,1000,1000,12600,0,0.0025631352327764034,0.0025228960439562798,0.0025725215673446655,10,{}
normal_corridor_base_7,0,none,55604,0.0011502888519316912,0.000956373056396842,-0.09001854807138443,-35.3632621,149.1652375,-0.006,-0.01,0.01,0.0,-9.942168981069699e-05,9.444925672141835e-05,0.0,1000,1000,1000,1000,12600,0,0.002765510929748416,0.003074964974075556,0.002696338575333357,10,{}
normal_corridor_base_7,0,none,55854,0.0011466194409877062,0.0009505181224085391,-0.09014086425304413,-35.3632621,149.1652375,-0.006,-0.01,0.01,0.0,-9.942168253473938e-05,9.444926399737597e-05,0.0,1000,1000,1000,1000,12600,0,0.0026970626786351204,0.002862347289919853,0.0025826371274888515,10,{}
normal_corridor_base_7,0,none,56104,0.0011461584363132715,0.0009513688273727894,-0.0902649387717247,-35.3632621,149.1652375,-0.006,-0.01,0.01,0.0,-9.942168253473938e-05,9.444926399737597e-05,0.0,1000,1000,1000,1000,12600,0,0.002768162405118346,0.0028675596695393324,0.0030393858905881643,10,{}
normal_corridor_base_7,0,none,56354,0.0011502844281494617,0.0009554664720781147,-0.09038625657558441,-35.3632621,149.1652375,-0.006,-0.01,0.01,0.0,-9.942167525878176e-05,9.444924216950312e-05,0.0,1000,1000,1000,1000,12600,0,0.0027056431863456964,0.0029029136057943106,0.0030944880563765764,10,{}
normal_corridor_base_7,0,none,56602,0.0011527383467182517,0.00096181157277897,-0.09050453454256058,-35.3632621,149.1652375,-0.006,-0.01,0.01,0.0,-9.94216970866546e-05,9.44492785492912e-05,0.0,1000,1000,1000,1000,12600,0,0.002758015412837267,0.002629471942782402,0.0027786518912762403,10,{}
normal_corridor_base_7,0,none,56852,0.0011381834046915174,0.0009591942653059959,-0.0905950516462326,-35.3632621,149.1652375,-0.006,-0.01,0.01,0.0,-9.942175529431552e-05,9.444930765312165e-05,0.0,1000,1000,1000,1000,12600,0,0.002888137474656105,0.002761377254500985,0.002772427164018154,10,{}
normal_corridor_base_7,0,none,57102,0.0011330320267006755,0.0009540771134197712,-0.09070689976215363,-35.3632621,149.1652375,-0.006,-0.01,0.01,0.0,-9.942178439814597e-05,9.444930037716404e-05,0.0,1000,1000,1000,1000,12600,0,0.002785005373880267,0.0029907100833952427,0.002825937932357192,10,{}
normal_corridor_base_7,0,none,57352,0.0011409764410927892,0.0009569668327458203,-0.09082821756601334,-35.3632621,149.1652375,-0.006,-0.01,0.01,0.0,-9.942182805389166e-05,9.444933675695211e-05,0.0,1000,1000,1000,1000,12600,0,0.002815601183101535,0.0029023857787251472,0.002774878405034542,10,{}
normal_corridor_base_7,0,none,57604,0.0011460911482572556,0.0009644821984693408,-0.09094139188528061,-35.3632622,149.1652375,-0.006,-0.01,0.01,0.0,-9.942182805389166e-05,9.444937313674018e-05,0.0,1000,1000,1000,1000,12600,0,0.002687373198568821,0.002643563784658909,0.0024666949175298214,10,{}
normal_corridor_base_7,0,none,57854,0.0011466119904071093,0.000962508434895426,-0.0910528376698494,-35.3632621,149.1652375,-0.006,-0.01,0.01,0.0,-9.942181350197643e-05,9.444936586078256e-05,0.0,1000,1000,1000,1000,12600,0,0.0026802695356309414,0.0025301838759332895,0.0026132501661777496,10,{}
normal_corridor_base_7,0,none,58104,0.0011502383276820183,0.0009602914215065539,-0.09115958958864212,-35.3632621,149.1652375,-0.006,-0.01,0.01,0.0,-9.942185715772212e-05,9.444939496461302e-05,0.0,1000,1000,1000,1000,12600,0,0.0026224867906421423,0.002778815571218729,0.002571041928604245,10,{}
normal_corridor_base_7,0,none,58354,0.0011542538413777947,0.0009660207433626056,-0.09127738326787949,-35.3632621,149.1652375,-0.006,-0.01,0.01,0.0,-9.942185715772212e-05,9.444938041269779e-05,0.0,1000,1000,1000,1000,12600,0,0.0030612251721322536,0.0027113177347928286,0.002757216105237603,10,{}
normal_corridor_base_7,0,none,58604,0.0011546610621735454,0.0009717983193695545,-0.09138084948062897,-35.3632622,149.1652375,-0.006,-0.01,0.01,0.0,-9.942191536538303e-05,9.444943134440109e-05,0.0,1000,1000,1000,1000,12600,0,0.003133420366793871,0.003081529401242733,0.0028623209800571203,10,{}
normal_corridor_base_7,0,none,58852,0.0011538100661709905,0.0009683509124442935,-0.09149660915136337,-35.3632621,149.1652375,-0.006,-0.01,0.01,0.0,-9.942192991729826e-05,9.44494386203587e-05,0.0,1000,1000,1000,1000,12600,0,0.0029170187190175056,0.0027995863929390907,0.002555648796260357,10,{}
normal_corridor_base_7,0,none,59102,0.0011551947100088,0.0009697854402475059,-0.09160082787275314,-35.3632621,149.1652375,-0.006,-0.01,0.01,0.0,-9.942192991729826e-05,9.444942406844348e-05,0.0,1000,1000,1000,1000,12600,0,0.0026698396541178226,0.002687668427824974,0.0025346761103719473,10,{}
normal_corridor_base_7,0,none,59352,0.0011575749376788735,0.0009746067225933075,-0.09170693159103394,-35.3632621,149.1652375,-0.006,-0.01,0.01,0.0,-9.942192991729826e-05,9.444938041269779e-05,0.0,1000,1000,1000,1000,12600,0,0.002957551274448633,0.002569808391854167,0.002684804145246744,10,{}
normal_corridor_base_7,0,none,59604,0.0011625707847997546,0.000980509095825255,-0.09181113541126251,-35.3632622,149.1652375,-0.006,-0.01,0.01,0.0,-9.942194446921349e-05,9.444936586078256e-05,0.0,1000,1000,1000,1000,12600,0,0.0030077449046075344,0.0027688895352184772,0.002743503777310252,10,{}
normal_corridor_base_7,0,none,59854,0.0011516455560922623,0.0009753592894412577,-0.09191368520259857,-35.3632621,149.1652375,-0.006,-0.01,0.01,0.0,-9.942198812495917e-05,9.444939496461302e-05,0.0,1000,1000,1000,1000,12600,0,0.0026662040036171675,0.002803605981171131,0.002736208261922002,10,{}
normal_corridor_base_7,0,none,60104,0.0011504569556564093,0.0009703016839921474,-0.09201113879680634,-35.3632621,149.1652375,-0.006,-0.01,0.01,0.0,-9.942199540091679e-05,9.444936586078256e-05,0.0,1000,1000,1000,1000,12600,0,0.0030158718582242727,0.0027474574744701385,0.002700456418097019,10,{}
normal_corridor_base_7,0,none,60354,0.0011522154090926051,0.0009683694806881249,-0.09211692214012146,-35.3632622,149.1652375,-0.006,-0.01,0.01,0.0,-9.942202450474724e-05,9.444936586078256e-05,0.0,1000,1000,1000,1000,12600,0,0.0026820385828614235,0.002776504959911108,0.0027320347726345062,10,{}
normal_corridor_base_7,0,none,60604,0.0011581178987398744,0.0009714451734907925,-0.0922129899263382,-35.3632622,149.1652375,-0.006,-0.01,0.01,0.0,-9.942203905666247e-05,9.444936586078256e-05,0.0,1000,1000,1000,1000,12600,0,0.002713428344577551,0.0028823455795645714,0.002858642488718033,10,{}
normal_corridor_base_7,0,none,60852,0.0011499288957566023,0.000958397111389786,-0.09232009947299957,-35.3632621,149.1652375,-0.006,-0.01,0.01,0.0,-9.942202450474724e-05,9.444935858482495e-05,0.0,1000,1000,1000,1000,12600,0,0.0028073571156710386,0.0027939474675804377,0.0025490240659564734,10,{}
normal_corridor_base_7,0,none,61102,0.0011544747976586223,0.0009527129586786032,-0.09241677075624466,-35.3632622,149.1652375,-0.006,-0.01,0.01,0.0,-9.94220536085777e-05,9.444938041269779e-05,0.0,1000,1000,1000,1000,12600,0,0.002510633785277605,0.0029175973031669855,0.002739523071795702,10,{}
normal_corridor_base_7,0,none,61352,0.0011564003070816398,0.0009571516420692205,-0.0925113782286644,-35.3632622,149.1652375,-0.006,-0.01,0.01,0.0,-9.942203905666247e-05,9.444936586078256e-05,0.0,1000,1000,1000,1000,12600,0,0.003003196557983756,0.003056483343243599,0.002976182149723172,10,{}
normal_corridor_base_7,0,none,61602,0.0011645826743915677,0.0009608317050151527,-0.0926024466753006,-35.3632622,149.1652375,-0.006,-0.01,0.01,0.0,-9.942208271240816e-05,9.444936586078256e-05,0.0,1000,1000,1000,1000,12600,0,0.0027469261549413204,0.002822626382112503,0.002925677690654993,10,{}
normal_corridor_base_7,0,none,61854,0.0011553490767255425,0.0009530881070531905,-0.09267980605363846,-35.3632622,149.1652375,-0.006,-0.01,0.01,0.0,-9.942209726432338e-05,9.444940951652825e-05,0.0,1000,1000,1000,1000,12600,0,0.002903211396187544,0.002813684055581689,0.0030312021262943745,10,{}
normal_corridor_base_7,0,none,62104,0.001157258404418826,0.0009556295699439943,-0.09276822954416275,-35.3632621,149.1652375,-0.006,-0.01,0.01,0.0,-9.942209726432338e-05,9.444942406844348e-05,0.0,1000,1000,1000,1000,12600,0,0.002529751742258668,0.0028320522978901863,0.002814509440213442,10,{}
normal_corridor_base_7,0,none,62354,0.0011614286340773106,0.0009541811887174845,-0.09286416321992874,-35.3632622,149.1652375,-0.006,-0.01,0.01,0.0,-9.942213364411145e-05,9.444946044823155e-05,0.0,1000,1000,1000,1000,12600,0,0.002675029681995511,0.002683610888198018,0.002634878735989332,10,{}
normal_corridor_base_7,0,none,62604,0.001163510256446898,0.0009637571638450027,-0.09294836223125458,-35.3632622,149.1652375,-0.006,-0.01,0.01,0.0,-9.942212636815384e-05,9.444947500014678e-05,0.0,1000,1000,1000,1000,12600,0,0.0026495237834751606,0.0029550199396908283,0.0028511269483715296,10,{}
normal_corridor_base_7,0,none,62852,0.001160728163085878,0.0009621633216738701,-0.09304382652044296,-35.3632621,149.1652375,-0.006,-0.01,0.01,0.0,-9.942213364411145e-05,9.4449489552062e-05,0.0,1000,1000,1000,1000,12600,0,0.0026120177935808897,0.0031740327831357718,0.0026498541701585054,10,{}
normal_corridor_base_7,0,none,63102,0.001159900100901723,0.000967455271165818,-0.09313782304525375,-35.3632621,149.1652375,-0.006,-0.01,0.01,0.0,-9.942211181623861e-05,9.44494386203587e-05,0.0,1000,1000,1000,1000,12600,0,0.002932027680799365,0.0028574655298143625,0.002698762807995081,10,{}
normal_corridor_base_7,0,none,63352,0.0011587125482037663,0.0009649535641074181,-0.0932362824678421,-35.3632622,149.1652375,-0.006,-0.01,0.01,0.0,-9.9422104540281e-05,9.444940951652825e-05,0.0,1000,1000,1000,1000,12600,0,0.0027855681255459785,0.0026213510427623987,0.0028815087862312794,10,{}
normal_corridor_base_7,0,none,63602,0.0011617381824180484,0.0009743143455125391,-0.0933159589767456,-35.3632622,149.1652375,-0.006,-0.01,0.01,0.0,-9.9422104540281e-05,9.444938041269779e-05,0.0,1000,1000,1000,1000,12600,0,0.0029318092856556177,0.0025605331175029278,0.0025548480916768312,10,{}
normal_corridor_base_7,0,none,63854,0.0011584690073505044,0.0009707882418297231,-0.09340238571166992,-35.3632622,149.1652375,-0.006,-0.01,0.01,0.0,-9.942209726432338e-05,9.444941679248586e-05,0.0,1000,1000,1000,1000,12600,0,0.0029751271940767765,0.0029373522847890854,0.0029288255609571934,10,{}
normal_corridor_base_7,0,none,64104,0.0011628748616203666,0.0009624826489016414,-0.09348593652248383,-35.3632622,149.1652375,-0.006,-0.01,0.01,0.0,-9.942211909219623e-05,9.444942406844348e-05,0.0,1000,1000,1000,1000,12600,0,0.0027495338581502438,0.0030118876602500677,0.0031028869561851025,10,{}
normal_corridor_base_7,0,none,64354,0.0011642989702522755,0.0009641905198805034,-0.09357450902462006,-35.3632622,149.1652375,-0.006,-0.01,0.01,0.0,-9.94221554719843e-05,9.44494386203587e-05,0.0,1000,1000,1000,1000,12600,0,0.0029476762283593416,0.0028871356043964624,0.002852474106475711,10,{}
normal_corridor_base_7,0,none,64604,0.0011741885682567954,0.0009669042192399502,-0.09365779906511307,-35.3632622,149.1652375,-0.006,-0.01,0.01,0.0,-9.942217002389953e-05,9.444946044823155e-05,0.0,1000,1000,1000,1000,12600,0,0.002898129168897867,0.0029549153987318277,0.002889412920922041,10,{}
normal_corridor_base_7,0,none,64854,0.001171768642961979,0.0009591298294253647,-0.09374520927667618,-35.3632622,149.1652375,-0.006,-0.01,0.01,0.0,-9.94222064036876e-05,9.444946044823155e-05,0.0,1000,1000,1000,1000,12600,0,0.0028465164359658957,0.00294336024671793,0.002842680085450411,10,{}
normal_corridor_base_7,0,none,65102,0.001164199085906148,0.0009521534666419029,-0.09382757544517517,-35.3632621,149.1652375,-0.006,-0.01,0.01,0.0,-9.942217729985714e-05,9.444944589631632e-05,0.0,1000,1000,1000,1000,12600,0,0.002917112782597542,0.0030844872817397118,0.002727409591898322,10,{}
normal_corridor_base_7,0,none,65352,0.0011632529785856605,0.0009587622480466962,-0.09391269832849503,-35.3632622,149.1652375,-0.006,-0.01,0.01,0.0,-9.942219912772998e-05,9.444947500014678e-05,0.0,1000,1000,1000,1000,12600,0,0.0028165739495307207,0.0026213927194476128,0.0029441467486321926,10,{}
normal_corridor_base_7,0,none,65602,0.0011653007240965962,0.0009651315049268305,-0.09399529546499252,-35.3632622,149.1652375,-0.006,-0.01,0.01,0.0,-9.942222095560282e-05,9.444951137993485e-05,0.0,1000,1000,1000,1000,12600,0,0.0027411801274865866,0.0025626991409808397,0.002770032500848174,10,{}
normal_corridor_base_7,0,none,65854,0.0011631697416305542,0.0009609948610886931,-0.09408164024353027,-35.3632621,149.1652375,-0.006,-0.01,0.01,0.0,-9.942218457581475e-05,9.4449489552062e-05,0.0,1000,1000,1000,1000,12600,0,0.0027194644790142775,0.002993851201608777,0.0026798939798027277,10,{}
normal_corridor_base_7,0,none,66104,0.0011659893207252026,0.0009625441743992269,-0.09415919333696365,-35.3632621,149.1652375,-0.006,-0.01,0.01,0.0,-9.942219912772998e-05,9.4449489552062e-05,0.0,1000,1000,1000,1000,12600,0,0.0026407046243548393,0.0029035003390163183,0.0028565218672156334,10,{}
normal_corridor_base_7,0,none,66354,0.0011718731839209795,0.0009609108092263341,-0.0942363440990448,-35.3632621,149.1652375,-0.006,-0.01,0.01,0.0,-9.942219912772998e-05,9.444950410397723e-05,0.0,1000,1000,1000,1000,12600,0,0.0027958459686487913,0.00286304485052824,0.0027418937534093857,10,{}
normal_corridor_base_7,0,none,66604,0.0011726110242307186,0.0009753918275237083,-0.09431953728199005,-35.3632621,149.1652375,-0.006,-0.01,0.01,0.0,-9.942219912772998e-05,9.444949682801962e-05,0.0,1000,1000,1000,1000,12600,0,0.0029651187360286713,0.0026440012734383345,0.002666248008608818,10,{}
normal_corridor_base_7,0,none,66854,0.0011725417571142316,0.0009709883597679436,-0.09439033269882202,-35.3632621,149.1652375,-0.006,-0.01,0.01,0.0,-9.94221554719843e-05,9.444948227610439e-05,0.0,1000,1000,1000,1000,12600,0,0.0024607828818261623,0.0028213772457093,0.0029791288543492556,10,{}
normal_corridor_base_7,0,none,67102,0.0011723568895831704,0.0009706027340143919,-0.09445023536682129,-35.3632621,149.1652375,-0.006,-0.01,0.01,0.0,-9.942216274794191e-05,9.444951137993485e-05,0.0,1000,1000,1000,1000,12600,0,0.002986763371154666,0.0026000149082392454,0.0031203904654830694,10,{}
normal_corridor_base_7,0,none,67352,0.001173321041278541,0.0009732607868500054,-0.09451431781053543,-35.3632621,149.1652375,-0.006,-0.01,0.01,0.0,-9.94221554719843e-05,9.4449489552062e-05,0.0,1000,1000,1000,1000,12600,0,0.002960223238915205,0.002874573227018118,0.0029355392325669527,10,{}
normal_corridor_base_7,0,none,67602,0.00117766042239964,0.0009827303001657128,-0.09458618611097336,-35.3632622,149.1652375,-0.006,-0.01,0.01,0.0,-9.942222095560282e-05,9.4449489552062e-05,0.0,1000,1000,1000,1000,12600,0,0.002562410430982709,0.002971244975924492,0.0027293353341519833,10,{}
normal_corridor_base_7,0,none,67852,0.001176556572318077,0.0009819908300414681,-0.09466645121574402,-35.3632621,149.1652375,-0.006,-0.01,0.01,0.0,-9.942214092006907e-05,9.444947500014678e-05,0.0,1000,1000,1000,1000,12600,0,0.002663783263415098,0.002971030306071043,0.0027500344440340996,10,{}
normal_corridor_base_7,0,none,68104,0.0011775109451264143,0.0009816321544349194,-0.09473291039466858,-35.3632621,149.1652375,-0.006,-0.01,0.01,0.0,-9.942214092006907e-05,9.444949682801962e-05,0.0,1000,1000,1000,1000,12600,0,0.0031104327645152807,0.002690546913072467,0.0024643922224640846,10,{}
normal_corridor_base_7,0,none,68354,0.0011824790854007006,0.0009904473554342985,-0.09480943530797958,-35.3632622,149.1652375,-0.006,-0.01,0.01,0.0,-9.942217002389953e-05,9.444948227610439e-05,0.0,1000,1000,1000,1000,12600,0,0.0030359053052961826,0.0027874791994690895,0.0028328639455139637,10,{}
normal_corridor_base_7,0,none,68604,0.0011907374719157815,0.0009965590434148908,-0.09487823396921158,-35.3632622,149.1652375,-0.006,-0.01,0.01,0.0,-9.942212636815384e-05,9.44494386203587e-05,0.0,1000,1000,1000,1000,12600,0,0.0028010692913085222,0.0031360036227852106,0.0030197782907634974,10,{}
normal_corridor_base_7,0,none,68854,0.0011922343401238322,0.0009897721465677023,-0.09495138376951218,-35.3632622,149.1652375,-0.006,-0.01,0.01,0.0,-9.942212636815384e-05,9.444939496461302e-05,0.0,1000,1000,1000,1000,12600,0,0.0027713514864444733,0.0026820129714906216,0.0027829583268612623,10,{}
normal_corridor_base_7,0,none,69102,0.0011961106210947037,0.0009909155778586864,-0.09502002596855164,-35.3632622,149.1652375,-0.006,-0.01,0.01,0.0,-9.942219185177237e-05,9.44494386203587e-05,0.0,1000,1000,1000,1000,12600,0,0.002785666845738888,0.0026549294125288725,0.0025459681637585163,10,{}
normal_corridor_base_7,0,none,69352,0.0011990892235189676,0.0009885822655633092,-0.09509465843439102,-35.3632622,149.1652375,-0.006,-0.01,0.01,0.0,-9.94222064036876e-05,9.444945317227393e-05,0.0,1000,1000,1000,1000,12600,0,0.0029327464289963245,0.0027884645387530327,0.0028055456932634115,10,{}
