flight_id,label,attack_type,timestamp,att_roll,att_pitch,att_yaw,pos_lat,pos_lon,pos_alt_rel,pos_vx,pos_vy,pos_vz,nav_roll,nav_pitch,nav_alt_error,servo1_raw,servo2_raw,servo3_raw,servo4_raw,sys_voltage_battery,sys_load,vib_x,vib_y,vib_z,gps_sats_visible,attack_params_json
normal_corridor_base_2,0,none,15612,0.00033054425148293376,0.00011163607268827036,-0.07378540188074112,-35.3632621,149.1652374,0.0,0.0,0.0,-0.01,nan,nan,nan,nan,nan,nan,nan,nan,nan,nan,nan,nan,nan,{}
normal_corridor_base_2,0,none,15864,0.0003370653430465609,0.0001203592328238301,-0.07080787420272827,-35.3632621,149.1652374,0.0,0.0,0.0,0.0,-9.942148608388379e-05,9.444936586078256e-05,0.0,1000,1000,1000,1000,12600,0,0.0026581580750644207,0.0027651311829686165,0.002595149679109454,10,{}
normal_corridor_base_2,0,none,16114,0.00034534477163106203,0.0001303199678659439,-0.06819181144237518,-35.3632621,149.1652374,0.0,0.0,0.0,0.0,-9.94214933598414e-05,9.444938041269779e-05,0.0,1000,1000,1000,1000,12600,0,0.0027179426979273558,0.002909085713326931,0.0024561069440096617,10,{}
normal_corridor_base_2,0,none,16364,0.0003543358761817217,0.00013738028064835817,-0.0658562034368515,-35.3632621,149.1652374,0.0,0.0,0.0,0.0,-9.942147880792618e-05,9.444936586078256e-05,0.0,1000,1000,1000,1000,12600,0,0.0029008002020418644,0.00291006313636899,0.0027229844126850367,10,{}
normal_corridor_base_2,0,none,16614,0.0003660316579043865,0.00014555989764630795,-0.06386000663042068,-35.3632621,149.1652374,0.0,0.0,0.0,0.0,-9.942150791175663e-05,9.444938041269779e-05,0.0,1000,1000,1000,1000,12600,0,0.0030301983933895826,0.0028382563032209873,0.002859308384358883,10,{}
normal_corridor_base_2,0,none,16864,0.00037628874997608364,0.0001539368968224153,-0.062053460627794266,-35.3632621,149.1652374,0.0,0.0,0.0,0.0,-9.942150791175663e-05,9.444938041269779e-05,0.0,1000,1000,1000,1000,12600,0,0.003053251188248396,0.002583698835223913,0.002593996934592724,10,{}
normal_corridor_base_2,0,none,17112,0.0003881156153511256,0.0001592073094798252,-0.06050898879766464,-35.3632621,149.1652374,0.0,0.0,0.0,0.0,-9.942147880792618e-05,9.444940224057063e-05,0.0,1000,1000,1000,1000,12600,0,0.0029711327515542507,0.002835966879501939,0.002703064354136586,10,{}
normal_corridor_base_2,0,none,17362,0.0003958085144404322,0.0001683639857219532,-0.05916189029812813,-35.3632621,149.1652374,0.0,0.0,0.0,0.0,-9.942148608388379e-05,9.444935858482495e-05,0.0,1000,1000,1000,1000,12600,0,0.0028931009583175182,0.002878522966057062,0.0027603821363300085,10,{}
normal_corridor_base_2,0,none,17612,0.00040451574022881687,0.00017615100659895688,-0.05799416825175285,-35.3632621,149.1652374,0.0,0.0,0.0,0.0,-9.9421595223248e-05,9.44493876886554e-05,0.0,1000,1000,1000,1000,12600,0,0.0029851095750927925,0.002577098784968257,0.0030135936103761196,10,{}
normal_corridor_base_2,0,none,17862,0.00041775908903218806,0.00018775025091599673,-0.05693657696247101,-35.3632621,149.1652374,0.0,0.0,0.0,0.0,-9.942160977516323e-05,9.444937313674018e-05,0.0,1000,1000,1000,1000,12600,0,0.0025980579666793346,0.0028972679283469915,0.0025878390297293663,10,{}
normal_corridor_base_2,0,none,18114,0.0004227026365697384,0.0002008050068980083,-0.05608312040567398,-35.3632621,149.1652374,0.0,0.0,0.0,0.0,-9.942163887899369e-05,9.444936586078256e-05,0.0,1000,1000,1000,1000,12600,0,0.003057526657357812,0.0028386064805090427,0.0029458398930728436,10,{}
normal_corridor_base_2,0,none,18364,0.000436878006439656,0.0002108653716277331,-0.05530257523059845,-35.3632621,149.1652374,0.0,0.0,0.0,0.0,-9.942168253473938e-05,9.444935858482495e-05,0.0,1000,1000,1000,1000,12600,0,0.0025862609036266804,0.002716438379138708,0.0027368473820388317,10,{}
normal_corridor_base_2,0,none,18614,0.0004448485851753503,0.00022371686645783484,-0.05473238229751587,-35.3632621,149.1652374,0.0,0.0,0.0,0.0,-9.942166070686653e-05,9.444932948099449e-05,0.0,1000,1000,1000,1000,12600,0,0.0027131428942084312,0.0028542671352624893,0.003212163457646966,10,{}
normal_corridor_base_2,0,none,18864,0.0004594650526996702,0.00023282290203496814,-0.05418718606233597,-35.3632621,149.1652374,0.0,0.0,0.0,0.0,-9.9421595223248e-05,9.44492785492912e-05,0.0,1000,1000,1000,1000,12600,0,0.0031072853598743677,0.002876096172258258,0.0029007415287196636,10,{}
normal_corridor_base_2,0,none,19112,0.00047419252223335207,0.00024622411001473665,-0.0537974014878273,-35.3632621,149.1652374,0.0,0.0,0.0,0.0,-9.942160977516323e-05,9.444930037716404e-05,0.0,1000,1000,1000,1000,12600,0,0.0028057596646249294,0.002977983560413122,0.0026971320621669292,10,{}
normal_corridor_base_2,0,none,19362,0.0004837831074837595,0.0002546969335526228,-0.05345609039068222,-35.3632621,149.1652374,0.0,0.0,0.0,0.0,-9.942163887899369e-05,9.444930765312165e-05,0.0,1000,1000,1000,1000,12600,0,0.002983521670103073,0.0027559970039874315,0.003158392384648323,10,{}
normal_corridor_base_2,0,none,19612,0.0004986539133824408,0.00026586779858917,-0.05323028191924095,-35.3632621,149.1652374,0.0,0.0,0.0,0.0,-9.9421595223248e-05,9.444934403290972e-05,0.0,1000,1000,1000,1000,12600,0,0.002854479243978858,0.0028161148075014353,0.0025532564613968134,10,{}
normal_corridor_base_2,0,none,19862,0.0005109798512421548,0.00027763860998675227,-0.05297987908124924,-35.3632621,149.1652374,0.0,0.0,0.0,0.0,-9.942163160303608e-05,9.444932948099449e-05,0.0,1000,1000,1000,1000,12600,0,0.0030432045459747314,0.0027022005524486303,0.002792889252305031,10,{}
normal_corridor_base_2,0,none,20114,0.0005285090883262455,0.0002931094204541296,-0.052695032209157944,-35.3632621,149.1652374,0.006,0.0,0.0,0.0,-9.942167525878176e-05,9.444936586078256e-05,0.0,1000,1000,1000,1000,12600,0,0.0029356959275901318,0.0027132241521030664,0.002452507149428129,10,{}
normal_corridor_base_2,0,none,20364,0.0005383787793107331,0.0003061761090066284,-0.05262051895260811,-35.3632621,149.1652374,-0.007,0.0,0.0,0.0,-9.942174074240029e-05,9.444937313674018e-05,0.0,1000,1000,1000,1000,12600,0,0.002922794548794627,0.0028395350091159344,0.0027670005802065134,10,{}
normal_corridor_base_2,0,none,20614,0.0005522334831766784,0.0003219771315343678,-0.05264648050069809,-35.3632621,149.1652374,-0.008,0.0,0.0,0.0,-9.942170436261222e-05,9.444939496461302e-05,0.0,1000,1000,1000,1000,12600,0,0.0028102423530071974,0.0028491346165537834,0.0026214290410280228,10,{}
normal_corridor_base_2,0,none,20864,0.0005647751968353987,0.00033166707726195455,-0.052709951996803284,-35.3632621,149.1652374,-0.007,0.0,0.0,0.0,-9.942174074240029e-05,9.444942406844348e-05,0.0,1000,1000,1000,1000,12600,0,0.0027936850674450397,0.0028673596680164337,0.0029383257497102022,10,{}
normal_corridor_base_2,0,none,21114,0.0005755458259955049,0.00034327409230172634,-0.05279950797557831,-35.3632621,149.1652374,-0.006,0.0,0.0,0.0,-9.94217480183579e-05,9.444938041269779e-05,0.0,1000,1000,1000,1000,12600,0,0.0029650076758116484,0.0026501372922211885,0.0027862791903316975,10,{}
normal_corridor_base_2,0,none,21362,0.0005907079321332276,0.0003554426657501608,-0.05295851081609726,-35.3632621,149.1652374,-0.005,0.0,0.0,0.0,-9.942179167410359e-05,9.444939496461302e-05,0.0,1000,1000,1000,1000,12600,0,0.0027249734848737717,0.0028387296479195356,0.0029535286594182253,10,{}
normal_corridor_base_2,0,none,21612,0.0006049342337064445,0.0003728630836121738,-0.05312775447964668,-35.3632621,149.1652374,-0.003,0.0,0.0,0.0,-9.942176984623075e-05,9.444939496461302e-05,0.0,1000,1000,1000,1000,12600,0,0.0027474944945424795,0.0029173188377171755,0.002797005232423544,10,{}
normal_corridor_base_2,0,none,21862,0.000620477250777185,0.0003834378730971366,-0.05330842733383179,-35.3632621,149.1652374,-0.002,0.0,0.0,0.0,-9.942178439814597e-05,9.444934403290972e-05,0.0,1000,1000,1000,1000,12600,0,0.003029806539416313,0.0029558425303548574,0.002873603720217943,10,{}
normal_corridor_base_2,0,none,22114,0.0006385664455592632,0.00039479811675846577,-0.05353545770049095,-35.3632621,149.1652374,-0.001,0.0,0.01,0.0,-9.942181350197643e-05,9.444936586078256e-05,0.0,1000,1000,1000,1000,12600,0,0.00277065671980381,0.0026421546936035156,0.0028314567171037197,10,{}
normal_corridor_base_2,0,none,22364,0.0006522269686684012,0.00041236006654798985,-0.05377021059393883,-35.3632621,149.1652374,0.0,0.0,0.01,0.0,-9.942183532984927e-05,9.444941679248586e-05,0.0,1000,1000,1000,1000,12600,0,0.0026174604427069426,0.002947477390989661,0.002799693029373884,10,{}
normal_corridor_base_2,0,none,22614,0.0006640561623498797,0.00043266566353850067,-0.05404738336801529,-35.3632621,149.1652374,0.0,0.0,0.01,0.0,-9.942189353751019e-05,9.444946044823155e-05,0.0,1000,1000,1000,1000,12600,0,0.0025700789410620928,0.002791633829474449,0.0028869020752608776,10,{}
normal_corridor_base_2,0,none,22864,0.0006818819674663246,0.0004474455490708351,-0.054335691034793854,-35.3632621,149.1652374,0.0,0.0,0.01,0.0,-9.942193719325587e-05,9.444947500014678e-05,0.0,1000,1000,1000,1000,12600,0,0.002634130185469985,0.002426175167784095,0.002960823941975832,10,{}
normal_corridor_base_2,0,none,23114,0.0006955788121558726,0.00046174475573934615,-0.05465288087725639,-35.3632621,149.1652374,0.001,0.0,0.01,0.0,-9.942198084900156e-05,9.444947500014678e-05,0.0,1000,1000,1000,1000,12600,0,0.002845938317477703,0.0030022815335541964,0.0028140440117567778,10,{}
normal_corridor_base_2,0,none,23362,0.0007070917054079473,0.0004755044064950198,-0.05499448999762535,-35.3632621,149.1652374,0.001,-0.01,0.01,0.0,-9.942192991729826e-05,9.444944589631632e-05,0.0,1000,1000,1000,1000,12600,0,0.002812220947816968,0.00279805320315063,0.002819268498569727,10,{}
normal_corridor_base_2,0,none,24171,0.0007467696559615433,0.0005222685285843909,-0.056067969650030136,-35.3632621,149.1652374,0.002,-0.01,0.01,0.0,-9.942186443367973e-05,9.444940951652825e-05,0.0,1000,1000,1000,1000,12600,0,0.002705139573663473,0.002675203839316964,0.002846865216270089,10,{}
normal_corridor_base_2,0,none,24421,0.0007573071634396911,0.0005334913148544729,-0.05649031698703766,-35.3632621,149.1652374,0.002,-0.01,0.01,0.0,-9.942186443367973e-05,9.444941679248586e-05,0.0,1000,1000,1000,1000,12600,0,0.0025490405969321728,0.002800980117172003,0.0027870889753103256,10,{}
normal_corridor_base_2,0,none,24671,0.0007725829491391778,0.0005470450269058347,-0.05678614228963852,-35.3632621,149.1652374,0.002,-0.01,0.01,0.0,-9.94219008134678e-05,9.444946772418916e-05,0.0,1000,1000,1000,1000,12600,0,0.0031919507309794426,0.0027887269388884306,0.002774281892925501,10,{}
normal_corridor_base_2,0,none,24921,0.0007869323599152267,0.0005585379549302161,-0.05721701681613922,-35.3632621,149.1652374,0.003,-0.01,0.01,0.0,-9.94219008134678e-05,9.444946772418916e-05,0.0,1000,1000,1000,1000,12600,0,0.00283624860458076,0.00294796796515584,0.0028149576392024755,10,{}
normal_corridor_base_2,0,none,25482,0.0008038546657189727,0.000581569445785135,-0.05800233036279678,-35.3632621,149.1652374,0.003,-0.01,0.01,0.0,-9.942192991729826e-05,9.444952593185008e-05,0.0,1000,1000,1000,1000,12600,0,0.0027062937151640654,0.002803341019898653,0.0029017210472375154,10,{}
normal_corridor_base_2,0,none,25817,0.0008218028815463185,0.0006004234310239553,-0.058222535997629166,-35.3632621,149.1652374,0.002,-0.01,0.01,0.0,-9.942190808942541e-05,9.444951137993485e-05,0.0,1000,1000,1000,1000,12600,0,0.002765507437288761,0.002675865311175585,0.002714107744395733,10,{}
normal_corridor_base_2,0,none,26149,0.0008393505122512579,0.0006195721798576415,-0.05883996933698654,-35.3632621,149.1652374,0.002,-0.01,0.01,0.0,-9.94219008134678e-05,9.444948227610439e-05,0.0,1000,1000,1000,1000,12600,0,0.0029589496552944183,0.002638463629409671,0.0030021872371435165,10,{}
normal_corridor_base_2,0,none,26481,0.0008540780982002616,0.0006226630066521466,-0.05933772772550583,-35.3632621,149.1652374,0.002,-0.01,0.01,0.0,-9.94219008134678e-05,9.444948227610439e-05,0.0,1000,1000,1000,1000,12600,0,0.002513681072741747,0.002892982680350542,0.0025326709728688,10,{}
normal_corridor_base_2,0,none,26814,0.0008719312027096748,0.0006322715198621154,-0.05998922139406204,-35.3632621,149.1652374,0.002,-0.01,0.01,0.0,-9.942192264134064e-05,9.444946044823155e-05,0.0,1000,1000,1000,1000,12600,0,0.002667612861841917,0.0029498578514903784,0.0028641563840210438,10,{}
normal_corridor_base_2,0,none,27149,0.0008821301744319499,0.0006480350275523961,-0.06049306318163872,-35.3632621,149.1652374,0.002,-0.01,0.01,0.0,-9.942196629708633e-05,9.4449489552062e-05,0.0,1000,1000,1000,1000,12600,0,0.0029901033267378807,0.0031111997086554766,0.002947408240288496,10,{}
normal_corridor_base_2,0,none,27482,0.0008952222415246069,0.0006545262294821441,-0.06098517030477524,-35.3632621,149.1652374,0.002,-0.01,0.01,0.0,-9.942196629708633e-05,9.4449489552062e-05,0.0,1000,1000,1000,1000,12600,0,0.002674237359315157,0.002795008709654212,0.002951032482087612,10,{}
normal_corridor_base_2,0,none,27814,0.0009094257839024067,0.000671781541313976,-0.061667297035455704,-35.3632621,149.1652374,0.001,-0.01,0.01,0.0,-9.942196629708633e-05,9.444950410397723e-05,0.0,1000,1000,1000,1000,12600,0,0.0029857114423066378,0.0025066041853278875,0.00303631741553545,10,{}
normal_corridor_base_2,0,none,28147,0.0009182963985949755,0.0006816801615059376,-0.06214949116110802,-35.3632621,149.1652374,0.001,-0.01,0.01,0.0,-9.942201722878963e-05,9.444955503568053e-05,0.0,1000,1000,1000,1000,12600,0,0.0027998806908726692,0.003089406294748187,0.002838989021256566,10,{}
normal_corridor_base_2,0,none,28479,0.0009313664049841464,0.00069329614052549,-0.06266453117132187,-35.3632621,149.1652374,0.001,-0.01,0.01,0.0,-9.942201722878963e-05,9.444955503568053e-05,0.0,1000,1000,1000,1000,12600,0,0.0027823650743812323,0.002792087849229574,0.00268698763102293,10,{}
normal_corridor_base_2,0,none,28814,0.0009443931048735976,0.0007128110155463219,-0.06329762190580368,-35.3632621,149.1652374,0.0,-0.01,0.01,0.0,-9.942208998836577e-05,9.444961324334145e-05,0.0,1000,1000,1000,1000,12600,0,0.0030033623334020376,0.0025914637371897697,0.003087045857682824,10,{}
normal_corridor_base_2,0,none,29146,0.0009559394093230367,0.0007300100405700505,-0.06378381699323654,-35.3632621,149.1652374,0.0,-0.01,0.01,0.0,-9.94222064036876e-05,9.444967145100236e-05,0.0,1000,1000,1000,1000,12600,0,0.00282107712700963,0.002752620493993163,0.0024810926988720894,10,{}
normal_corridor_base_2,0,none,29479,0.0009723055991344154,0.0007397129666060209,-0.06425540894269943,-35.3632621,149.1652374,0.0,-0.01,0.01,0.0,-9.94222064036876e-05,9.444967145100236e-05,0.0,1000,1000,1000,1000,12600,0,0.002887164009734988,0.0025471022818237543,0.002838879358023405,10,{}
normal_corridor_base_2,0,none,29812,0.0009824821026995778,0.0007538598729297519,-0.06489496678113937,-35.3632621,149.1652374,0.0,-0.01,0.02,0.0,-9.942228643922135e-05,9.444970055483282e-05,0.0,1000,1000,1000,1000,12600,0,0.0028838098514825106,0.0029892614111304283,0.0028229188174009323,10,{}
normal_corridor_base_2,0,none,30172,0.0009939793962985277,0.0007682012510485947,-0.06551994383335114,-35.3632621,149.1652374,-0.001,-0.01,0.02,0.0,-9.942241740645841e-05,9.444980969419703e-05,0.0,1000,1000,1000,1000,12600,0,0.002850308082997799,0.0028938748873770237,0.0028854787815362215,10,{}
normal_corridor_base_2,0,none,30421,0.0009985630167648196,0.0007765808841213584,-0.06594128906726837,-35.3632621,149.1652374,-0.001,-0.01,0.02,0.0,-9.942238102667034e-05,9.44497951422818e-05,0.0,1000,1000,1000,1000,12600,0,0.002850308082997799,0.0028938748873770237,0.0028854787815362215,10,{}
normal_corridor_base_2,0,none,30671,0.0010062447981908917,0.0007826961227692664,-0.06628265976905823,-35.3632621,149.1652374,-0.001,-0.01,0.02,0.0,-9.942240285454318e-05,9.444980241823941e-05,0.0,1000,1000,1000,1000,12600,0,0.002641974948346615,0.0027092513628304005,0.0030679169576615095,10,{}
normal_corridor_base_2,0,none,30921,0.0010154400952160358,0.0007927128463052213,-0.06670376658439636,-35.3632621,149.1652374,-0.002,-0.01,0.02,0.0,-9.942247561411932e-05,9.444986790185794e-05,0.0,1000,1000,1000,1000,12600,0,0.002641974948346615,0.0027092513628304005,0.0030679169576615095,10,{}
normal_corridor_base_2,0,none,31171,0.001020702999085188,0.0007956660119816661,-0.06703869998455048,-35.3632621,149.1652374,-0.002,-0.01,0.02,0.0,-9.942250471794978e-05,9.44498970056884e-05,0.0,1000,1000,1000,1000,12600,0,0.002792829880490899,0.002951731439679861,0.002705851336941123,10,{}
normal_corridor_base_2,0,none,31421,0.001034467131830752,0.000800403649918735,-0.06745163351297379,-35.3632621,149.1652374,-0.002,-0.01,0.02,0.0,-9.942253382178023e-05,9.444995521334931e-05,0.0,1000,1000,1000,1000,12600,0,0.0027329667937010527,0.0030140646267682314,0.0028822477906942368,10,{}
normal_corridor_base_2,0,none,31672,0.0010410899994894862,0.0008087071473710239,-0.06773965060710907,-35.3632621,149.1652374,-0.002,-0.01,0.02,0.0,-9.942253382178023e-05,9.444995521334931e-05,0.0,1000,1000,1000,1000,12600,0,0.002596696838736534,0.0029152128845453262,0.0029331822879612446,10,{}
normal_corridor_base_2,0,none,31922,0.0010405518114566803,0.0008082547574304044,-0.06811455637216568,-35.3632621,149.1652374,-0.003,-0.01,0.02,0.0,-9.942249016603455e-05,9.444990428164601e-05,0.0,1000,1000,1000,1000,12600,0,0.002596696838736534,0.0029152128845453262,0.0029331822879612446,10,{}
normal_corridor_base_2,0,none,32172,0.0010520514333620667,0.0008155898540280759,-0.06845711171627045,-35.3632621,149.1652374,-0.003,-0.01,0.02,0.0,-9.942249016603455e-05,9.444990428164601e-05,0.0,1000,1000,1000,1000,12600,0,0.0027458707336336374,0.002850848948583007,0.002785049844533205,10,{}
normal_corridor_base_2,0,none,32631,0.0010571639286354184,0.000820459914393723,-0.06886176764965057,-35.3632621,149.1652374,-0.003,-0.01,0.02,0.0,-9.942246833816171e-05,9.444995521334931e-05,0.0,1000,1000,1000,1000,12600,0,0.002873139688745141,0.0028573935851454735,0.0027465769089758396,10,{}
normal_corridor_base_2,0,none,32964,0.001069609890691936,0.0008437268552370369,-0.06958605349063873,-35.3632621,149.1652374,-0.004,-0.01,0.02,0.0,-9.942256292561069e-05,9.444997704122216e-05,0.0,1000,1000,1000,1000,12600,0,0.002572547411546111,0.0026608204934746027,0.0028160877991467714,10,{}
normal_corridor_base_2,0,none,33296,0.0010830039391294122,0.0008534278022125363,-0.070014588534832,-35.3632621,149.1652374,-0.004,-0.01,0.02,0.0,-9.942256292561069e-05,9.444997704122216e-05,0.0,1000,1000,1000,1000,12600,0,0.0028218089137226343,0.002989371307194233,0.0027050753124058247,10,{}
normal_corridor_base_2,0,none,33629,0.0011016525095328689,0.0008692938718013465,-0.07058099657297134,-35.3632621,149.1652374,-0.004,-0.01,0.02,0.0,-9.942255564965308e-05,9.444994066143408e-05,0.0,1000,1000,1000,1000,12600,0,0.002755981171503663,0.002926519839093089,0.0029467931017279625,10,{}
normal_corridor_base_2,0,none,33962,0.0011132210493087769,0.0008782558143138885,-0.07101733982563019,-35.3632621,149.1652374,-0.004,-0.02,0.02,0.0,-9.9422519269865e-05,9.444995521334931e-05,0.0,1000,1000,1000,1000,12600,0,0.0027717179618775845,0.0027306426782160997,0.0027660708874464035,10,{}
normal_corridor_base_2,0,none,34297,0.0011191158555448055,0.0008835316402837634,-0.07142435759305954,-35.3632621,149.1652374,-0.005,-0.02,0.02,0.0,-9.9422519269865e-05,9.444995521334931e-05,0.0,1000,1000,1000,1000,12600,0,0.003163941903039813,0.0025991853326559067,0.002971686888486147,10,{}
normal_corridor_base_2,0,none,34629,0.0011344803497195244,0.000900745508261025,-0.07196031510829926,-35.3632621,149.1652374,-0.005,-0.02,0.02,0.0,-9.942246833816171e-05,9.445000614505261e-05,0.0,1000,1000,1000,1000,12600,0,0.0025331685319542885,0.002941613085567951,0.002905940404161811,10,{}
normal_corridor_base_2,0,none,34961,0.0011448845034465194,0.0009158095344901085,-0.07235407829284668,-35.3632621,149.1652374,-0.005,-0.02,0.02,0.0,-9.942236647475511e-05,9.44499479373917e-05,0.0,1000,1000,1000,1000,12600,0,0.0026690438389778137,0.0028071224223822355,0.002756673377007246,10,{}
normal_corridor_base_2,0,none,35294,0.0011463402770459652,0.0009257249184884131,-0.07275169342756271,-35.3632621,149.1652374,-0.005,-0.02,0.02,0.0,-9.942236647475511e-05,9.44499479373917e-05,0.0,1000,1000,1000,1000,12600,0,0.0030297222547233105,0.0028188698925077915,0.0028277032542973757,10,{}
normal_corridor_base_2,0,none,35629,0.0011605748441070318,0.0009353210916742682,-0.07326735556125641,-35.3632621,149.1652374,-0.005,-0.02,0.02,0.0,-9.942233009496704e-05,9.44499479373917e-05,0.0,1000,1000,1000,1000,12600,0,0.002914432669058442,0.0026642647571861744,0.002716558752581477,10,{}
normal_corridor_base_2,0,none,35962,0.0011660148156806827,0.000933631497900933,-0.07363612204790115,-35.3632621,149.1652374,-0.005,-0.02,0.02,0.0,-9.942234464688227e-05,9.444992610951886e-05,0.0,1000,1000,1000,1000,12600,0,0.00278644566424191,0.0027393174823373556,0.0027527452912181616,10,{}
normal_corridor_base_2,0,none,36294,0.001169846742413938,0.0009478558786213398,-0.07395980507135391,-35.3632621,149.1652374,-0.005,-0.02,0.02,0.0,-9.942234464688227e-05,9.444992610951886e-05,0.0,1000,1000,1000,1000,12600,0,0.0028413052204996347,0.002698627533391118,0.0029540485702455044,10,{}
normal_corridor_base_2,0,none,36627,0.0011805954854935408,0.0009601793717592955,-0.0743483155965805,-35.3632621,149.1652374,-0.005,-0.02,0.02,0.0,-9.942230099113658e-05,9.444991883356124e-05,0.0,1000,1000,1000,1000,12600,0,0.002793315565213561,0.00257882266305387,0.0026905755512416363,10,{}
normal_corridor_base_2,0,none,36959,0.0011912507470697165,0.0009806008310988545,-0.07483390718698502,-35.3632621,149.1652374,-0.005,-0.02,0.02,0.0,-9.94223082670942e-05,9.44498970056884e-05,0.0,1000,1000,1000,1000,12600,0,0.002572615398094058,0.0028323358856141567,0.0027312212623655796,10,{}
normal_corridor_base_2,0,none,37294,0.0012015579268336296,0.0009949278319254518,-0.07519832998514175,-35.3632621,149.1652374,-0.005,-0.02,0.02,0.0,-9.94223082670942e-05,9.44498970056884e-05,0.0,1000,1000,1000,1000,12600,0,0.002848643809556961,0.002787528559565544,0.0027362292166799307,10,{}
normal_corridor_base_2,0,none,37626,0.001207773108035326,0.001004036865197122,-0.0755605697631836,-35.3632621,149.1652374,-0.005,-0.02,0.02,0.0,-9.942236647475511e-05,9.444988972973078e-05,0.0,1000,1000,1000,1000,12600,0,0.0029754408169537783,0.0026702319737523794,0.002600443782284856,10,{}
normal_corridor_base_2,0,none,37959,0.0012104599736630917,0.0010222105775028467,-0.07604032754898071,-35.3632621,149.1652374,-0.006,-0.02,0.02,0.0,-9.942233737092465e-05,9.444988245377317e-05,0.0,1000,1000,1000,1000,12600,0,0.002760316012427211,0.0027586952783167362,0.002817390952259302,10,{}
normal_corridor_base_2,0,none,38292,0.0012251774314790964,0.0010363231413066387,-0.07639908790588379,-35.3632621,149.1652374,-0.006,-0.02,0.02,0.0,-9.942233737092465e-05,9.444988245377317e-05,0.0,1000,1000,1000,1000,12600,0,0.0025450936518609524,0.00282771117053926,0.0029882665257900953,10,{}
normal_corridor_base_2,0,none,38624,0.0012342995032668114,0.0010428553214296699,-0.07674628496170044,-35.3632621,149.1652374,-0.006,-0.02,0.02,0.0,-9.942233737092465e-05,9.444986790185794e-05,0.0,1000,1000,1000,1000,12600,0,0.002770418534055352,0.0029110293835401535,0.0026931441389024258,10,{}
normal_corridor_base_2,0,none,38959,0.001246234867721796,0.0010563312098383904,-0.07721119374036789,-35.3632621,149.1652374,-0.006,-0.02,0.02,0.0,-9.942229371517897e-05,9.444986062590033e-05,0.0,1000,1000,1000,1000,12600,0,0.002801396418362856,0.0030599653255194426,0.002798725152388215,10,{}
normal_corridor_base_2,0,none,39291,0.0012513137189671397,0.0010663563152775168,-0.07755021750926971,-35.3632621,149.1652374,-0.006,-0.02,0.02,0.0,-9.942229371517897e-05,9.444986062590033e-05,0.0,1000,1000,1000,1000,12600,0,0.0029907654970884323,0.002642309060320258,0.002865853253751993,10,{}
normal_corridor_base_2,0,none,39624,0.001246830215677619,0.0010733656818047166,-0.07788583636283875,-35.3632621,149.1652374,-0.006,-0.02,0.02,0.0,-9.94222573353909e-05,9.444986790185794e-05,0.0,1000,1000,1000,1000,12600,0,0.0026728857774287462,0.0027821112889796495,0.002877357881516218,10,{}
normal_corridor_base_2,0,none,39957,0.0012589076068252325,0.0010775241535156965,-0.07832592725753784,-35.3632621,149.1652374,-0.006,-0.02,0.02,0.0,-9.942226461134851e-05,9.444988972973078e-05,0.0,1000,1000,1000,1000,12600,0,0.002885084133595228,0.002847983269020915,0.0026037630159407854,10,{}
normal_corridor_base_2,0,none,40289,0.0012662714580073953,0.0010836214059963822,-0.07864652574062347,-35.3632621,149.1652374,-0.006,-0.02,0.02,0.0,-9.942226461134851e-05,9.444988972973078e-05,0.0,1000,1000,1000,1000,12600,0,0.0029422095976769924,0.003185415407642722,0.002953476505354047,10,{}
normal_corridor_base_2,0,none,40622,0.0012762510450556874,0.0010921640787273645,-0.07895807921886444,-35.3632621,149.1652374,-0.006,-0.02,0.02,0.0,-9.942227188730612e-05,9.444994066143408e-05,0.0,1000,1000,1000,1000,12600,0,0.0028551961295306683,0.003022032091394067,0.002809327794238925,10,{}
normal_corridor_base_2,0,none,40956,0.0012837658869102597,0.0010961381485685706,-0.0793287381529808,-35.3632621,149.1652374,-0.006,-0.02,0.02,0.0,-9.942226461134851e-05,9.444993338547647e-05,0.0,1000,1000,1000,1000,12600,0,0.002380050253123045,0.002686003688722849,0.002719510579481721,10,{}
normal_corridor_base_2,0,none,41289,0.0012894386891275644,0.0011096204398199916,-0.07962027192115784,-35.3632621,149.1652374,-0.006,-0.02,0.02,0.0,-9.942226461134851e-05,9.444993338547647e-05,0.0,1000,1000,1000,1000,12600,0,0.0027171310503035784,0.0029935583006590605,0.002793952589854598,10,{}
normal_corridor_base_2,0,none,41621,0.001298986840993166,0.0011187144555151463,-0.0799277201294899,-35.3632621,149.1652374,-0.006,0.0,0.0,0.0,-9.942227916326374e-05,9.444991883356124e-05,0.0,1000,1000,1000,1000,12600,0,0.0027265395037829876,0.002519548637792468,0.00272191409021616,10,{}
normal_corridor_base_2,0,none,41954,0.0013511383440345526,0.001174058415926993,-0.0803302675485611,-35.3632621,149.1652374,-0.006,0.0,0.0,0.0,-9.94223082670942e-05,9.444992610951886e-05,0.0,1000,1000,1000,1000,12600,0,0.0032999026589095592,0.0027334759943187237,0.0028898066375404596,10,{}
normal_corridor_base_2,0,none,42287,0.0014322089264169335,0.0012532061664387584,-0.08064305037260056,-35.3632621,149.1652374,-0.006,0.0,0.0,0.0,-9.94223082670942e-05,9.444992610951886e-05,0.0,1000,1000,1000,1000,12600,0,0.002770684426650405,0.002749350620433688,0.003135681850835681,10,{}
normal_corridor_base_2,0,none,42622,0.001496257958933711,0.0013193885097280145,-0.08094477653503418,-35.3632621,149.1652374,-0.006,0.0,0.0,0.0,-9.942227916326374e-05,9.444991883356124e-05,0.0,1000,1000,1000,1000,12600,0,0.0028527870308607817,0.002701191697269678,0.002573364181444049,10,{}
normal_corridor_base_2,0,none,42954,0.0015778448432683945,0.0013958853669464588,-0.08134502917528152,-35.3632621,149.1652374,-0.006,0.0,0.01,0.0,-9.942232281900942e-05,9.444991883356124e-05,0.0,1000,1000,1000,1000,12600,0,0.002803107025101781,0.002652093069627881,0.0026057888753712177,10,{}
normal_corridor_base_2,0,none,43286,0.0016255398513749242,0.0014441002858802676,-0.08165834099054337,-35.3632621,149.1652374,-0.006,-0.01,0.01,0.0,-9.942232281900942e-05,9.444991883356124e-05,0.0,1000,1000,1000,1000,12600,0,0.0029270979575812817,0.0028283873107284307,0.0029252725653350353,10,{}
normal_corridor_base_2,0,none,43619,0.0016485820524394512,0.0014661935856565833,-0.08196613937616348,-35.3632621,149.1652374,-0.006,-0.01,0.01,0.0,-9.942233009496704e-05,9.444988245377317e-05,0.0,1000,1000,1000,1000,12600,0,0.002734649460762739,0.003011353313922882,0.002723398618400097,10,{}
normal_corridor_base_2,0,none,43954,0.0016575894551351666,0.0014729341492056847,-0.08236972242593765,-35.3632621,149.1652374,-0.006,-0.01,0.01,0.0,-9.942234464688227e-05,9.444986062590033e-05,0.0,1000,1000,1000,1000,12600,0,0.002643729792907834,0.0030332966707646847,0.002580929547548294,10,{}
normal_corridor_base_2,0,none,44287,0.0016455656150355935,0.001463829423300922,-0.08267979323863983,-35.3632621,149.1652374,-0.006,-0.01,0.01,0.0,-9.942234464688227e-05,9.444986062590033e-05,0.0,1000,1000,1000,1000,12600,0,0.002730976790189743,0.0029521500691771507,0.002962268190458417,10,{}
normal_corridor_base_2,0,none,44619,0.0016165788983926177,0.001426910748705268,-0.0829647108912468,-35.3632621,149.1652375,-0.006,-0.01,0.02,0.0,-9.942239557858557e-05,9.444988972973078e-05,0.0,1000,1000,1000,1000,12600,0,0.002786515047773719,0.002945110434666276,0.002614581724628806,10,{}
normal_corridor_base_2,0,none,44952,0.0015541142784059048,0.001371523248963058,-0.08333807438611984,-35.3632621,149.1652375,-0.006,-0.01,0.02,0.0,-9.94223082670942e-05,9.444986062590033e-05,0.0,1000,1000,1000,1000,12600,0,0.0025975327007472515,0.0027817708905786276,0.0029417371843010187,10,{}
normal_corridor_base_2,0,none,45171,0.001515262178145349,0.0013325809268280864,-0.08353853225708008,-35.3632621,149.1652375,-0.006,-0.01,0.02,0.0,-9.94223082670942e-05,9.444986062590033e-05,0.0,1000,1000,1000,1000,12600,0,0.0026507473085075617,0.002767816884443164,0.002714365255087614,10,{}
normal_corridor_base_2,0,none,45421,0.0014719105092808604,0.0012929198564961553,-0.08377465605735779,-35.3632622,149.1652375,-0.006,-0.01,0.02,0.0,-9.942235192283988e-05,9.444988972973078e-05,0.0,1000,1000,1000,1000,12600,0,0.0026507473085075617,0.002767816884443164,0.002714365255087614,10,{}
normal_corridor_base_2,0,none,45671,0.0014199133729562163,0.0012411971110850573,-0.08396459370851517,-35.3632622,149.1652375,-0.006,-0.01,0.02,0.0,-9.942233009496704e-05,9.444988972973078e-05,0.0,1000,1000,1000,1000,12600,0,0.0027770537417382,0.0026832607109099627,0.002937708515673876,10,{}
normal_corridor_base_2,0,none,45921,0.0013693467481061816,0.0011897122021764517,-0.0841861292719841,-35.3632622,149.1652375,-0.006,-0.01,0.02,0.0,-9.942231554305181e-05,9.444988245377317e-05,0.0,1000,1000,1000,1000,12600,0,0.003104331437498331,0.0028784419409930706,0.0028501437045633793,10,{}
normal_corridor_base_2,0,none,46171,0.0013372013345360756,0.0011518464889377356,-0.08436840772628784,-35.3632622,149.1652375,-0.006,-0.01,0.01,0.0,-9.94223082670942e-05,9.444988972973078e-05,0.0,1000,1000,1000,1000,12600,0,0.0030558716971427202,0.0028398761060088873,0.002551079262048006,10,{}
normal_corridor_base_2,0,none,46422,0.0012991986004635692,0.0011112721404060721,-0.08454210311174393,-35.3632622,149.1652375,-0.006,-0.01,0.01,0.0,-9.942230099113658e-05,9.444988972973078e-05,0.0,1000,1000,1000,1000,12600,0,0.002696086186915636,0.0027851902414113283,0.0029135597869753838,10,{}
normal_corridor_base_2,0,none,46672,0.0012591452104970813,0.0010768264764919877,-0.08471763879060745,-35.3632622,149.1652375,-0.006,-0.01,0.01,0.0,-9.942230099113658e-05,9.444991883356124e-05,0.0,1000,1000,1000,1000,12600,0,0.002620386891067028,0.0029532713815569878,0.002560220891609788,10,{}
normal_corridor_base_2,0,none,46922,0.0012224671663716435,0.0010415215510874987,-0.0849115252494812,-35.3632622,149.1652375,-0.006,-0.01,0.01,0.0,-9.942223550751805e-05,9.444988972973078e-05,0.0,1000,1000,1000,1000,12600,0,0.0031572822481393814,0.0027259779162704945,0.0025602129753679037,10,{}
normal_corridor_base_2,0,none,47171,0.001194847864098847,0.0010197169613093138,-0.08509239554405212,-35.3632621,149.1652375,-0.006,-0.01,0.01,0.0,-9.942224278347567e-05,9.444990428164601e-05,0.0,1000,1000,1000,1000,12600,0,0.0028152286540716887,0.0029355627484619617,0.002703087404370308,10,{}
normal_corridor_base_2,0,none,47421,0.0011718064779415727,0.000999906100332737,-0.0852794498205185,-35.3632621,149.1652375,-0.006,-0.01,0.01,0.0,-9.942222095560282e-05,9.444990428164601e-05,0.0,1000,1000,1000,1000,12600,0,0.002874591387808323,0.002808881690725684,0.0028637659270316362,10,{}
normal_corridor_base_2,0,none,47671,0.0011483806883916259,0.0009765057475306094,-0.08544250577688217,-35.3632621,149.1652375,-0.006,-0.01,0.01,0.0,-9.942216274794191e-05,9.444986062590033e-05,0.0,1000,1000,1000,1000,12600,0,0.0026859035715460777,0.0028714677318930626,0.002977136056870222,10,{}
normal_corridor_base_2,0,none,47921,0.0011283558560535312,0.0009594449074938893,-0.08562583476305008,-35.3632621,149.1652375,-0.006,-0.01,0.01,0.0,-9.942214092006907e-05,9.444982424611226e-05,0.0,1000,1000,1000,1000,12600,0,0.002754535060375929,0.0025166284758597612,0.0028090437408536673,10,{}
normal_corridor_base_2,0,none,48171,0.00111547508276999,0.0009482571040280163,-0.08578159660100937,-35.3632621,149.1652375,-0.006,-0.01,0.01,0.0,-9.942213364411145e-05,9.444983152206987e-05,0.0,1000,1000,1000,1000,12600,0,0.0028492736164480448,0.002716529183089733,0.0028532585129141808,10,{}
normal_corridor_base_2,0,none,48422,0.0011071540648117661,0.0009369226172566414,-0.0859748125076294,-35.3632621,149.1652375,-0.006,-0.01,0.01,0.0,-9.942211181623861e-05,9.444980969419703e-05,0.0,1000,1000,1000,1000,12600,0,0.002932771109044552,0.003025515703484416,0.00277620367705822,10,{}
normal_corridor_base_2,0,none,48672,0.0010925960959866643,0.000925325439311564,-0.08612053841352463,-35.3632621,149.1652375,-0.006,-0.01,0.01,0.0,-9.942206816049293e-05,9.44497951422818e-05,0.0,1000,1000,1000,1000,12600,0,0.002947303233668208,0.0027372781187295914,0.0028924609068781137,10,{}
normal_corridor_base_2,0,none,48922,0.0010847158264368773,0.0009199836640618742,-0.08628823608160019,-35.3632621,149.1652375,-0.006,-0.01,0.01,0.0,-9.942206816049293e-05,9.444976603845134e-05,0.0,1000,1000,1000,1000,12600,0,0.0027754860930144787,0.0030577497091144323,0.0026446033734828234,10,{}
normal_corridor_base_2,0,none,49171,0.0010839051101356745,0.0009134675492532551,-0.08644473552703857,-35.3632621,149.1652375,-0.006,-0.01,0.01,0.0,-9.942198812495917e-05,9.44497442105785e-05,0.0,1000,1000,1000,1000,12600,0,0.0026537973899394274,0.0028852627146989107,0.0026935783680528402,10,{}
normal_corridor_base_2,0,none,49421,0.001086596166715026,0.0009136480512097478,-0.08661439269781113,-35.3632621,149.1652375,-0.006,-0.01,0.01,0.0,-9.942196629708633e-05,9.444973693462089e-05,0.0,1000,1000,1000,1000,12600,0,0.002644977066665888,0.0026647872291505337,0.0028693871572613716,10,{}
normal_corridor_base_2,0,none,49671,0.0010768140200525522,0.0009053696994669735,-0.08675142377614975,-35.3632621,149.1652375,-0.006,-0.01,0.01,0.0,-9.942193719325587e-05,9.444968600291759e-05,0.0,1000,1000,1000,1000,12600,0,0.002592063043266535,0.0029541526455432177,0.002757188631221652,10,{}
normal_corridor_base_2,0,none,49921,0.0010767452185973525,0.0009107431978918612,-0.08692461997270584,-35.3632621,149.1652375,-0.006,-0.01,0.01,0.0,-9.942198812495917e-05,9.44496932788752e-05,0.0,1000,1000,1000,1000,12600,0,0.002728316467255354,0.0026855035685002804,0.002887706272304058,10,{}
normal_corridor_base_2,0,none,50171,0.001084278803318739,0.000916512100957334,-0.08706771582365036,-35.3632621,149.1652375,-0.006,-0.01,0.01,0.0,-9.942198812495917e-05,9.444968600291759e-05,0.0,1000,1000,1000,1000,12600,0,0.0026860497891902924,0.0027893641963601112,0.0027284359093755484,10,{}
normal_corridor_base_2,0,none,50422,0.0010799291776493192,0.0009143421775661409,-0.0872400775551796,-35.3632621,149.1652375,-0.006,-0.01,0.01,0.0,-9.942194446921349e-05,9.444962051929906e-05,0.0,1000,1000,1000,1000,12600,0,0.002728952094912529,0.002781274961307645,0.0028310101479291916,10,{}
normal_corridor_base_2,0,none,50672,0.0010798645671457052,0.0009109224774874747,-0.08737587928771973,-35.3632621,149.1652375,-0.006,-0.01,0.01,0.0,-9.942198812495917e-05,9.444959869142622e-05,0.0,1000,1000,1000,1000,12600,0,0.002793207298964262,0.00296926056034863,0.0031015879940241575,10,{}
normal_corridor_base_2,0,none,50922,0.0010847969679161906,0.0009095590212382376,-0.08753892034292221,-35.3632621,149.1652375,-0.006,-0.01,0.01,0.0,-9.94219517451711e-05,9.444958413951099e-05,0.0,1000,1000,1000,1000,12600,0,0.0025661757681518793,0.003006662242114544,0.0027686317916959524,10,{}
normal_corridor_base_2,0,none,51172,0.0010881928028538823,0.0009152262355200946,-0.08766908198595047,-35.3632621,149.1652375,-0.006,-0.01,0.01,0.0,-9.942192264134064e-05,9.444955503568053e-05,0.0,1000,1000,1000,1000,12600,0,0.0028797993436455727,0.0025567463599145412,0.0028909046668559313,10,{}
normal_corridor_base_2,0,none,51421,0.0010902098147198558,0.0009196056635119021,-0.08782903850078583,-35.3632621,149.1652375,-0.006,-0.01,0.01,0.0,-9.942189353751019e-05,9.444951865589246e-05,0.0,1000,1000,1000,1000,12600,0,0.003030385123565793,0.003112629521638155,0.0026609469205141068,10,{}
normal_corridor_base_2,0,none,51671,0.001087681739591062,0.0009134171414189041,-0.08795606344938278,-35.3632621,149.1652375,-0.006,-0.01,0.01,0.0,-9.942189353751019e-05,9.444950410397723e-05,0.0,1000,1000,1000,1000,12600,0,0.003109417390078306,0.0029087173752486706,0.002840897534042597,10,{}
normal_corridor_base_2,0,none,51921,0.0010943830711767077,0.0009088357910513878,-0.0881110429763794,-35.3632621,149.1652375,-0.006,-0.01,0.01,0.0,-9.942188626155257e-05,9.4449489552062e-05,0.0,1000,1000,1000,1000,12600,0,0.002876579761505127,0.0027272705920040607,0.0026064645498991013,10,{}
normal_corridor_base_2,0,none,52171,0.0011038105003535748,0.0009087176877073944,-0.088238425552845,-35.3632621,149.1652375,-0.006,-0.01,0.01,0.0,-9.94219008134678e-05,9.4449489552062e-05,0.0,1000,1000,1000,1000,12600,0,0.0031721768900752068,0.0025765385944396257,0.0029158005490899086,10,{}
normal_corridor_base_2,0,none,52421,0.0011083290446549654,0.0009080430609174073,-0.08837410062551498,-35.3632621,149.1652375,-0.006,-0.01,0.01,0.0,-9.942186443367973e-05,9.444945317227393e-05,0.0,1000,1000,1000,1000,12600,0,0.002648966619744897,0.0026723630726337433,0.002953288611024618,10,{}
normal_corridor_base_2,0,none,52672,0.0011075017973780632,0.0009123095660470426,-0.08849185705184937,-35.3632621,149.1652375,-0.006,-0.01,0.01,0.0,-9.942187170963734e-05,9.444945317227393e-05,0.0,1000,1000,1000,1000,12600,0,0.002868503099307418,0.002909504808485508,0.002975981216877699,10,{}
normal_corridor_base_2,0,none,52922,0.0011080076219514012,0.0009160878253169358,-0.08863404393196106,-35.3632621,149.1652375,-0.006,-0.01,0.01,0.0,-9.942183532984927e-05,9.444942406844348e-05,0.0,1000,1000,1000,1000,12600,0,0.00291904853656888,0.003115049097687006,0.0027333744801580906,10,{}
normal_corridor_base_2,0,none,53172,0.001110995071940124,0.0009191740537062287,-0.08876115828752518,-35.3632621,149.1652375,-0.006,-0.01,0.01,0.0,-9.942187898559496e-05,9.444946044823155e-05,0.0,1000,1000,1000,1000,12600,0,0.0030003858264535666,0.002878268249332905,0.002631707349792123,10,{}
normal_corridor_base_2,0,none,53421,0.0011210734955966473,0.0009264048421755433,-0.08891423791646957,-35.3632621,149.1652375,-0.006,-0.01,0.01,0.0,-9.942183532984927e-05,9.444942406844348e-05,0.0,1000,1000,1000,1000,12600,0,0.0027695444878190756,0.0028362812008708715,0.0027447727043181658,10,{}
normal_corridor_base_2,0,none,53671,0.0011269139358773828,0.0009291404858231544,-0.08903072029352188,-35.3632621,149.1652375,-0.006,-0.01,0.01,0.0,-9.94218498817645e-05,9.44494386203587e-05,0.0,1000,1000,1000,1000,12600,0,0.0026915359776467085,0.0028493728023022413,0.00278865615837276,10,{}
normal_corridor_base_2,0,none,53921,0.0011300905607640743,0.0009275335469283164,-0.08917306363582611,-35.3632621,149.1652375,-0.006,-0.01,0.01,0.0,-9.942181350197643e-05,9.444940951652825e-05,0.0,1000,1000,1000,1000,12600,0,0.002668396569788456,0.0027394297067075968,0.002878115978091955,10,{}
normal_corridor_base_2,0,none,54171,0.0011335696326568723,0.0009388721664436162,-0.08929401636123657,-35.3632621,149.1652375,-0.006,-0.01,0.01,0.0,-9.942179167410359e-05,9.444940951652825e-05,0.0,1000,1000,1000,1000,12600,0,0.0029440608341246843,0.0027606585063040257,0.0026818981859833,10,{}
normal_corridor_base_2,0,none,54421,0.001139309722930193,0.0009459335706196725,-0.08943046629428864,-35.3632621,149.1652375,-0.006,-0.01,0.01,0.0,-9.942173346644267e-05,9.444936586078256e-05,0.0,1000,1000,1000,1000,12600,0,0.0029122105333954096,0.0028074923902750015,0.0028099834453314543,10,{}
normal_corridor_base_2,0,none,54672,0.001143105560913682,0.0009444837342016399,-0.08954524248838425,-35.3632621,149.1652375,-0.006,-0.01,0.01,0.0,-9.94217480183579e-05,9.444940224057063e-05,0.0,1000,1000,1000,1000,12600,0,0.00285628461278975,0.003099966561421752,0.0029149299953132868,10,{}
normal_corridor_base_2,0,none,54922,0.0011429459555074573,0.0009461335139349103,-0.08968368917703629,-35.3632621,149.1652375,-0.006,-0.01,0.01,0.0,-9.942173346644267e-05,9.444934403290972e-05,0.0,1000,1000,1000,1000,12600,0,0.0027911500073969364,0.0028042371850460768,0.002701978664845228,10,{}
normal_corridor_base_2,0,none,55172,0.0011476693907752633,0.0009531036484986544,-0.08979751169681549,-35.3632621,149.1652375,-0.006,-0.01,0.01,0.0,-9.942173346644267e-05,9.444929310120642e-05,0.0,1000,1000,1000,1000,12600,0,0.002796977525576949,0.0026313564740121365,0.0026279741432517767,10,{}
normal_corridor_base_2,0,none,55421,0.0011497728992253542,0.0009545204229652882,-0.08993159234523773,-35.3632621,149.1652375,-0.006,-0.01,0.01,0.0,-9.942172619048506e-05,9.444930037716404e-05,0.0,1000,1000,1000,1000,12600,0,0.002611978678032756,0.002473806031048298,0.0027372867334634066,10,{}
normal_corridor_base_2,0,none,55671,0.0011446281569078565,0.000953788694459945,-0.09004559367895126,-35.3632621,149.1652375,-0.006,-0.01,0.01,0.0,-9.94216970866546e-05,9.444926399737597e-05,0.0,1000,1000,1000,1000,12600,0,0.0030248595867305994,0.002935329219326377,0.00266060302965343,10,{}
normal_corridor_base_2,0,none,55921,0.001146330265328288,0.0009493405814282596,-0.09017446637153625,-35.3632621,149.1652375,-0.006,-0.01,0.01,0.0,-9.942166798282415e-05,9.444924944546074e-05,0.0,1000,1000,1000,1000,12600,0,0.0028648998122662306,0.0027243364602327347,0.002657027682289481,10,{}
normal_corridor_base_2,0,none,56171,0.0011496403021737933,0.00095392856746912,-0.09028808772563934,-35.3632621,149.1652375,-0.006,-0.01,0.01,0.0,-9.94216970866546e-05,9.444927127333358e-05,0.0,1000,1000,1000,1000,12600,0,0.002716369228437543,0.0028888771776109934,0.0032557195518165827,10,{}
normal_corridor_base_2,0,none,56421,0.0011536236852407455,0.0009612748399376869,-0.09041762351989746,-35.3632621,149.1652375,-0.006,-0.01,0.01,0.0,-9.942168253473938e-05,9.444924216950312e-05,0.0,1000,1000,1000,1000,12600,0,0.0026060552336275578,0.0025726573076099157,0.0030681288335472345,10,{}
normal_corridor_base_2,0,none,56672,0.001144898240454495,0.000957184995058924,-0.0905279740691185,-35.3632621,149.1652375,-0.006,-0.01,0.01,0.0,-9.942170436261222e-05,9.44492785492912e-05,0.0,1000,1000,1000,1000,12600,0,0.002665044739842415,0.002673328621312976,0.00258069671690464,10,{}
normal_corridor_base_2,0,none,56922,0.001136331120505929,0.0009561530314385891,-0.0906258225440979,-35.3632621,149.1652375,-0.006,-0.01,0.01,0.0,-9.942178439814597e-05,9.444931492907926e-05,0.0,1000,1000,1000,1000,12600,0,0.00251873885281384,0.002685106825083494,0.0026847287081182003,10,{}
normal_corridor_base_2,0,none,57172,0.0011378704803064466,0.0009561869665049016,-0.09074116498231888,-35.3632621,149.1652375,-0.006,-0.01,0.01,0.0,-9.942176984623075e-05,9.444930037716404e-05,0.0,1000,1000,1000,1000,12600,0,0.002907626563683152,0.0030621758196502924,0.0026872355956584215,10,{}
normal_corridor_base_2,0,none,57422,0.001145535265095532,0.0009619538323022425,-0.0908646211028099,-35.3632622,149.1652375,-0.006,-0.01,0.01,0.0,-9.942180622601882e-05,9.444932948099449e-05,0.0,1000,1000,1000,1000,12600,0,0.0026049979496747255,0.003116187872365117,0.002564118942245841,10,{}
normal_corridor_base_2,0,none,57671,0.001142073073424399,0.0009601898491382599,-0.09096743911504745,-35.3632621,149.1652375,-0.006,-0.01,0.01,0.0,-9.942180622601882e-05,9.444935858482495e-05,0.0,1000,1000,1000,1000,12600,0,0.002810366451740265,0.0025563163217157125,0.0028117664624005556,10,{}
normal_corridor_base_2,0,none,57921,0.0011451406171545386,0.0009597480529919267,-0.09108279645442963,-35.3632621,149.1652375,-0.006,-0.01,0.01,0.0,-9.942183532984927e-05,9.444938041269779e-05,0.0,1000,1000,1000,1000,12600,0,0.0024678681511431932,0.0026047430001199245,0.0025405557826161385,10,{}
normal_corridor_base_2,0,none,58171,0.0011524093570187688,0.000965988845564425,-0.091190405189991,-35.3632622,149.1652375,-0.006,-0.01,0.01,0.0,-9.942186443367973e-05,9.444939496461302e-05,0.0,1000,1000,1000,1000,12600,0,0.002796916523948312,0.002402512589469552,0.0029266620986163616,10,{}
normal_corridor_base_2,0,none,58421,0.0011562895961105824,0.0009713551262393594,-0.09130693227052689,-35.3632622,149.1652375,-0.006,-0.01,0.01,0.0,-9.942186443367973e-05,9.444940224057063e-05,0.0,1000,1000,1000,1000,12600,0,0.0029371115379035473,0.0029574446380138397,0.002820828463882208,10,{}
normal_corridor_base_2,0,none,58672,0.0011522028362378478,0.0009661901858635247,-0.09140573441982269,-35.3632621,149.1652375,-0.006,-0.01,0.01,0.0,-9.942191536538303e-05,9.444944589631632e-05,0.0,1000,1000,1000,1000,12600,0,0.003107841592282057,0.0029569119215011597,0.002874859841540456,10,{}
normal_corridor_base_2,0,none,58922,0.0011527501046657562,0.00096534175099805,-0.0915292501449585,-35.3632621,149.1652375,-0.006,-0.01,0.01,0.0,-9.942193719325587e-05,9.444944589631632e-05,0.0,1000,1000,1000,1000,12600,0,0.0029678537975996733,0.0027626443188637495,0.0027279332280158997,10,{}
normal_corridor_base_2,0,none,59172,0.001158087863586843,0.0009722140384837985,-0.09162642806768417,-35.3632621,149.1652375,-0.006,-0.01,0.01,0.0,-9.942194446921349e-05,9.444942406844348e-05,0.0,1000,1000,1000,1000,12600,0,0.0027940941508859396,0.0029605224262923002,0.002759662689641118,10,{}
normal_corridor_base_2,0,none,59422,0.0011611885856837034,0.0009792994242161512,-0.09173534065485,-35.3632621,149.1652375,-0.006,-0.01,0.01,0.0,-9.942192991729826e-05,9.444938041269779e-05,0.0,1000,1000,1000,1000,12600,0,0.002811524085700512,0.0028120074421167374,0.002855640836060047,10,{}
normal_corridor_base_2,0,none,59671,0.0011556170647963881,0.0009735773783177137,-0.09183476120233536,-35.3632621,149.1652375,-0.006,-0.01,0.01,0.0,-9.942197357304394e-05,9.44493876886554e-05,0.0,1000,1000,1000,1000,12600,0,0.002972871530801058,0.002759980270639062,0.0031167196575552225,10,{}
normal_corridor_base_2,0,none,59921,0.0011476314393803477,0.0009730579913593829,-0.091945119202137,-35.3632621,149.1652375,-0.006,-0.01,0.01,0.0,-9.942194446921349e-05,9.444935858482495e-05,0.0,1000,1000,1000,1000,12600,0,0.0028722253628075123,0.002663770690560341,0.002880294341593981,10,{}
normal_corridor_base_2,0,none,60171,0.0011548004113137722,0.0009708252036944032,-0.09203468263149261,-35.3632621,149.1652375,-0.006,-0.01,0.01,0.0,-9.942200995283201e-05,9.444936586078256e-05,0.0,1000,1000,1000,1000,12600,0,0.002805381314828992,0.0028664132114499807,0.00312676839530468,10,{}
normal_corridor_base_2,0,none,60421,0.0011535498779267073,0.0009730217861942947,-0.09214324504137039,-35.3632622,149.1652375,-0.006,-0.01,0.01,0.0,-9.942198812495917e-05,9.444933675695211e-05,0.0,1000,1000,1000,1000,12600,0,0.002776498207822442,0.0028085624799132347,0.002616525860503316,10,{}
normal_corridor_base_2,0,none,60671,0.0011541848070919514,0.0009659643401391804,-0.09223427623510361,-35.3632621,149.1652375,-0.006,-0.01,0.01,0.0,-9.942202450474724e-05,9.444935130886734e-05,0.0,1000,1000,1000,1000,12600,0,0.0026812630239874125,0.002842632122337818,0.0027574696578085423,10,{}
normal_corridor_base_2,0,none,60922,0.001148003968410194,0.0009538106387481093,-0.09235020726919174,-35.3632621,149.1652375,-0.006,-0.01,0.01,0.0,-9.942202450474724e-05,9.444935858482495e-05,0.0,1000,1000,1000,1000,12600,0,0.003079802030697465,0.0025205384008586407,0.002897075144574046,10,{}
normal_corridor_base_2,0,none,61172,0.0011540083214640617,0.0009560169419273734,-0.09243553876876831,-35.3632622,149.1652375,-0.006,-0.01,0.01,0.0,-9.942206088453531e-05,9.444940224057063e-05,0.0,1000,1000,1000,1000,12600,0,0.0026296544820070267,0.0029484527185559273,0.0026115551590919495,10,{}
normal_corridor_base_2,0,none,61422,0.0011608314234763384,0.0009598557371646166,-0.09254121780395508,-35.3632622,149.1652375,-0.006,-0.01,0.01,0.0,-9.942206816049293e-05,9.444940224057063e-05,0.0,1000,1000,1000,1000,12600,0,0.0030340298544615507,0.002913121599704027,0.003017791546881199,10,{}
normal_corridor_base_2,0,none,61671,0.0011580162681639194,0.0009546075598336756,-0.09262166917324066,-35.3632622,149.1652375,-0.006,-0.01,0.01,0.0,-9.942207543645054e-05,9.444940224057063e-05,0.0,1000,1000,1000,1000,12600,0,0.0028134468011558056,0.0030209070537239313,0.0028771087527275085,10,{}
normal_corridor_base_2,0,none,61921,0.0011546546593308449,0.0009498159633949399,-0.09270649403333664,-35.3632622,149.1652375,-0.006,-0.01,0.01,0.0,-9.942206088453531e-05,9.444939496461302e-05,0.0,1000,1000,1000,1000,12600,0,0.002843852387741208,0.002773220418021083,0.002961822086945176,10,{}
normal_corridor_base_2,0,none,62171,0.0011588468914851546,0.0009568333043716848,-0.09279324859380722,-35.3632622,149.1652375,-0.006,-0.01,0.01,0.0,-9.942211181623861e-05,9.444946044823155e-05,0.0,1000,1000,1000,1000,12600,0,0.002892783610150218,0.002861551009118557,0.0028917393647134304,10,{}
normal_corridor_base_2,0,none,62421,0.0011635840637609363,0.0009573058341629803,-0.09288760274648666,-35.3632622,149.1652375,-0.006,-0.01,0.01,0.0,-9.942211181623861e-05,9.444946044823155e-05,0.0,1000,1000,1000,1000,12600,0,0.002648096764460206,0.002792437095195055,0.0029213428497314453,10,{}
normal_corridor_base_2,0,none,62671,0.0011590576032176614,0.0009582321508787572,-0.0929720401763916,-35.3632621,149.1652375,-0.006,-0.01,0.01,0.0,-9.942213364411145e-05,9.444947500014678e-05,0.0,1000,1000,1000,1000,12600,0,0.0026188939809799194,0.0032414805609732866,0.002625209977850318,10,{}
normal_corridor_base_2,0,none,62922,0.00115850695874542,0.0009640665957704186,-0.09307309985160828,-35.3632621,149.1652375,-0.006,-0.01,0.01,0.0,-9.942213364411145e-05,9.4449489552062e-05,0.0,1000,1000,1000,1000,12600,0,0.002646973356604576,0.0029700705781579018,0.0025510217528790236,10,{}
normal_corridor_base_2,0,none,63172,0.0011607968481257558,0.0009705608244985342,-0.093163400888443,-35.3632622,149.1652375,-0.006,-0.01,0.01,0.0,-9.942209726432338e-05,9.444941679248586e-05,0.0,1000,1000,1000,1000,12600,0,0.0028332762885838747,0.0027337116189301014,0.00268998509272933,10,{}
normal_corridor_base_2,0,none,63422,0.0011623644968494773,0.0009717692737467587,-0.0932629182934761,-35.3632622,149.1652375,-0.006,-0.01,0.01,0.0,-9.942212636815384e-05,9.444940951652825e-05,0.0,1000,1000,1000,1000,12600,0,0.0026563217397779226,0.0029210257343947887,0.002670465037226677,10,{}
normal_corridor_base_2,0,none,63672,0.001158062252216041,0.0009712710743770003,-0.09333861619234085,-35.3632622,149.1652375,-0.006,-0.01,0.01,0.0,-9.942211181623861e-05,9.444939496461302e-05,0.0,1000,1000,1000,1000,12600,0,0.002911965362727642,0.002607488539069891,0.0026836683973670006,10,{}
normal_corridor_base_2,0,none,63921,0.0011563742300495505,0.0009666532278060913,-0.09342823922634125,-35.3632622,149.1652375,-0.006,-0.01,0.01,0.0,-9.942208271240816e-05,9.444940224057063e-05,0.0,1000,1000,1000,1000,12600,0,0.002656603464856744,0.003064021235331893,0.0027598808519542217,10,{}
normal_corridor_base_2,0,none,64171,0.0011610250221565366,0.0009664205717854202,-0.09350685775279999,-35.3632622,149.1652375,-0.006,-0.01,0.01,0.0,-9.942213364411145e-05,9.44494386203587e-05,0.0,1000,1000,1000,1000,12600,0,0.0029528799932450056,0.0029090556781738997,0.0029133951757103205,10,{}
normal_corridor_base_2,0,none,64421,0.0011708959937095642,0.0009686255361884832,-0.09359598159790039,-35.3632622,149.1652375,-0.006,-0.01,0.01,0.0,-9.942214819602668e-05,9.44494386203587e-05,0.0,1000,1000,1000,1000,12600,0,0.002690285909920931,0.0030457719694823027,0.0028493443969637156,10,{}
normal_corridor_base_2,0,none,64671,0.001171152456663549,0.0009592084097675979,-0.09367864578962326,-35.3632622,149.1652375,-0.006,-0.01,0.01,0.0,-9.942219185177237e-05,9.444945317227393e-05,0.0,1000,1000,1000,1000,12600,0,0.002574445679783821,0.002993737580254674,0.0027058145496994257,10,{}
normal_corridor_base_2,0,none,64922,0.0011684257769957185,0.0009574624709784985,-0.09377064555883408,-35.3632621,149.1652375,-0.006,-0.01,0.01,0.0,-9.942219912772998e-05,9.444948227610439e-05,0.0,1000,1000,1000,1000,12600,0,0.0027385286521166563,0.002664572559297085,0.0027013460639864206,10,{}
normal_corridor_base_2,0,none,65172,0.0011663532350212336,0.000957254902459681,-0.09384752810001373,-35.3632622,149.1652375,-0.006,-0.01,0.01,0.0,-9.94222064036876e-05,9.444947500014678e-05,0.0,1000,1000,1000,1000,12600,0,0.0029172063805162907,0.0029340607579797506,0.00274614873342216,10,{}
normal_corridor_base_2,0,none,65422,0.0011657018912956119,0.0009634123416617513,-0.09393790364265442,-35.3632622,149.1652375,-0.006,-0.01,0.01,0.0,-9.942218457581475e-05,9.444946044823155e-05,0.0,1000,1000,1000,1000,12600,0,0.002683933824300766,0.0029081935063004494,0.002484529744833708,10,{}
normal_corridor_base_2,0,none,65672,0.0011625036131590605,0.0009613600559532642,-0.09401461482048035,-35.3632621,149.1652375,-0.006,-0.01,0.01,0.0,-9.942217729985714e-05,9.444948227610439e-05,0.0,1000,1000,1000,1000,12600,0,0.0026451461017131805,0.002774515189230442,0.0024327218998223543,10,{}
normal_corridor_base_2,0,none,65921,0.0011621867306530476,0.0009590676636435091,-0.09410607814788818,-35.3632621,149.1652375,-0.006,-0.01,0.01,0.0,-9.942218457581475e-05,9.444949682801962e-05,0.0,1000,1000,1000,1000,12600,0,0.0028782894369214773,0.002784622134640813,0.0026185207534581423,10,{}
normal_corridor_base_2,0,none,66171,0.001167924259789288,0.0009635764290578663,-0.09417575597763062,-35.3632622,149.1652375,-0.006,-0.01,0.01,0.0,-9.942221367964521e-05,9.444950410397723e-05,0.0,1000,1000,1000,1000,12600,0,0.0027323097456246614,0.0027177606243640184,0.002667577937245369,10,{}
normal_corridor_base_2,0,none,66421,0.0011742369970306754,0.0009683455573394895,-0.09426067024469376,-35.3632622,149.1652375,-0.006,-0.01,0.01,0.0,-9.942219185177237e-05,9.4449489552062e-05,0.0,1000,1000,1000,1000,12600,0,0.0029481283854693174,0.0028227607253938913,0.002638498554006219,10,{}
normal_corridor_base_2,0,none,66671,0.0011685361387208104,0.0009659917559474707,-0.09433078020811081,-35.3632621,149.1652375,-0.006,-0.01,0.01,0.0,-9.942219185177237e-05,9.4449489552062e-05,0.0,1000,1000,1000,1000,12600,0,0.002973114140331745,0.0030958433635532856,0.002759114373475313,10,{}
normal_corridor_base_2,0,none,66921,0.0011715102009475231,0.000972001114860177,-0.09441330283880234,-35.3632621,149.1652375,-0.006,-0.01,0.01,0.0,-9.942217002389953e-05,9.4449489552062e-05,0.0,1000,1000,1000,1000,12600,0,0.002684188075363636,0.0027226244565099478,0.002952311187982559,10,{}
normal_corridor_base_2,0,none,67172,0.0011746243108063936,0.0009738425724208355,-0.09446600824594498,-35.3632622,149.1652375,-0.006,-0.01,0.01,0.0,-9.942214819602668e-05,9.4449489552062e-05,0.0,1000,1000,1000,1000,12600,0,0.0028708423487842083,0.0025617305655032396,0.0028429473750293255,10,{}
normal_corridor_base_2,0,none,67422,0.0011731298873201013,0.0009769153548404574,-0.09453489631414413,-35.3632622,149.1652375,-0.006,-0.01,0.01,0.0,-9.942214819602668e-05,9.4449489552062e-05,0.0,1000,1000,1000,1000,12600,0,0.0027019961271435022,0.0027460320852696896,0.002915556076914072,10,{}
normal_corridor_base_2,0,none,67672,0.001172340358607471,0.0009800317930057645,-0.09460984915494919,-35.3632621,149.1652375,-0.006,-0.01,0.01,0.0,-9.942217729985714e-05,9.4449489552062e-05,0.0,1000,1000,1000,1000,12600,0,0.002613163786008954,0.0029581424314528704,0.0026308197993785143,10,{}
normal_corridor_base_2,0,none,67921,0.0011755222221836448,0.000980100710876286,-0.094685398042202,-35.3632622,149.1652375,-0.006,-0.01,0.01,0.0,-9.942217729985714e-05,9.4449489552062e-05,0.0,1000,1000,1000,1000,12600,0,0.0027939490973949432,0.0028900373727083206,0.0027770570013672113,10,{}
normal_corridor_base_2,0,none,68171,0.0011812788434326649,0.0009869475616142154,-0.0947522222995758,-35.3632622,149.1652375,-0.006,-0.01,0.01,0.0,-9.942217729985714e-05,9.444951865589246e-05,0.0,1000,1000,1000,1000,12600,0,0.0028723564464598894,0.002717717085033655,0.0027030918281525373,10,{}
normal_corridor_base_2,0,none,68421,0.001186169101856649,0.000992593471892178,-0.09483183175325394,-35.3632622,149.1652375,-0.006,-0.01,0.01,0.0,-9.942212636815384e-05,9.44494386203587e-05,0.0,1000,1000,1000,1000,12600,0,0.0029527931474149227,0.0027686033863574266,0.002818548586219549,10,{}
normal_corridor_base_2,0,none,68671,0.0011853246251121163,0.0009906841441988945,-0.09489721804857254,-35.3632622,149.1652375,-0.006,-0.01,0.01,0.0,-9.942214819602668e-05,9.444944589631632e-05,0.0,1000,1000,1000,1000,12600,0,0.002600217703729868,0.002837077248841524,0.0028689317405223846,10,{}
normal_corridor_base_2,0,none,68921,0.0011934579815715551,0.0009910243097692728,-0.09496795386075974,-35.3632622,149.1652375,-0.006,-0.01,0.01,0.0,-9.94221554719843e-05,9.444940951652825e-05,0.0,1000,1000,1000,1000,12600,0,0.002815794199705124,0.0024753378238528967,0.0026741898618638515,10,{}
normal_corridor_base_2,0,none,69172,0.0011986979516223073,0.0009927676292136312,-0.09504029154777527,-35.3632622,149.1652375,-0.006,-0.01,0.01,0.0,-9.942217729985714e-05,9.444942406844348e-05,0.0,1000,1000,1000,1000,12600,0,0.003032251028344035,0.0028727236203849316,0.0025690696202218533,10,{}
normal_corridor_base_2,0,none,69422,0.0012034302344545722,0.000990377040579915,-0.09511570632457733,-35.3632622,149.1652375,-0.006,-0.01,0.01,0.0,-9.942218457581475e-05,9.444942406844348e-05,0.0,1000,1000,1000,1000,12600,0,0.002917197998613119,0.002918310696259141,0.0030638170428574085,10,{}
normal_corridor_base_2,0,none,69672,0.0011959904804825783,0.0009893430396914482,-0.09518065303564072,-35.3632622,149.1652375,-0.006,-0.01,0.01,0.0,-9.942218457581475e-05,9.444942406844348e-05,0.0,1000,1000,1000,1000,12600,0,0.002874840283766389,0.0029206397011876106,0.0027732793241739273,10,{}
normal_corridor_base_2,0,none,69922,0.0011936943046748638,0.0009875464020296931,-0.09525839239358902,-35.3632622,149.1652375,-0.006,-0.01,0.01,0.0,-9.942222823156044e-05,9.444946044823155e-05,0.0,1000,1000,1000,1000,12600,0,0.0027918596751987934,0.0030613658018410206,0.0031047952361404896,10,{}
normal_corridor_base_2,0,none,70171,0.0011987094767391682,0.0009900493314489722,-0.09531848877668381,-35.3632622,149.1652375,-0.006,-0.01,0.01,0.0,-9.942221367964521e-05,9.444941679248586e-05,0.0,1000,1000,1000,1000,12600,0,0.0025556946638971567,0.002699100412428379,0.0027868859469890594,10,{}
normal_corridor_base_2,0,none,70421,0.0012028238270431757,0.0009888637578114867,-0.09539376944303513,-35.3632622,149.1652375,-0.006,-0.01,0.01,0.0,-9.942222095560282e-05,9.444941679248586e-05,0.0,1000,1000,1000,1000,12600,0,0.002819462912157178,0.0025931994896382093,0.002575452672317624,10,{}
normal_corridor_base_2,0,none,70671,0.0011993679217994213,0.0009924168698489666,-0.09545198827981949,-35.3632622,149.1652375,-0.006,-0.01,0.01,0.0,-9.942218457581475e-05,9.444937313674018e-05,0.0,1000,1000,1000,1000,12600,0,0.0027348778676241636,0.00263427896425128,0.002765779150649905,10,{}
normal_corridor_base_2,0,none,70921,0.0012018295237794518,0.0009902705205604434,-0.09552530199289322,-35.3632622,149.1652375,-0.006,-0.01,0.01,0.0,-9.942221367964521e-05,9.444939496461302e-05,0.0,1000,1000,1000,1000,12600,0,0.0025298777036368847,0.002744430210441351,0.0030367576982825994,10,{}
normal_corridor_base_2,0,none,71172,0.0012053442187607288,0.0009987292578443885,-0.09557241946458817,-35.3632622,149.1652375,-0.006,-0.01,0.01,0.0,-9.94222064036876e-05,9.444940224057063e-05,0.0,1000,1000,1000,1000,12600,0,0.0027812442276626825,0.0027529618237167597,0.0031110532581806183,10,{}
normal_corridor_base_2,0,none,71422,0.0012057538842782378,0.001000822870992124,-0.09564622491598129,-35.3632622,149.1652375,-0.006,-0.01,0.01,0.0,-9.942224278347567e-05,9.44494386203587e-05,0.0,1000,1000,1000,1000,12600,0,0.002753262873739004,0.0026707558427006006,0.002663905266672373,10,{}
