flight_id,label,attack_type,timestamp,att_roll,att_pitch,att_yaw,pos_lat,pos_lon,pos_alt_rel,pos_vx,pos_vy,pos_vz,nav_roll,nav_pitch,nav_alt_error,servo1_raw,servo2_raw,servo3_raw,servo4_raw,sys_voltage_battery,sys_load,vib_x,vib_y,vib_z,gps_sats_visible,attack_params_json
normal_corridor_base_7,0,none,10029,0.00019091156718786806,-4.300551881897263e-05,-0.34560808539390564,-35.3632621,149.1652374,0.0,0.0,0.0,-0.03,-9.942174074240029e-05,9.444951137993485e-05,0.0,1000,1000,1000,1000,12600,0,0.003028503619134426,0.0028576343320310116,0.002704027108848095,0,{}
normal_corridor_base_7,0,none,10361,0.00019792813691310585,-3.4428740036673844e-05,-0.32596638798713684,-35.3632621,149.1652374,0.0,0.0,0.0,-0.03,-9.942168253473938e-05,9.444944589631632e-05,0.0,1000,1000,1000,1000,12600,0,0.0026826877146959305,0.0028009701054543257,0.0028241071850061417,10,{}
normal_corridor_base_7,0,none,10694,0.00019744732708204538,-2.263815804326441e-05,-0.2947835922241211,-35.3632621,149.1652374,0.0,0.0,0.0,-0.03,-9.942171891452745e-05,9.444939496461302e-05,0.0,1000,1000,1000,1000,12600,0,0.0024225106462836266,0.002918530022725463,0.003008450148627162,10,{}
normal_corridor_base_7,0,none,11027,0.00020421830413397402,-1.4180543075781316e-05,-0.25929510593414307,-35.3632621,149.1652374,0.0,0.0,0.0,-0.03,-9.942171891452745e-05,9.444939496461302e-05,0.0,1000,1000,1000,1000,12600,0,0.0027941917069256306,0.002697681076824665,0.0025131292641162872,10,{}
normal_corridor_base_7,0,none,11359,0.0002083669533021748,-7.597744570375653e-06,-0.2349093109369278,-35.3632621,149.1652374,0.0,0.0,0.0,-0.03,-9.94216461549513e-05,9.444938041269779e-05,0.0,1000,1000,1000,1000,12600,0,0.002946102526038885,0.002767459489405155,0.002984835533425212,10,{}
normal_corridor_base_7,0,none,11694,0.00021275121252983809,-9.628854513721308e-07,-0.21269702911376953,-35.3632621,149.1652374,0.0,0.0,0.0,-0.03,-9.942160249920562e-05,9.444940951652825e-05,0.0,1000,1000,1000,1000,12600,0,0.0031006939243525267,0.002752370433881879,0.0026324454229325056,10,{}
normal_corridor_base_7,0,none,12026,0.0002205424680141732,1.3990463230584282e-05,-0.18668246269226074,-35.3632621,149.1652374,0.0,0.0,0.0,-0.02,-9.942160249920562e-05,9.444940951652825e-05,0.0,1000,1000,1000,1000,12600,0,0.0028949598781764507,0.0028772440273314714,0.0028946842066943645,10,{}
normal_corridor_base_7,0,none,12359,0.00022564965183846653,1.984602386073675e-05,-0.1695946305990219,-35.3632621,149.1652374,0.0,0.0,0.0,-0.02,-9.942161705112085e-05,9.444940951652825e-05,0.0,1000,1000,1000,1000,12600,0,0.0028981859795749187,0.0029637333936989307,0.0028454423882067204,10,{}
normal_corridor_base_7,0,none,12691,0.00023561071429867297,2.944206426036544e-05,-0.15440978109836578,-35.3632621,149.1652374,0.0,0.0,0.0,-0.02,-9.942168253473938e-05,9.444936586078256e-05,0.0,1000,1000,1000,1000,12600,0,0.002812003018334508,0.0028544501401484013,0.0030318426433950663,10,{}
normal_corridor_base_7,0,none,13024,0.00024566633510403335,3.6130051739746705e-05,-0.1367095708847046,-35.3632621,149.1652374,0.0,0.0,0.0,-0.02,-9.942168253473938e-05,9.444936586078256e-05,0.0,1000,1000,1000,1000,12600,0,0.002738950541242957,0.002576020546257496,0.0027991337701678276,10,{}
normal_corridor_base_7,0,none,13357,0.0002538225962780416,4.400724719744176e-05,-0.12528645992279053,-35.3632621,149.1652374,0.0,0.0,0.0,-0.01,-9.942163887899369e-05,9.444937313674018e-05,0.0,1000,1000,1000,1000,12600,0,0.002893418539315462,0.0023968617897480726,0.0028505916707217693,10,{}
normal_corridor_base_7,0,none,13692,0.00026194698875769973,5.39247521373909e-05,-0.11524645239114761,-35.3632621,149.1652374,0.0,0.0,0.0,-0.01,-9.942161705112085e-05,9.444939496461302e-05,0.0,1000,1000,1000,1000,12600,0,0.002761252224445343,0.0026790050324052572,0.0027838582172989845,10,{}
normal_corridor_base_7,0,none,14024,0.00027664893423207104,6.325279537122697e-05,-0.10375140607357025,-35.3632621,149.1652374,0.0,0.0,0.0,-0.01,-9.942161705112085e-05,9.444939496461302e-05,0.0,1000,1000,1000,1000,12600,0,0.0026667567435652018,0.002852447098121047,0.0028017458971589804,10,{}
normal_corridor_base_7,0,none,14356,0.000282548920949921,7.012848072918132e-05,-0.09636706858873367,-35.3632621,149.1652374,0.0,0.0,0.0,-0.01,-9.942153701558709e-05,9.444935858482495e-05,0.0,1000,1000,1000,1000,12600,0,0.002841468434780836,0.0029894853942096233,0.002693486399948597,10,{}
normal_corridor_base_7,0,none,14689,0.00029530227766372263,8.207157225115225e-05,-0.08993522822856903,-35.3632621,149.1652374,0.0,0.0,0.0,-0.01,-9.942152246367186e-05,9.444933675695211e-05,0.0,1000,1000,1000,1000,12600,0,0.0029196797404438257,0.002922204090282321,0.002798480447381735,10,{}
normal_corridor_base_7,0,none,15022,0.00030813144985586405,9.703204705147073e-05,-0.0825018361210823,-35.3632621,149.1652374,0.0,0.0,0.0,-0.01,-9.942152246367186e-05,9.444933675695211e-05,0.0,1000,1000,1000,1000,12600,0,0.0027986702043563128,0.0028044707141816616,0.0027289262507110834,10,{}
normal_corridor_base_7,0,none,15359,0.0003211866714991629,0.00010703221778385341,-0.0771338939666748,-35.3632621,149.1652374,0.0,0.0,0.0,-0.01,-9.942150791175663e-05,9.444935858482495e-05,0.0,1000,1000,1000,1000,12600,0,0.002922185929492116,0.002838622545823455,0.002966694300994277,10,{}
normal_corridor_base_7,0,none,15609,0.0003307907027192414,0.00011150518548674881,-0.07378612458705902,-35.3632621,149.1652374,0.0,0.0,0.0,-0.01,-9.942150063579902e-05,9.444935858482495e-05,0.0,1000,1000,1000,1000,12600,0,0.002922185929492116,0.002838622545823455,0.002966694300994277,10,{}
normal_corridor_base_7,0,none,15859,0.0003363890282344073,0.00012000498827546835,-0.07087501883506775,-35.3632621,149.1652374,0.0,0.0,0.0,0.0,-9.942148608388379e-05,9.444936586078256e-05,0.0,1000,1000,1000,1000,12600,0,0.0026640279684215784,0.002792098093777895,0.0025840585585683584,10,{}
normal_corridor_base_7,0,none,16109,0.00034575845347717404,0.00012983879423700273,-0.06822995096445084,-35.3632621,149.1652374,0.0,0.0,0.0,0.0,-9.942147153196856e-05,9.444935858482495e-05,0.0,1000,1000,1000,1000,12600,0,0.0026499242521822453,0.002886570291593671,0.0024996548891067505,10,{}
normal_corridor_base_7,0,none,16359,0.00035378028405830264,0.0001375292195007205,-0.06591206789016724,-35.3632621,149.1652374,0.0,0.0,0.0,0.0,-9.942147153196856e-05,9.444935858482495e-05,0.0,1000,1000,1000,1000,12600,0,0.002905152505263686,0.0028612499590963125,0.0026816504541784525,10,{}
normal_corridor_base_7,0,none,16609,0.00036622723564505577,0.0001452677242923528,-0.06388644129037857,-35.3632621,149.1652374,0.0,0.0,0.0,0.0,-9.942150063579902e-05,9.444938041269779e-05,0.0,1000,1000,1000,1000,12600,0,0.0030702329240739346,0.0028023950289934874,0.0027498232666403055,10,{}
normal_corridor_base_7,0,none,16859,0.0003762731794267893,0.00015426664322149009,-0.062099505215883255,-35.3632621,149.1652374,0.0,0.0,0.0,0.0,-9.942150063579902e-05,9.444938041269779e-05,0.0,1000,1000,1000,1000,12600,0,0.003136045066639781,0.002573417266830802,0.0025887133087962866,10,{}
normal_corridor_base_7,0,none,17382,0.00039598075090907514,0.00016818726726341993,-0.05916174501180649,-35.3632621,149.1652374,0.0,0.0,0.0,0.0,-9.942146425601095e-05,9.444936586078256e-05,0.0,1000,1000,1000,1000,12600,0,0.003016294213011861,0.0026016102638095617,0.003029768355190754,10,{}
normal_corridor_base_7,0,none,17717,0.00041070187580771744,0.00018106753122992814,-0.057568710297346115,-35.3632621,149.1652374,0.0,0.0,0.0,0.0,-9.942161705112085e-05,9.44493876886554e-05,0.0,1000,1000,1000,1000,12600,0,0.0026194038800895214,0.0028639514930546284,0.002528201090171933,10,{}
normal_corridor_base_7,0,none,18049,0.00042237783782184124,0.00019310557399876416,-0.05641848221421242,-35.3632621,149.1652374,0.0,0.0,0.0,0.0,-9.942168253473938e-05,9.444936586078256e-05,0.0,1000,1000,1000,1000,12600,0,0.0030783317051827908,0.002832933561876416,0.0029439814388751984,10,{}
normal_corridor_base_7,0,none,18381,0.00043362262658774853,0.00020869742729701102,-0.05547529086470604,-35.3632621,149.1652374,0.0,0.0,0.0,0.0,-9.942168253473938e-05,9.444936586078256e-05,0.0,1000,1000,1000,1000,12600,0,0.0027133189141750336,0.002904227701947093,0.003171168267726898,10,{}
normal_corridor_base_7,0,none,18714,0.0004483413358684629,0.00023003866954240948,-0.05451454967260361,-35.3632621,149.1652374,0.0,0.0,0.0,0.0,-9.942160977516323e-05,9.444930037716404e-05,0.0,1000,1000,1000,1000,12600,0,0.0027133189141750336,0.002904227701947093,0.003171168267726898,10,{}
normal_corridor_base_7,0,none,19049,0.0004698901029769331,0.00024145873612724245,-0.053937215358018875,-35.3632621,149.1652374,0.0,0.0,0.0,0.0,-9.942166798282415e-05,9.444931492907926e-05,0.0,1000,1000,1000,1000,12600,0,0.002947600092738867,0.0029921196401119232,0.0026604703161865473,10,{}
normal_corridor_base_7,0,none,19382,0.00048268958926200867,0.00025294674560427666,-0.05356481298804283,-35.3632621,149.1652374,0.0,0.0,0.0,0.0,-9.942166798282415e-05,9.444931492907926e-05,0.0,1000,1000,1000,1000,12600,0,0.0030336338095366955,0.0028268794994801283,0.0028015433344990015,10,{}
normal_corridor_base_7,0,none,19714,0.0005028316518291831,0.0002717072784435004,-0.05314211547374725,-35.3632621,149.1652374,0.0,0.0,0.0,0.0,-9.942160977516323e-05,9.444932220503688e-05,0.0,1000,1000,1000,1000,12600,0,0.0028457297012209892,0.0028174046892672777,0.0025514287408441305,10,{}
normal_corridor_base_7,0,none,20046,0.0005250877002254128,0.0002840395027305931,-0.05277419835329056,-35.3632621,149.1652374,0.008,0.0,0.0,0.0,-9.942172619048506e-05,9.444937313674018e-05,0.0,1000,1000,1000,1000,12600,0,0.002823245245963335,0.0027539473958313465,0.00286178570240736,10,{}
normal_corridor_base_7,0,none,20379,0.0005349997081793845,0.00030333007453009486,-0.05263180658221245,-35.3632621,149.1652374,-0.008,0.0,0.0,0.0,-9.942172619048506e-05,9.444937313674018e-05,0.0,1000,1000,1000,1000,12600,0,0.0031383808236569166,0.002625677501782775,0.002924740081652999,10,{}
normal_corridor_base_7,0,none,20714,0.0005522334831766784,0.0003219771315343678,-0.05264648050069809,-35.3632621,149.1652374,-0.008,0.0,0.0,0.0,-9.942171163856983e-05,9.444938041269779e-05,0.0,1000,1000,1000,1000,12600,0,0.0027961316518485546,0.0030249925330281258,0.0028592839371412992,10,{}
normal_corridor_base_7,0,none,21046,0.0005708145909011364,0.000340165919624269,-0.05276811122894287,-35.3632621,149.1652374,-0.006,0.0,0.0,0.0,-9.942174074240029e-05,9.44493876886554e-05,0.0,1000,1000,1000,1000,12600,0,0.0027865658048540354,0.0029367010574787855,0.0030761242378503084,10,{}
normal_corridor_base_7,0,none,21379,0.0005879671080037951,0.0003542473423294723,-0.05293460190296173,-35.3632621,149.1652374,-0.005,0.0,0.0,0.0,-9.942174074240029e-05,9.44493876886554e-05,0.0,1000,1000,1000,1000,12600,0,0.002701272489503026,0.002835105173289776,0.0028984209056943655,10,{}
normal_corridor_base_7,0,none,21712,0.0006049342337064445,0.0003728630836121738,-0.05312775447964668,-35.3632621,149.1652374,-0.003,0.0,0.0,0.0,-9.942178439814597e-05,9.444935858482495e-05,0.0,1000,1000,1000,1000,12600,0,0.0028040464967489243,0.0028584047686308622,0.002792522544041276,10,{}
normal_corridor_base_7,0,none,22044,0.000631422211881727,0.0003920065937563777,-0.05343345180153847,-35.3632621,149.1652374,-0.002,0.0,0.01,0.0,-9.942183532984927e-05,9.444941679248586e-05,0.0,1000,1000,1000,1000,12600,0,0.002928499598056078,0.0029854171443730593,0.0028980125207453966,10,{}
normal_corridor_base_7,0,none,22379,0.0006494920235127211,0.00040930064278654754,-0.053733743727207184,-35.3632621,149.1652374,0.0,0.0,0.01,0.0,-9.942183532984927e-05,9.444941679248586e-05,0.0,1000,1000,1000,1000,12600,0,0.0026260644663125277,0.003094968618825078,0.0026487933937460184,10,{}
normal_corridor_base_7,0,none,22711,0.0006640561623498797,0.00043266566353850067,-0.05404738336801529,-35.3632621,149.1652374,0.0,0.0,0.01,0.0,-9.942195902112871e-05,9.4449489552062e-05,0.0,1000,1000,1000,1000,12600,0,0.0026272772811353207,0.0027572326362133026,0.002781069139018655,10,{}
normal_corridor_base_7,0,none,23044,0.0006910540396347642,0.0004561792593449354,-0.05453024432063103,-35.3632621,149.1652374,0.0,0.0,0.01,0.0,-9.94219517451711e-05,9.444944589631632e-05,0.0,1000,1000,1000,1000,12600,0,0.002899991348385811,0.0026624230667948723,0.002936950419098139,10,{}
normal_corridor_base_7,0,none,23377,0.0007053529843688011,0.0004713519592769444,-0.05494221672415733,-35.3632621,149.1652374,0.001,-0.01,0.01,0.0,-9.94219517451711e-05,9.444944589631632e-05,0.0,1000,1000,1000,1000,12600,0,0.0029148468747735023,0.0026689793448895216,0.00291593954898417,10,{}
normal_corridor_base_7,0,none,23709,0.0007214018842205405,0.00048724288353696465,-0.05533815920352936,-35.3632621,149.1652374,0.002,-0.01,0.01,0.0,-9.942187898559496e-05,9.44494386203587e-05,0.0,1000,1000,1000,1000,12600,0,0.0027254235465079546,0.002714798552915454,0.0029388770926743746,10,{}
normal_corridor_base_7,0,none,24042,0.0007396782748401165,0.0005127252661623061,-0.055868230760097504,-35.3632621,149.1652374,0.002,-0.01,0.01,0.0,-9.942184260580689e-05,9.444940951652825e-05,0.0,1000,1000,1000,1000,12600,0,0.002743722638115287,0.0027111752424389124,0.0028903221245855093,10,{}
normal_corridor_base_7,0,none,24376,0.0007522110245190561,0.0005267868982627988,-0.05633706972002983,-35.3632621,149.1652374,0.002,-0.01,0.01,0.0,-9.942184260580689e-05,9.444940951652825e-05,0.0,1000,1000,1000,1000,12600,0,0.003000578610226512,0.0026987246237695217,0.0027209592517465353,10,{}
normal_corridor_base_7,0,none,24709,0.0007671447820030153,0.0005408765864558518,-0.05676022917032242,-35.3632621,149.1652374,0.002,-0.01,0.01,0.0,-9.942189353751019e-05,9.444944589631632e-05,0.0,1000,1000,1000,1000,12600,0,0.0031884312629699707,0.002773658838123083,0.00297797960229218,10,{}
normal_corridor_base_7,0,none,25041,0.0007902646320872009,0.0005629490478895605,-0.05736301466822624,-35.3632621,149.1652374,0.003,-0.01,0.01,0.0,-9.942192991729826e-05,9.444953320780769e-05,0.0,1000,1000,1000,1000,12600,0,0.0028639668598771095,0.002831847406923771,0.0025801234878599644,10,{}
normal_corridor_base_7,0,none,25374,0.0008000562083907425,0.0005772120202891529,-0.0578167662024498,-35.3632621,149.1652374,0.003,-0.01,0.01,0.0,-9.942192991729826e-05,9.444953320780769e-05,0.0,1000,1000,1000,1000,12600,0,0.0027386422734707594,0.0028284762520343065,0.0027599891182035208,10,{}
normal_corridor_base_7,0,none,25707,0.000820208981167525,0.0005953491199761629,-0.0581577830016613,-35.3632621,149.1652374,0.003,-0.01,0.01,0.0,-9.942190808942541e-05,9.444952593185008e-05,0.0,1000,1000,1000,1000,12600,0,0.002590619958937168,0.0029882381204515696,0.002724521793425083,10,{}
normal_corridor_base_7,0,none,26042,0.0008347010589204729,0.0006182743818499148,-0.05877212435007095,-35.3632621,149.1652374,0.002,-0.01,0.01,0.0,-9.942187898559496e-05,9.444947500014678e-05,0.0,1000,1000,1000,1000,12600,0,0.0025975247845053673,0.0028259791433811188,0.0027671330608427525,10,{}
normal_corridor_base_7,0,none,26374,0.0008505121804773808,0.0006212546722963452,-0.059267811477184296,-35.3632621,149.1652374,0.002,-0.01,0.01,0.0,-9.942187898559496e-05,9.444947500014678e-05,0.0,1000,1000,1000,1000,12600,0,0.0025937589816749096,0.0028404893819242716,0.0029838180635124445,10,{}
normal_corridor_base_7,0,none,26706,0.0008651728858239949,0.0006291185854934156,-0.05975845083594322,-35.3632621,149.1652374,0.002,-0.01,0.01,0.0,-9.942189353751019e-05,9.444942406844348e-05,0.0,1000,1000,1000,1000,12600,0,0.002681305631995201,0.002835902851074934,0.0025731544010341167,10,{}
normal_corridor_base_7,0,none,27039,0.0008788569830358028,0.0006449028151109815,-0.0604248121380806,-35.3632621,149.1652374,0.002,-0.01,0.01,0.0,-9.942197357304394e-05,9.444948227610439e-05,0.0,1000,1000,1000,1000,12600,0,0.0027895797975361347,0.0030232949648052454,0.0029378184117376804,10,{}
normal_corridor_base_7,0,none,27374,0.0008917920058593154,0.0006554668652825058,-0.06091924011707306,-35.3632621,149.1652374,0.002,-0.01,0.01,0.0,-9.942197357304394e-05,9.444948227610439e-05,0.0,1000,1000,1000,1000,12600,0,0.002616515615954995,0.0027480521239340305,0.002665237756446004,10,{}
normal_corridor_base_7,0,none,27707,0.0009014707757160068,0.0006638002232648432,-0.061445582658052444,-35.3632621,149.1652374,0.001,-0.01,0.01,0.0,-9.942193719325587e-05,9.444946044823155e-05,0.0,1000,1000,1000,1000,12600,0,0.0028012364637106657,0.0026942980475723743,0.002416114090010524,10,{}
normal_corridor_base_7,0,none,28039,0.0009168654796667397,0.0006775773945264518,-0.06208563223481178,-35.3632621,149.1652374,0.001,-0.01,0.01,0.0,-9.942202450474724e-05,9.44495404837653e-05,0.0,1000,1000,1000,1000,12600,0,0.002949665067717433,0.0030283553060144186,0.0027929390780627728,10,{}
normal_corridor_base_7,0,none,28371,0.0009276823839172721,0.000689214444719255,-0.06260070204734802,-35.3632621,149.1652374,0.001,-0.01,0.01,0.0,-9.942202450474724e-05,9.44495404837653e-05,0.0,1000,1000,1000,1000,12600,0,0.0028976884204894304,0.0028812517412006855,0.0027428201865404844,10,{}
normal_corridor_base_7,0,none,28704,0.0009410223574377596,0.000705165381077677,-0.06307820230722427,-35.3632621,149.1652374,0.0,-0.01,0.01,0.0,-9.942206088453531e-05,9.444960596738383e-05,0.0,1000,1000,1000,1000,12600,0,0.0027343356050550938,0.002641309518367052,0.0028031165711581707,10,{}
normal_corridor_base_7,0,none,29039,0.0009512195247225463,0.0007239063270390034,-0.06372437626123428,-35.3632621,149.1652374,0.0,-0.01,0.01,0.0,-9.94222064036876e-05,9.444967145100236e-05,0.0,1000,1000,1000,1000,12600,0,0.0029717078432440758,0.0026555072981864214,0.002649781759828329,10,{}
normal_corridor_base_7,0,none,29371,0.0009663884411565959,0.0007375463610514998,-0.06419640779495239,-35.3632621,149.1652374,0.0,-0.01,0.01,0.0,-9.94222064036876e-05,9.444967145100236e-05,0.0,1000,1000,1000,1000,12600,0,0.0027991097886115313,0.0026982491835951805,0.0025330299977213144,10,{}
normal_corridor_base_7,0,none,29704,0.000976710463874042,0.0007438679458573461,-0.06466590613126755,-35.3632621,149.1652374,0.0,-0.01,0.01,0.0,-9.94223082670942e-05,9.444972965866327e-05,0.0,1000,1000,1000,1000,12600,0,0.0025364747270941734,0.003026509191840887,0.0026543973945081234,10,{}
normal_corridor_base_7,0,none,30037,0.0009896500268951058,0.0007608454907312989,-0.0653083398938179,-35.3632621,149.1652374,0.0,-0.01,0.02,0.0,-9.942238830262795e-05,9.444977331440896e-05,0.0,1000,1000,1000,1000,12600,0,0.003144892631098628,0.0027028031181544065,0.0029617678374052048,10,{}
normal_corridor_base_7,0,none,30359,0.0009993229759857059,0.0007764409529045224,-0.06582429260015488,-35.3632621,149.1652374,-0.001,-0.01,0.02,0.0,-9.942238830262795e-05,9.444977331440896e-05,0.0,1000,1000,1000,1000,12600,0,0.0024099473375827074,0.002876549493521452,0.0031163396779447794,10,{}
normal_corridor_base_7,0,none,30609,0.0010032141581177711,0.000782694376539439,-0.06622231006622314,-35.3632621,149.1652374,-0.001,-0.01,0.02,0.0,-9.942236647475511e-05,9.444978059036657e-05,0.0,1000,1000,1000,1000,12600,0,0.0024099473375827074,0.002876549493521452,0.0031163396779447794,10,{}
normal_corridor_base_7,0,none,30859,0.0010150817688554525,0.000789501762483269,-0.06658732891082764,-35.3632621,149.1652374,-0.001,-0.01,0.02,0.0,-9.942243195837364e-05,9.444985334994271e-05,0.0,1000,1000,1000,1000,12600,0,0.0027452956419438124,0.0027041237335652113,0.0029417253099381924,10,{}
normal_corridor_base_7,0,none,31384,0.0010302014416083694,0.0008001132518984377,-0.06734599173069,-35.3632621,149.1652374,-0.002,-0.01,0.02,0.0,-9.942253382178023e-05,9.444995521334931e-05,0.0,1000,1000,1000,1000,12600,0,0.0028622495010495186,0.002820268040522933,0.002973902504891157,10,{}
normal_corridor_base_7,0,none,31717,0.0010409002425149083,0.0008100729901343584,-0.06780628114938736,-35.3632621,149.1652374,-0.002,-0.01,0.02,0.0,-9.942250471794978e-05,9.444991883356124e-05,0.0,1000,1000,1000,1000,12600,0,0.002667003544047475,0.002894102595746517,0.002950228750705719,10,{}
normal_corridor_base_7,0,none,32049,0.0010419028112664819,0.0008087613387033343,-0.06824364513158798,-35.3632621,149.1652374,-0.003,-0.01,0.02,0.0,-9.942249016603455e-05,9.444988972973078e-05,0.0,1000,1000,1000,1000,12600,0,0.0027702704537659883,0.002921447390690446,0.002719338284805417,10,{}
normal_corridor_base_7,0,none,32382,0.0010526735568419099,0.0008180341101251543,-0.06867873668670654,-35.3632621,149.1652374,-0.003,-0.01,0.02,0.0,-9.942243923433125e-05,9.444992610951886e-05,0.0,1000,1000,1000,1000,12600,0,0.003146572271361947,0.002726596547290683,0.0029289782978594303,10,{}
normal_corridor_base_7,0,none,32714,0.0010668556205928326,0.0008335702586919069,-0.06927252560853958,-35.3632621,149.1652374,-0.003,-0.01,0.02,0.0,-9.942254837369546e-05,9.444998431717977e-05,0.0,1000,1000,1000,1000,12600,0,0.003146572271361947,0.002726596547290683,0.0029289782978594303,10,{}
normal_corridor_base_7,0,none,33049,0.0010732858208939433,0.0008446762803941965,-0.06970052421092987,-35.3632621,149.1652374,-0.004,-0.01,0.02,0.0,-9.942254837369546e-05,9.444994066143408e-05,0.0,1000,1000,1000,1000,12600,0,0.002631725976243615,0.002595305209979415,0.002729345578700304,10,{}
normal_corridor_base_7,0,none,33381,0.0010884031653404236,0.0008569908677600324,-0.0701281875371933,-35.3632621,149.1652374,-0.004,-0.01,0.02,0.0,-9.942253382178023e-05,9.444992610951886e-05,0.0,1000,1000,1000,1000,12600,0,0.0027952753007411957,0.002782547613605857,0.00261896220035851,10,{}
normal_corridor_base_7,0,none,33714,0.0011052810586988926,0.000872004427947104,-0.07069497555494308,-35.3632621,149.1652374,-0.004,-0.01,0.02,0.0,-9.942253382178023e-05,9.444992610951886e-05,0.0,1000,1000,1000,1000,12600,0,0.002914086915552616,0.0030489847995340824,0.002813041443005204,10,{}
normal_corridor_base_7,0,none,34047,0.0011162084992974997,0.000876591308042407,-0.07112983614206314,-35.3632621,149.1652374,-0.005,-0.02,0.02,0.0,-9.942251199390739e-05,9.444997704122216e-05,0.0,1000,1000,1000,1000,12600,0,0.002642256673425436,0.0029271275270730257,0.003035612404346466,10,{}
normal_corridor_base_7,0,none,34379,0.001120108412578702,0.0008875052444636822,-0.07153377681970596,-35.3632621,149.1652374,-0.005,-0.02,0.02,0.0,-9.942251199390739e-05,9.444997704122216e-05,0.0,1000,1000,1000,1000,12600,0,0.002895018085837364,0.0025655056815594435,0.0027927644550800323,10,{}
normal_corridor_base_7,0,none,34714,0.001135246129706502,0.0009048757492564619,-0.07207022607326508,-35.3632621,149.1652374,-0.005,-0.02,0.02,0.0,-9.942243195837364e-05,9.444996976526454e-05,0.0,1000,1000,1000,1000,12600,0,0.002851288765668869,0.0027555988635867834,0.002913324860855937,10,{}
normal_corridor_base_7,0,none,35046,0.0011478208471089602,0.0009153590071946383,-0.07246249914169312,-35.3632621,149.1652374,-0.005,-0.02,0.02,0.0,-9.942237375071272e-05,9.44499479373917e-05,0.0,1000,1000,1000,1000,12600,0,0.0028117885813117027,0.0029506299179047346,0.002789451740682125,10,{}
normal_corridor_base_7,0,none,35379,0.0011519149411469698,0.0009286160347983241,-0.07285580039024353,-35.3632621,149.1652374,-0.005,-0.02,0.02,0.0,-9.942237375071272e-05,9.44499479373917e-05,0.0,1000,1000,1000,1000,12600,0,0.002679816447198391,0.002967789536342025,0.002459969837218523,10,{}
normal_corridor_base_7,0,none,35711,0.0011611435329541564,0.0009346794104203582,-0.07324240356683731,-35.3632621,149.1652374,-0.005,-0.02,0.02,0.0,-9.94223591987975e-05,9.444992610951886e-05,0.0,1000,1000,1000,1000,12600,0,0.0028057231102138758,0.0028449976816773415,0.0027581334579735994,10,{}
normal_corridor_base_7,0,none,36044,0.001165125286206603,0.0009369170875288546,-0.0737021192908287,-35.3632621,149.1652374,-0.005,-0.02,0.02,0.0,-9.942231554305181e-05,9.444993338547647e-05,0.0,1000,1000,1000,1000,12600,0,0.0027944380417466164,0.002842680085450411,0.0026351711712777615,10,{}
normal_corridor_base_7,0,none,36377,0.001174542005173862,0.0009497308637946844,-0.07405869662761688,-35.3632621,149.1652374,-0.005,-0.02,0.02,0.0,-9.942231554305181e-05,9.444993338547647e-05,0.0,1000,1000,1000,1000,12600,0,0.0030470516066998243,0.002654837677255273,0.002822015667334199,10,{}
normal_corridor_base_7,0,none,36711,0.001179430983029306,0.0009652809822000563,-0.07445232570171356,-35.3632621,149.1652374,-0.005,-0.02,0.02,0.0,-9.942230099113658e-05,9.444990428164601e-05,0.0,1000,1000,1000,1000,12600,0,0.0027851785998791456,0.0025126594118773937,0.002861891407519579,10,{}
normal_corridor_base_7,0,none,37044,0.0011952832574024796,0.0009853438241407275,-0.07492849975824356,-35.3632621,149.1652374,-0.005,-0.02,0.02,0.0,-9.942234464688227e-05,9.44498970056884e-05,0.0,1000,1000,1000,1000,12600,0,0.0026129768230021,0.0028083622455596924,0.0028634793125092983,10,{}
normal_corridor_base_7,0,none,37376,0.0012053338577970862,0.0009983982890844345,-0.07529356330633163,-35.3632621,149.1652374,-0.005,-0.02,0.02,0.0,-9.942234464688227e-05,9.44498970056884e-05,0.0,1000,1000,1000,1000,12600,0,0.0029244301840662956,0.003019373631104827,0.0026958580128848553,10,{}
normal_corridor_base_7,0,none,37709,0.001209018868394196,0.0010075223399326205,-0.07565459609031677,-35.3632621,149.1652374,-0.005,-0.02,0.02,0.0,-9.942235192283988e-05,9.444991155760363e-05,0.0,1000,1000,1000,1000,12600,0,0.0028604527469724417,0.0029555028304457664,0.0025418740697205067,10,{}
normal_corridor_base_7,0,none,38042,0.001215234282426536,0.001028141938149929,-0.07614091783761978,-35.3632621,149.1652374,-0.006,-0.02,0.02,0.0,-9.942234464688227e-05,9.444986062590033e-05,0.0,1000,1000,1000,1000,12600,0,0.002899026498198509,0.002707633189857006,0.0024851274210959673,10,{}
normal_corridor_base_7,0,none,38377,0.001227241475135088,0.0010372403776273131,-0.0764920711517334,-35.3632621,149.1652374,-0.006,-0.02,0.02,0.0,-9.942234464688227e-05,9.444986062590033e-05,0.0,1000,1000,1000,1000,12600,0,0.002721161115914583,0.002839216496795416,0.0027886356692761183,10,{}
normal_corridor_base_7,0,none,38709,0.0012379228137433529,0.0010421667248010635,-0.07683595269918442,-35.3632621,149.1652374,-0.006,-0.02,0.02,0.0,-9.942233737092465e-05,9.444986062590033e-05,0.0,1000,1000,1000,1000,12600,0,0.0028153532184660435,0.002959383185952902,0.0028710030019283295,10,{}
normal_corridor_base_7,0,none,39041,0.0012490230146795511,0.0010610743192955852,-0.07729881256818771,-35.3632621,149.1652374,-0.006,-0.02,0.02,0.0,-9.942227916326374e-05,9.444987517781556e-05,0.0,1000,1000,1000,1000,12600,0,0.0029375578742474318,0.003103171708062291,0.0028480510227382183,10,{}
normal_corridor_base_7,0,none,39374,0.0012519123265519738,0.001064362353645265,-0.07764089107513428,-35.3632621,149.1652374,-0.006,-0.02,0.02,0.0,-9.942227916326374e-05,9.444987517781556e-05,0.0,1000,1000,1000,1000,12600,0,0.002839450491592288,0.0026505435816943645,0.002763699973002076,10,{}
normal_corridor_base_7,0,none,39709,0.0012507146457210183,0.0010730193462222815,-0.07797406613826752,-35.3632621,149.1652374,-0.006,-0.02,0.02,0.0,-9.94222573353909e-05,9.444987517781556e-05,0.0,1000,1000,1000,1000,12600,0,0.002821194240823388,0.0027588901575654745,0.002820093184709549,10,{}
normal_corridor_base_7,0,none,40042,0.0012613274157047272,0.0010784352198243141,-0.07841994613409042,-35.3632621,149.1652374,-0.006,-0.02,0.02,0.0,-9.942227916326374e-05,9.444991883356124e-05,0.0,1000,1000,1000,1000,12600,0,0.0026911620516330004,0.0032765560317784548,0.002636444056406617,10,{}
normal_corridor_base_7,0,none,40374,0.0012696171179413795,0.0010881482157856226,-0.0787326917052269,-35.3632621,149.1652374,-0.006,-0.02,0.02,0.0,-9.942227916326374e-05,9.444991883356124e-05,0.0,1000,1000,1000,1000,12600,0,0.0025597834028303623,0.0030039134435355663,0.00299771293066442,10,{}
normal_corridor_base_7,0,none,40707,0.001278010313399136,0.0010924540692940354,-0.07904070615768433,-35.3632621,149.1652374,-0.006,-0.02,0.02,0.0,-9.942224278347567e-05,9.444992610951886e-05,0.0,1000,1000,1000,1000,12600,0,0.0025153937749564648,0.0029203968588262796,0.0027933286037296057,10,{}
normal_corridor_base_7,0,none,41039,0.0012867655605077744,0.0010999336373060942,-0.07939781248569489,-35.3632621,149.1652374,-0.006,-0.02,0.02,0.0,-9.942227916326374e-05,9.444994066143408e-05,0.0,1000,1000,1000,1000,12600,0,0.0027079314459115267,0.002938775811344385,0.002726317150518298,10,{}
normal_corridor_base_7,0,none,41374,0.0012929732911288738,0.00111329962965101,-0.07970244437456131,-35.3632621,149.1652374,-0.006,-0.02,0.02,0.0,-9.942227916326374e-05,9.444994066143408e-05,0.0,1000,1000,1000,1000,12600,0,0.002773264655843377,0.002855970524251461,0.0027283616364002228,10,{}
normal_corridor_base_7,0,none,41706,0.0013023489154875278,0.0011217747814953327,-0.08000773191452026,-35.3632621,149.1652374,-0.006,0.0,0.0,0.0,-9.942231554305181e-05,9.444991883356124e-05,0.0,1000,1000,1000,1000,12600,0,0.0029554020147770643,0.0027994357515126467,0.0028546652756631374,10,{}
normal_corridor_base_7,0,none,42039,0.0013760612346231937,0.001195295830257237,-0.08040624856948853,-35.3632621,149.1652374,-0.006,0.0,0.0,0.0,-9.94223082670942e-05,9.444991883356124e-05,0.0,1000,1000,1000,1000,12600,0,0.0029841489158570766,0.0027344494592398405,0.0027292731683701277,10,{}
normal_corridor_base_7,0,none,42372,0.0014504457358270884,0.0012723562540486455,-0.08072060346603394,-35.3632621,149.1652374,-0.006,0.0,0.0,0.0,-9.94223082670942e-05,9.444991883356124e-05,0.0,1000,1000,1000,1000,12600,0,0.002823643386363983,0.0030897273682057858,0.002813891740515828,10,{}
normal_corridor_base_7,0,none,42704,0.0015152047853916883,0.0013390440726652741,-0.08102377504110336,-35.3632621,149.1652374,-0.006,0.0,0.0,0.0,-9.942229371517897e-05,9.444992610951886e-05,0.0,1000,1000,1000,1000,12600,0,0.0028878606390208006,0.002607092959806323,0.0025088225957006216,10,{}
normal_corridor_base_7,0,none,43039,0.00159501563757658,0.001414514146745205,-0.08143104612827301,-35.3632621,149.1652374,-0.006,-0.01,0.01,0.0,-9.942233009496704e-05,9.444992610951886e-05,0.0,1000,1000,1000,1000,12600,0,0.002681499347090721,0.002923974534496665,0.0028170961886644363,10,{}
normal_corridor_base_7,0,none,43371,0.0016312849475070834,0.0014468305744230747,-0.0817427784204483,-35.3632621,149.1652374,-0.006,-0.01,0.01,0.0,-9.942233009496704e-05,9.444992610951886e-05,0.0,1000,1000,1000,1000,12600,0,0.0027017833199352026,0.0029781432822346687,0.0028619354125112295,10,{}
normal_corridor_base_7,0,none,43704,0.0016605928540229797,0.0014767491957172751,-0.08204764872789383,-35.3632621,149.1652374,-0.006,-0.01,0.01,0.0,-9.942234464688227e-05,9.444986062590033e-05,0.0,1000,1000,1000,1000,12600,0,0.0026295415591448545,0.0028860000893473625,0.002715625800192356,10,{}
normal_corridor_base_7,0,none,44036,0.001662463415414095,0.00148011464625597,-0.08245602995157242,-35.3632621,149.1652374,-0.006,-0.01,0.01,0.0,-9.942239557858557e-05,9.444990428164601e-05,0.0,1000,1000,1000,1000,12600,0,0.0029476021882146597,0.0030901918653398752,0.002567514544352889,10,{}
normal_corridor_base_7,0,none,44369,0.0016349852085113525,0.0014519470278173685,-0.08275802433490753,-35.3632621,149.1652375,-0.006,-0.01,0.01,0.0,-9.942239557858557e-05,9.444990428164601e-05,0.0,1000,1000,1000,1000,12600,0,0.0028221963439136744,0.002940072678029537,0.002687606727704406,10,{}
normal_corridor_base_7,0,none,44702,0.0016156556084752083,0.0014233534457162023,-0.08304066210985184,-35.3632621,149.1652375,-0.006,-0.01,0.02,0.0,-9.942240285454318e-05,9.444988245377317e-05,0.0,1000,1000,1000,1000,12600,0,0.002728510880842805,0.0026820972561836243,0.0027656727470457554,10,{}
normal_corridor_base_7,0,none,45036,0.001548002241179347,0.0013660357799381018,-0.08341852575540543,-35.3632621,149.1652375,-0.006,-0.01,0.02,0.0,-9.942233737092465e-05,9.444987517781556e-05,0.0,1000,1000,1000,1000,12600,0,0.0027668739203363657,0.0028403715696185827,0.002896763850003481,10,{}
normal_corridor_base_7,0,none,45359,0.001479779719375074,0.0012987024383619428,-0.08371084183454514,-35.3632622,149.1652375,-0.006,-0.01,0.02,0.0,-9.942233737092465e-05,9.444987517781556e-05,0.0,1000,1000,1000,1000,12600,0,0.0025511484127491713,0.0027296519838273525,0.0026890046428889036,10,{}
normal_corridor_base_7,0,none,45609,0.0014392905868589878,0.0012611208949238062,-0.08392900973558426,-35.3632622,149.1652375,-0.006,-0.01,0.02,0.0,-9.942233737092465e-05,9.444988972973078e-05,0.0,1000,1000,1000,1000,12600,0,0.0025511484127491713,0.0027296519838273525,0.0026890046428889036,10,{}
normal_corridor_base_7,0,none,45859,0.0013833766570314765,0.0012024238239973783,-0.0841258093714714,-35.3632622,149.1652375,-0.006,-0.01,0.02,0.0,-9.942232281900942e-05,9.444988245377317e-05,0.0,1000,1000,1000,1000,12600,0,0.0030986382625997066,0.0027661113999783993,0.0028485991060733795,10,{}
normal_corridor_base_7,0,none,46109,0.0013420513132587075,0.001157171092927456,-0.0843360424041748,-35.3632622,149.1652375,-0.006,-0.01,0.01,0.0,-9.942230099113658e-05,9.444987517781556e-05,0.0,1000,1000,1000,1000,12600,0,0.002964441664516926,0.0029269512742757797,0.002818138338625431,10,{}
normal_corridor_base_7,0,none,46359,0.001302353455685079,0.0011119218543171883,-0.08450280129909515,-35.3632622,149.1652375,-0.006,-0.01,0.01,0.0,-9.942227916326374e-05,9.444988245377317e-05,0.0,1000,1000,1000,1000,12600,0,0.0026376990135759115,0.0026923753321170807,0.002795394277200103,10,{}
normal_corridor_base_7,0,none,46609,0.0012745825806632638,0.0010905761737376451,-0.0846693366765976,-35.3632622,149.1652375,-0.006,-0.01,0.01,0.0,-9.942231554305181e-05,9.444991883356124e-05,0.0,1000,1000,1000,1000,12600,0,0.002608353039249778,0.0027677789330482483,0.0025946777313947678,10,{}
normal_corridor_base_7,0,none,46859,0.0012297575594857335,0.0010503710946068168,-0.08486422151327133,-35.3632622,149.1652375,-0.006,-0.01,0.01,0.0,-9.942224278347567e-05,9.444988972973078e-05,0.0,1000,1000,1000,1000,12600,0,0.002910564886406064,0.002735384739935398,0.002434569178149104,10,{}
normal_corridor_base_7,0,none,47109,0.001197610516101122,0.001022752607241273,-0.08504755795001984,-35.3632621,149.1652375,-0.006,-0.01,0.01,0.0,-9.942224278347567e-05,9.444992610951886e-05,0.0,1000,1000,1000,1000,12600,0,0.002830331912264228,0.0026740948669612408,0.002407713560387492,10,{}
normal_corridor_base_7,0,none,47359,0.0011716082226485014,0.0010006602387875319,-0.08523144572973251,-35.3632621,149.1652375,-0.006,-0.01,0.01,0.0,-9.942222095560282e-05,9.444990428164601e-05,0.0,1000,1000,1000,1000,12600,0,0.002942302729934454,0.00285010295920074,0.0027276657056063414,10,{}
normal_corridor_base_7,0,none,47609,0.0011574157979339361,0.0009868261404335499,-0.08540232479572296,-35.3632621,149.1652375,-0.006,-0.01,0.01,0.0,-9.942217729985714e-05,9.444986790185794e-05,0.0,1000,1000,1000,1000,12600,0,0.0027303090319037437,0.0027330066077411175,0.002782264491543174,10,{}
normal_corridor_base_7,0,none,47859,0.0011315657757222652,0.0009639391209930182,-0.08558480441570282,-35.3632621,149.1652375,-0.006,-0.01,0.01,0.0,-9.942214819602668e-05,9.444982424611226e-05,0.0,1000,1000,1000,1000,12600,0,0.002810887759551406,0.002708232030272484,0.002716965042054653,10,{}
normal_corridor_base_7,0,none,48109,0.0011161502916365862,0.0009478863212279975,-0.08574502170085907,-35.3632621,149.1652375,-0.006,-0.01,0.01,0.0,-9.942212636815384e-05,9.444983152206987e-05,0.0,1000,1000,1000,1000,12600,0,0.0030491205397993326,0.002733191242441535,0.002740527968853712,10,{}
normal_corridor_base_7,0,none,48359,0.0011058845557272434,0.00093656504759565,-0.0859261080622673,-35.3632621,149.1652375,-0.006,-0.01,0.01,0.0,-9.9422104540281e-05,9.444981697015464e-05,0.0,1000,1000,1000,1000,12600,0,0.0027207722887396812,0.0029172629583626986,0.0028043659403920174,10,{}
normal_corridor_base_7,0,none,48609,0.001100630033761263,0.0009317060466855764,-0.08608795702457428,-35.3632621,149.1652375,-0.006,-0.01,0.01,0.0,-9.942208271240816e-05,9.444980969419703e-05,0.0,1000,1000,1000,1000,12600,0,0.0028970411513000727,0.002719205105677247,0.002963472856208682,10,{}
normal_corridor_base_7,0,none,48859,0.0010899169137701392,0.0009227179689332843,-0.08624119311571121,-35.3632621,149.1652375,-0.006,-0.01,0.01,0.0,-9.942207543645054e-05,9.444978786632419e-05,0.0,1000,1000,1000,1000,12600,0,0.0027527327183634043,0.003072954947128892,0.002835240913555026,10,{}
normal_corridor_base_7,0,none,49109,0.0010844735661521554,0.0009155903244391084,-0.08641602098941803,-35.3632621,149.1652375,-0.006,-0.01,0.01,0.0,-9.942202450474724e-05,9.444976603845134e-05,0.0,1000,1000,1000,1000,12600,0,0.0029563058633357286,0.002996875671669841,0.0026840369682759047,10,{}
normal_corridor_base_7,0,none,49359,0.0010836297878995538,0.0009114728891290724,-0.0865660011768341,-35.3632621,149.1652375,-0.006,-0.01,0.01,0.0,-9.942198812495917e-05,9.444977331440896e-05,0.0,1000,1000,1000,1000,12600,0,0.0026542518753558397,0.002578223589807749,0.00275064492598176,10,{}
normal_corridor_base_7,0,none,49609,0.001083314185962081,0.0009116774308495224,-0.08672421425580978,-35.3632621,149.1652375,-0.006,-0.01,0.01,0.0,-9.942197357304394e-05,9.444972965866327e-05,0.0,1000,1000,1000,1000,12600,0,0.0027467922773212194,0.0029318167362362146,0.0026389684062451124,10,{}
normal_corridor_base_7,0,none,49859,0.0010767091298475862,0.0009133914718404412,-0.08688103407621384,-35.3632621,149.1652375,-0.006,-0.01,0.01,0.0,-9.942198812495917e-05,9.444971510674804e-05,0.0,1000,1000,1000,1000,12600,0,0.0026736531872302294,0.0027801760006695986,0.0026876882184296846,10,{}
normal_corridor_base_7,0,none,50109,0.0010772880632430315,0.0009144202340394258,-0.08704080432653427,-35.3632621,149.1652375,-0.006,-0.01,0.01,0.0,-9.942198812495917e-05,9.444970055483282e-05,0.0,1000,1000,1000,1000,12600,0,0.002833524253219366,0.0027619735337793827,0.0027765596751123667,10,{}
normal_corridor_base_7,0,none,50359,0.0010808486258611083,0.0009159551118500531,-0.08718887716531754,-35.3632621,149.1652375,-0.006,-0.01,0.01,0.0,-9.942198084900156e-05,9.444967145100236e-05,0.0,1000,1000,1000,1000,12600,0,0.0024278932251036167,0.0027282009832561016,0.002920859958976507,10,{}
normal_corridor_base_7,0,none,50609,0.001082921284250915,0.00091378582874313,-0.08735262602567673,-35.3632621,149.1652375,-0.006,-0.01,0.01,0.0,-9.94219517451711e-05,9.44495914154686e-05,0.0,1000,1000,1000,1000,12600,0,0.0028795383404940367,0.002912558615207672,0.002705363789573312,10,{}
normal_corridor_base_7,0,none,50859,0.0010856396984308958,0.0009125049691647291,-0.08749187737703323,-35.3632621,149.1652375,-0.006,-0.01,0.01,0.0,-9.94219517451711e-05,9.444958413951099e-05,0.0,1000,1000,1000,1000,12600,0,0.002730251755565405,0.00309019279666245,0.0029180580750107765,10,{}
normal_corridor_base_7,0,none,51109,0.001086049946025014,0.0009131146362051368,-0.08764593303203583,-35.3632621,149.1652375,-0.006,-0.01,0.01,0.0,-9.942192991729826e-05,9.444955503568053e-05,0.0,1000,1000,1000,1000,12600,0,0.002759188413619995,0.0027631274424493313,0.002692399313673377,10,{}
normal_corridor_base_7,0,none,51359,0.0010868506506085396,0.0009175626910291612,-0.08778399229049683,-35.3632621,149.1652375,-0.006,-0.01,0.01,0.0,-9.942188626155257e-05,9.444951865589246e-05,0.0,1000,1000,1000,1000,12600,0,0.0028520594350993633,0.0027719265781342983,0.002561443718150258,10,{}
normal_corridor_base_7,0,none,51609,0.0010907595278695226,0.0009178295731544495,-0.08793086558580399,-35.3632621,149.1652375,-0.006,-0.01,0.01,0.0,-9.942188626155257e-05,9.444949682801962e-05,0.0,1000,1000,1000,1000,12600,0,0.0028616972267627716,0.0030034955125302076,0.002972721355035901,10,{}
normal_corridor_base_7,0,none,51859,0.0010945609537884593,0.0009136635926552117,-0.08806651085615158,-35.3632621,149.1652375,-0.006,-0.01,0.01,0.0,-9.94219008134678e-05,9.444951137993485e-05,0.0,1000,1000,1000,1000,12600,0,0.002981453202664852,0.0026728399097919464,0.0029063106048852205,10,{}
normal_corridor_base_7,0,none,52109,0.001098877633921802,0.0009065615013241768,-0.08821754157543182,-35.3632621,149.1652375,-0.006,-0.01,0.01,0.0,-9.94219008134678e-05,9.4449489552062e-05,0.0,1000,1000,1000,1000,12600,0,0.002923040883615613,0.0024742335081100464,0.0028510168194770813,10,{}
normal_corridor_base_7,0,none,52359,0.0011044458951801062,0.0009058786672540009,-0.08834592998027802,-35.3632621,149.1652375,-0.006,-0.01,0.01,0.0,-9.942188626155257e-05,9.444948227610439e-05,0.0,1000,1000,1000,1000,12600,0,0.002700075274333358,0.0028381752781569958,0.0027657821774482727,10,{}
normal_corridor_base_7,0,none,52609,0.0011101830750703812,0.0009166558738797903,-0.08846187591552734,-35.3632621,149.1652375,-0.006,-0.01,0.01,0.0,-9.942186443367973e-05,9.444945317227393e-05,0.0,1000,1000,1000,1000,12600,0,0.0030767873395234346,0.0026920665986835957,0.0027921046130359173,10,{}
normal_corridor_base_7,0,none,52859,0.001110072247684002,0.0009179531480185688,-0.08859670162200928,-35.3632621,149.1652375,-0.006,-0.01,0.01,0.0,-9.942185715772212e-05,9.444943134440109e-05,0.0,1000,1000,1000,1000,12600,0,0.002855975879356265,0.00301144877448678,0.002883042674511671,10,{}
normal_corridor_base_7,0,none,53109,0.0011106115998700261,0.0009145463118329644,-0.08872945606708527,-35.3632621,149.1652375,-0.006,-0.01,0.01,0.0,-9.942184260580689e-05,9.444942406844348e-05,0.0,1000,1000,1000,1000,12600,0,0.0026552360504865646,0.0027969314251095057,0.0027470001950860023,10,{}
normal_corridor_base_7,0,none,53359,0.0011165087344124913,0.0009218102204613388,-0.08887452632188797,-35.3632621,149.1652375,-0.006,-0.01,0.01,0.0,-9.942185715772212e-05,9.444944589631632e-05,0.0,1000,1000,1000,1000,12600,0,0.002825675532221794,0.0025820410810410976,0.002596509177237749,10,{}
normal_corridor_base_7,0,none,53609,0.001130168791860342,0.0009308191947638988,-0.0890049859881401,-35.3632621,149.1652375,-0.006,-0.01,0.01,0.0,-9.942181350197643e-05,9.444940951652825e-05,0.0,1000,1000,1000,1000,12600,0,0.002713617868721485,0.00301196682266891,0.0027076255064457655,10,{}
normal_corridor_base_7,0,none,53859,0.0011319947661831975,0.0009267268469557166,-0.08913467079401016,-35.3632621,149.1652375,-0.006,-0.01,0.01,0.0,-9.942180622601882e-05,9.444942406844348e-05,0.0,1000,1000,1000,1000,12600,0,0.002530421130359173,0.0027555502019822598,0.002873047022148967,10,{}
normal_corridor_base_7,0,none,54109,0.0011332229478284717,0.000935083138756454,-0.08926977217197418,-35.3632621,149.1652375,-0.006,-0.01,0.01,0.0,-9.942177712218836e-05,9.444941679248586e-05,0.0,1000,1000,1000,1000,12600,0,0.0029445025138556957,0.0027861802373081446,0.0029055504128336906,10,{}
normal_corridor_base_7,0,none,54359,0.0011347508989274502,0.0009401349816471338,-0.08939773589372635,-35.3632621,149.1652375,-0.006,-0.01,0.01,0.0,-9.942174074240029e-05,9.444936586078256e-05,0.0,1000,1000,1000,1000,12600,0,0.0029112566262483597,0.0028869768138974905,0.0029184368904680014,10,{}
normal_corridor_base_7,0,none,54609,0.001145130256190896,0.0009490324300713837,-0.0895230695605278,-35.3632621,149.1652375,-0.006,-0.01,0.01,0.0,-9.942173346644267e-05,9.444938041269779e-05,0.0,1000,1000,1000,1000,12600,0,0.002589056733995676,0.0028299414552748203,0.0026409763377159834,10,{}
normal_corridor_base_7,0,none,54859,0.001145048881880939,0.0009480275330133736,-0.0896439254283905,-35.3632621,149.1652375,-0.006,-0.01,0.01,0.0,-9.942174074240029e-05,9.444932948099449e-05,0.0,1000,1000,1000,1000,12600,0,0.003179901046678424,0.0028269935864955187,0.002934572286903858,10,{}
normal_corridor_base_7,0,none,55109,0.0011465181596577168,0.0009495709673501551,-0.08977226912975311,-35.3632621,149.1652375,-0.006,-0.01,0.01,0.0,-9.942173346644267e-05,9.444930037716404e-05,0.0,1000,1000,1000,1000,12600,0,0.0027986096683889627,0.0028150491416454315,0.002693748101592064,10,{}
normal_corridor_base_7,0,none,55359,0.001146455411799252,0.0009526344947516918,-0.08989261090755463,-35.3632621,149.1652375,-0.006,-0.01,0.01,0.0,-9.942174074240029e-05,9.444929310120642e-05,0.0,1000,1000,1000,1000,12600,0,0.0025653615593910217,0.002535554813221097,0.0026234781835228205,10,{}
normal_corridor_base_7,0,none,55609,0.0011497512459754944,0.0009569270769134164,-0.09002306312322617,-35.3632621,149.1652375,-0.006,-0.01,0.01,0.0,-9.942168981069699e-05,9.444924944546074e-05,0.0,1000,1000,1000,1000,12600,0,0.002817535540089011,0.003212274983525276,0.002643297892063856,10,{}
normal_corridor_base_7,0,none,55859,0.001146637019701302,0.0009505224879831076,-0.0901414081454277,-35.3632621,149.1652375,-0.006,-0.01,0.01,0.0,-9.942170436261222e-05,9.444929310120642e-05,0.0,1000,1000,1000,1000,12600,0,0.0026250488590449095,0.0027982108294963837,0.0025702097918838263,10,{}
normal_corridor_base_7,0,none,56109,0.0011456083739176393,0.0009517219150438905,-0.09026864171028137,-35.3632621,149.1652375,-0.006,-0.01,0.01,0.0,-9.942168253473938e-05,9.444927127333358e-05,0.0,1000,1000,1000,1000,12600,0,0.0027849364560097456,0.002856514183804393,0.003040461568161845,10,{}
normal_corridor_base_7,0,none,56359,0.001150742289610207,0.0009558619349263608,-0.09038730710744858,-35.3632621,149.1652375,-0.006,-0.01,0.01,0.0,-9.942167525878176e-05,9.444924216950312e-05,0.0,1000,1000,1000,1000,12600,0,0.0027203415520489216,0.002890425967052579,0.003163292771205306,10,{}
normal_corridor_base_7,0,none,56609,0.0011518693063408136,0.0009608949767425656,-0.09050985425710678,-35.3632621,149.1652375,-0.006,-0.01,0.01,0.0,-9.94216970866546e-05,9.444927127333358e-05,0.0,1000,1000,1000,1000,12600,0,0.0027449512854218483,0.0026981437113136053,0.0027362967375665903,10,{}
normal_corridor_base_7,0,none,56859,0.0011375400936231017,0.0009584983345121145,-0.0905952900648117,-35.3632621,149.1652375,-0.006,-0.01,0.01,0.0,-9.94217480183579e-05,9.444930037716404e-05,0.0,1000,1000,1000,1000,12600,0,0.0028893600683659315,0.0026930251624435186,0.0027068881317973137,10,{}
normal_corridor_base_7,0,none,57109,0.0011328201508149505,0.0009548915550112724,-0.09071136265993118,-35.3632621,149.1652375,-0.006,-0.01,0.01,0.0,-9.942180622601882e-05,9.444932220503688e-05,0.0,1000,1000,1000,1000,12600,0,0.00275367870926857,0.00308021972887218,0.0027672003488987684,10,{}
normal_corridor_base_7,0,none,57359,0.0011408270802348852,0.0009573363931849599,-0.09083059430122375,-35.3632621,149.1652375,-0.006,-0.01,0.01,0.0,-9.942182077793404e-05,9.444934403290972e-05,0.0,1000,1000,1000,1000,12600,0,0.002756827510893345,0.0028920324984937906,0.002678319113329053,10,{}
normal_corridor_base_7,0,none,57609,0.0011471644975245,0.0009653907036408782,-0.09094556421041489,-35.3632622,149.1652375,-0.006,-0.01,0.01,0.0,-9.942181350197643e-05,9.444935130886734e-05,0.0,1000,1000,1000,1000,12600,0,0.0026882162783294916,0.002612355398014188,0.002521827584132552,10,{}
normal_corridor_base_7,0,none,57859,0.0011461941758170724,0.0009619080810807645,-0.09105420857667923,-35.3632622,149.1652375,-0.006,-0.01,0.01,0.0,-9.942182805389166e-05,9.444936586078256e-05,0.0,1000,1000,1000,1000,12600,0,0.0026686876080930233,0.0025595328770577908,0.002613175194710493,10,{}
normal_corridor_base_7,0,none,58109,0.0011505525326356292,0.0009610041161067784,-0.09116332978010178,-35.3632621,149.1652375,-0.006,-0.01,0.01,0.0,-9.942185715772212e-05,9.444940224057063e-05,0.0,1000,1000,1000,1000,12600,0,0.0025921626947820187,0.002722289878875017,0.0025753893423825502,10,{}
normal_corridor_base_7,0,none,58359,0.001154232071712613,0.000966985709965229,-0.09127876162528992,-35.3632622,149.1652375,-0.006,-0.01,0.01,0.0,-9.94218498817645e-05,9.444938041269779e-05,0.0,1000,1000,1000,1000,12600,0,0.003136976854875684,0.00285535492002964,0.002741058124229312,10,{}
normal_corridor_base_7,0,none,58609,0.0011553011136129498,0.0009718756773509085,-0.09138531237840652,-35.3632622,149.1652375,-0.006,-0.01,0.01,0.0,-9.942191536538303e-05,9.444943134440109e-05,0.0,1000,1000,1000,1000,12600,0,0.0033145740162581205,0.0030581026803702116,0.0028399054426699877,10,{}
normal_corridor_base_7,0,none,58859,0.00115388969425112,0.0009682156960479915,-0.09149821102619171,-35.3632621,149.1652375,-0.006,-0.01,0.01,0.0,-9.94219517451711e-05,9.444946772418916e-05,0.0,1000,1000,1000,1000,12600,0,0.002873932244256139,0.002750982763245702,0.002643563784658909,10,{}
normal_corridor_base_7,0,none,59109,0.0011556694516912103,0.0009694803738966584,-0.09160532802343369,-35.3632621,149.1652375,-0.006,-0.01,0.01,0.0,-9.942192264134064e-05,9.444939496461302e-05,0.0,1000,1000,1000,1000,12600,0,0.002709657186642289,0.0027901530265808105,0.002635806333273649,10,{}
normal_corridor_base_7,0,none,59359,0.001157964114099741,0.0009754665661603212,-0.09170641750097275,-35.3632621,149.1652375,-0.006,-0.01,0.01,0.0,-9.942193719325587e-05,9.44493876886554e-05,0.0,1000,1000,1000,1000,12600,0,0.002986150560900569,0.0025646232534199953,0.0026288125663995743,10,{}
normal_corridor_base_7,0,none,59609,0.0011633834801614285,0.0009801442502066493,-0.09181450307369232,-35.3632622,149.1652375,-0.006,-0.01,0.01,0.0,-9.942194446921349e-05,9.444936586078256e-05,0.0,1000,1000,1000,1000,12600,0,0.0029572832863777876,0.0027076476253569126,0.0027441259007900953,10,{}
normal_corridor_base_7,0,none,59859,0.001150948228314519,0.0009753514314070344,-0.09191413968801498,-35.3632621,149.1652375,-0.006,-0.01,0.01,0.0,-9.942197357304394e-05,9.44493876886554e-05,0.0,1000,1000,1000,1000,12600,0,0.002691302914172411,0.0028327982872724533,0.002781176706776023,10,{}
normal_corridor_base_7,0,none,60109,0.001150992582552135,0.0009697595960460603,-0.0920155718922615,-35.3632621,149.1652375,-0.006,-0.01,0.01,0.0,-9.942198812495917e-05,9.444936586078256e-05,0.0,1000,1000,1000,1000,12600,0,0.0030766644049435854,0.0027686390094459057,0.0027320855297148228,10,{}
normal_corridor_base_7,0,none,60359,0.001152415294200182,0.0009686223929747939,-0.0921175554394722,-35.3632621,149.1652375,-0.006,-0.01,0.01,0.0,-9.942203178070486e-05,9.444936586078256e-05,0.0,1000,1000,1000,1000,12600,0,0.00264367600902915,0.0028392449021339417,0.0027064899913966656,10,{}
normal_corridor_base_7,0,none,60609,0.0011598190758377314,0.0009716156055219471,-0.09221701323986053,-35.3632622,149.1652375,-0.006,-0.01,0.01,0.0,-9.942204633262008e-05,9.444936586078256e-05,0.0,1000,1000,1000,1000,12600,0,0.0027707696426659822,0.002933873562142253,0.0028347743209451437,10,{}
normal_corridor_base_7,0,none,60859,0.0011506222654134035,0.0009574568248353899,-0.09232082962989807,-35.3632621,149.1652375,-0.006,-0.01,0.01,0.0,-9.942202450474724e-05,9.444936586078256e-05,0.0,1000,1000,1000,1000,12600,0,0.002845232840627432,0.0027584449853748083,0.00260436930693686,10,{}
normal_corridor_base_7,0,none,61109,0.0011541894637048244,0.0009530831011943519,-0.09242058545351028,-35.3632621,149.1652375,-0.006,-0.01,0.01,0.0,-9.94220536085777e-05,9.444938041269779e-05,0.0,1000,1000,1000,1000,12600,0,0.002466082340106368,0.0028912045527249575,0.00280753243714571,10,{}
normal_corridor_base_7,0,none,61359,0.001157370861619711,0.0009573562419973314,-0.09250995516777039,-35.3632622,149.1652375,-0.006,-0.01,0.01,0.0,-9.942203905666247e-05,9.444936586078256e-05,0.0,1000,1000,1000,1000,12600,0,0.0032029920257627964,0.0030849571339786053,0.0030326165724545717,10,{}
normal_corridor_base_7,0,none,61609,0.001163512235507369,0.0009605655213817954,-0.09260693937540054,-35.3632622,149.1652375,-0.006,-0.01,0.01,0.0,-9.942208271240816e-05,9.444936586078256e-05,0.0,1000,1000,1000,1000,12600,0,0.0027413039933890104,0.0028050777036696672,0.0029552169144153595,10,{}
normal_corridor_base_7,0,none,61859,0.0011544275330379605,0.0009527966612949967,-0.09268105775117874,-35.3632622,149.1652375,-0.006,-0.01,0.01,0.0,-9.942208998836577e-05,9.444940224057063e-05,0.0,1000,1000,1000,1000,12600,0,0.0028701815754175186,0.0027552323881536722,0.003020034870132804,10,{}
normal_corridor_base_7,0,none,62109,0.0011569677153602242,0.0009554944699630141,-0.09277230501174927,-35.3632622,149.1652375,-0.006,-0.01,0.01,0.0,-9.9422104540281e-05,9.444942406844348e-05,0.0,1000,1000,1000,1000,12600,0,0.002576263854280114,0.0028237842489033937,0.00281587615609169,10,{}
normal_corridor_base_7,0,none,62359,0.001162378117442131,0.0009543164051137865,-0.09286495298147202,-35.3632622,149.1652375,-0.006,-0.01,0.01,0.0,-9.942212636815384e-05,9.444945317227393e-05,0.0,1000,1000,1000,1000,12600,0,0.0026123153511434793,0.0026703509502112865,0.0027822148986160755,10,{}
normal_corridor_base_7,0,none,62609,0.0011630640365183353,0.0009633832378312945,-0.09295174479484558,-35.3632622,149.1652375,-0.006,-0.01,0.01,0.0,-9.942212636815384e-05,9.444947500014678e-05,0.0,1000,1000,1000,1000,12600,0,0.002607963513582945,0.00300018722191453,0.0027914310339838266,10,{}
normal_corridor_base_7,0,none,62859,0.0011604845058172941,0.0009619378834031522,-0.09304547309875488,-35.3632621,149.1652375,-0.006,-0.01,0.01,0.0,-9.942214092006907e-05,9.4449489552062e-05,0.0,1000,1000,1000,1000,12600,0,0.002651479560881853,0.003121313638985157,0.0026552302297204733,10,{}
normal_corridor_base_7,0,none,63109,0.0011601106962189078,0.0009673222666606307,-0.09314198791980743,-35.3632622,149.1652375,-0.006,-0.01,0.01,0.0,-9.942209726432338e-05,9.444941679248586e-05,0.0,1000,1000,1000,1000,12600,0,0.002965441904962063,0.002840616274625063,0.00271061179228127,10,{}
normal_corridor_base_7,0,none,63359,0.001159029663540423,0.000966163061093539,-0.09323614090681076,-35.3632622,149.1652375,-0.006,-0.01,0.01,0.0,-9.942212636815384e-05,9.444942406844348e-05,0.0,1000,1000,1000,1000,12600,0,0.002757894340902567,0.0027701384387910366,0.0028627743013203144,10,{}
normal_corridor_base_7,0,none,63609,0.0011627719504758716,0.0009760424145497382,-0.09332115203142166,-35.3632622,149.1652375,-0.006,-0.01,0.01,0.0,-9.942211181623861e-05,9.44493876886554e-05,0.0,1000,1000,1000,1000,12600,0,0.0028746810276061296,0.002498235320672393,0.002747178077697754,10,{}
normal_corridor_base_7,0,none,63859,0.0011575233656913042,0.0009708762518130243,-0.09340231865644455,-35.3632622,149.1652375,-0.006,-0.01,0.01,0.0,-9.942208998836577e-05,9.444940951652825e-05,0.0,1000,1000,1000,1000,12600,0,0.002889009192585945,0.0030402233824133873,0.0028160575311630964,10,{}
normal_corridor_base_7,0,none,64109,0.0011629948858171701,0.0009625497623346746,-0.09349004924297333,-35.3632622,149.1652375,-0.006,-0.01,0.01,0.0,-9.942211909219623e-05,9.444942406844348e-05,0.0,1000,1000,1000,1000,12600,0,0.0027221243362873793,0.003016339847818017,0.0031026387587189674,10,{}
normal_corridor_base_7,0,none,64359,0.0011643841862678528,0.0009647234110161662,-0.0935746431350708,-35.3632622,149.1652375,-0.006,-0.01,0.01,0.0,-9.942214819602668e-05,9.444943134440109e-05,0.0,1000,1000,1000,1000,12600,0,0.0028825874906033278,0.00287686032243073,0.002806844422593713,10,{}
normal_corridor_base_7,0,none,64609,0.0011742374626919627,0.0009671474690549076,-0.09366049617528915,-35.3632622,149.1652375,-0.006,-0.01,0.01,0.0,-9.942217002389953e-05,9.444946044823155e-05,0.0,1000,1000,1000,1000,12600,0,0.002824182389304042,0.0028840594459325075,0.0029115660581737757,10,{}
normal_corridor_base_7,0,none,64859,0.0011716042645275593,0.0009586861706338823,-0.09374558180570602,-35.3632621,149.1652375,-0.006,-0.01,0.01,0.0,-9.942219912772998e-05,9.444946772418916e-05,0.0,1000,1000,1000,1000,12600,0,0.0028020250611007214,0.0029560797847807407,0.0029144000727683306,10,{}
normal_corridor_base_7,0,none,65109,0.0011645675403997302,0.0009521180763840675,-0.09383203834295273,-35.3632621,149.1652375,-0.006,-0.01,0.01,0.0,-9.942217729985714e-05,9.444945317227393e-05,0.0,1000,1000,1000,1000,12600,0,0.002846860559657216,0.0030448264442384243,0.0027191070839762688,10,{}
normal_corridor_base_7,0,none,65359,0.0011631917441263795,0.0009598119067959487,-0.09391213208436966,-35.3632622,149.1652375,-0.006,-0.01,0.01,0.0,-9.942219185177237e-05,9.444947500014678e-05,0.0,1000,1000,1000,1000,12600,0,0.0028156533371657133,0.002865562215447426,0.0028732996433973312,10,{}
normal_corridor_base_7,0,none,65609,0.0011656945571303368,0.0009660765063017607,-0.09399912506341934,-35.3632622,149.1652375,-0.006,-0.01,0.01,0.0,-9.942219912772998e-05,9.4449489552062e-05,0.0,1000,1000,1000,1000,12600,0,0.0026665946934372187,0.002545934170484543,0.002667010063305497,10,{}
normal_corridor_base_7,0,none,65859,0.0011626722989603877,0.0009607851970940828,-0.09408099204301834,-35.3632621,149.1652375,-0.006,-0.01,0.01,0.0,-9.942219912772998e-05,9.4449489552062e-05,0.0,1000,1000,1000,1000,12600,0,0.0026679912116378546,0.0029578441753983498,0.002627108246088028,10,{}
normal_corridor_base_7,0,none,66109,0.0011652786051854491,0.0009615044109523296,-0.09416186809539795,-35.3632621,149.1652375,-0.006,-0.01,0.01,0.0,-9.942219185177237e-05,9.4449489552062e-05,0.0,1000,1000,1000,1000,12600,0,0.002651833463460207,0.002939603989943862,0.002944599138572812,10,{}
normal_corridor_base_7,0,none,66359,0.0011716493172571063,0.0009616982424631715,-0.0942365825176239,-35.3632621,149.1652375,-0.006,-0.01,0.01,0.0,-9.942219912772998e-05,9.444951137993485e-05,0.0,1000,1000,1000,1000,12600,0,0.0028581684455275536,0.002851201221346855,0.0026736941654235125,10,{}
normal_corridor_base_7,0,none,66609,0.0011715091532096267,0.0009742812835611403,-0.09432173520326614,-35.3632622,149.1652375,-0.006,-0.01,0.01,0.0,-9.942217729985714e-05,9.444947500014678e-05,0.0,1000,1000,1000,1000,12600,0,0.0029005699325352907,0.0027807378210127354,0.002708904445171356,10,{}
normal_corridor_base_7,0,none,66859,0.001172133139334619,0.0009718957007862628,-0.09439142793416977,-35.3632621,149.1652375,-0.006,-0.01,0.01,0.0,-9.942214819602668e-05,9.444947500014678e-05,0.0,1000,1000,1000,1000,12600,0,0.0024763979017734528,0.0028172589372843504,0.002990212058648467,10,{}
normal_corridor_base_7,0,none,67109,0.001171556068584323,0.000970413675531745,-0.09445430338382721,-35.3632621,149.1652375,-0.006,-0.01,0.01,0.0,-9.94221554719843e-05,9.444950410397723e-05,0.0,1000,1000,1000,1000,12600,0,0.0029315960127860308,0.002608770038932562,0.0031276470981538296,10,{}
normal_corridor_base_7,0,none,67359,0.0011740743648260832,0.0009744778508320451,-0.0945136770606041,-35.3632622,149.1652375,-0.006,-0.01,0.01,0.0,-9.942217002389953e-05,9.444951137993485e-05,0.0,1000,1000,1000,1000,12600,0,0.0030050098430365324,0.0028587067499756813,0.0028557695914059877,10,{}
normal_corridor_base_7,0,none,67609,0.0011759717017412186,0.0009822900174185634,-0.09459088742733002,-35.3632622,149.1652375,-0.006,-0.01,0.01,0.0,-9.94222064036876e-05,9.4449489552062e-05,0.0,1000,1000,1000,1000,12600,0,0.0025982896331697702,0.002940783742815256,0.002750343643128872,10,{}
normal_corridor_base_7,0,none,67859,0.001177049707621336,0.000982400611974299,-0.09466646611690521,-35.3632622,149.1652375,-0.006,-0.01,0.01,0.0,-9.942216274794191e-05,9.4449489552062e-05,0.0,1000,1000,1000,1000,12600,0,0.002685612067580223,0.0029180345591157675,0.0028259065002202988,10,{}
normal_corridor_base_7,0,none,68109,0.0011777249164879322,0.0009811946656554937,-0.09473525732755661,-35.3632622,149.1652375,-0.006,-0.01,0.01,0.0,-9.942214092006907e-05,9.444949682801962e-05,0.0,1000,1000,1000,1000,12600,0,0.003075391985476017,0.0026856856420636177,0.0024714276660233736,10,{}
normal_corridor_base_7,0,none,68359,0.0011827886337414384,0.0009911633096635342,-0.09480980038642883,-35.3632622,149.1652375,-0.006,-0.01,0.01,0.0,-9.942214092006907e-05,9.444946044823155e-05,0.0,1000,1000,1000,1000,12600,0,0.002987128449603915,0.002749452367424965,0.002868725685402751,10,{}
normal_corridor_base_7,0,none,68609,0.0011901033576577902,0.0009955057175830007,-0.09488175809383392,-35.3632622,149.1652375,-0.006,-0.01,0.01,0.0,-9.942213364411145e-05,9.44494386203587e-05,0.0,1000,1000,1000,1000,12600,0,0.0027335314080119133,0.0030491549987345934,0.002974350471049547,10,{}
normal_corridor_base_7,0,none,68859,0.0011928011663258076,0.0009890219662338495,-0.09495220333337784,-35.3632622,149.1652375,-0.006,-0.01,0.01,0.0,-9.942213364411145e-05,9.44493876886554e-05,0.0,1000,1000,1000,1000,12600,0,0.002812271239235997,0.002663548570126295,0.00277336104772985,10,{}
normal_corridor_base_7,0,none,69109,0.001196506666019559,0.000990498112514615,-0.0950251892209053,-35.3632622,149.1652375,-0.006,-0.01,0.01,0.0,-9.942219185177237e-05,9.444943134440109e-05,0.0,1000,1000,1000,1000,12600,0,0.0028260264080017805,0.0027292142622172832,0.0025134270545095205,10,{}
