flight_id,label,attack_type,timestamp,att_roll,att_pitch,att_yaw,pos_lat,pos_lon,pos_alt_rel,pos_vx,pos_vy,pos_vz,nav_roll,nav_pitch,nav_alt_error,servo1_raw,servo2_raw,servo3_raw,servo4_raw,sys_voltage_battery,sys_load,vib_x,vib_y,vib_z,gps_sats_visible,attack_params_json
normal_corridor_base_13,0,none,10251,0.00019302981672808528,-3.861149889416993e-05,-0.3407938480377197,-35.3632621,149.1652374,0.0,0.0,0.0,-0.03,-9.942174074240029e-05,9.444947500014678e-05,0.0,1000,1000,1000,1000,12600,0,0.0028276024386286736,0.0029548783786594868,0.002720695687457919,3,{}
normal_corridor_base_13,0,none,10584,0.00019727581820916384,-2.3723932827124372e-05,-0.29998302459716797,-35.3632621,149.1652374,0.0,0.0,0.0,-0.03,-9.94216970866546e-05,9.444939496461302e-05,0.0,1000,1000,1000,1000,12600,0,0.002417224459350109,0.0026141635607928038,0.0029480846133083105,10,{}
normal_corridor_base_13,0,none,10917,0.00020119691907893866,-1.806637919798959e-05,-0.27236682176589966,-35.3632621,149.1652374,0.0,0.0,0.0,-0.03,-9.942166798282415e-05,9.444939496461302e-05,0.0,1000,1000,1000,1000,12600,0,0.0025882881600409746,0.002420597244054079,0.0025459923781454563,10,{}
normal_corridor_base_13,0,none,11249,0.0002054974902421236,-1.0570440281298943e-05,-0.24717086553573608,-35.3632621,149.1652374,0.0,0.0,0.0,-0.03,-9.942166798282415e-05,9.444939496461302e-05,0.0,1000,1000,1000,1000,12600,0,0.0028759741690009832,0.002546201227232814,0.003096841275691986,10,{}
normal_corridor_base_13,0,none,11582,0.00021312973694875836,-1.2170753507234622e-06,-0.21655410528182983,-35.3632621,149.1652374,0.0,0.0,0.0,-0.03,-9.942155884345993e-05,9.444935130886734e-05,0.0,1000,1000,1000,1000,12600,0,0.0029635289683938026,0.0028132456354796886,0.003038078546524048,10,{}
normal_corridor_base_13,0,none,11916,0.00022177745995577425,7.537331839557737e-06,-0.19605638086795807,-35.3632621,149.1652374,0.0,0.0,0.0,-0.02,-9.942158794729039e-05,9.444940951652825e-05,0.0,1000,1000,1000,1000,12600,0,0.002911703195422888,0.002558056265115738,0.0027138725854456425,10,{}
normal_corridor_base_13,0,none,12249,0.00022313592489808798,1.943941242643632e-05,-0.177970752120018,-35.3632621,149.1652374,0.0,0.0,0.0,-0.02,-9.942158794729039e-05,9.444940951652825e-05,0.0,1000,1000,1000,1000,12600,0,0.0029360130429267883,0.00281766289845109,0.0028052101843059063,10,{}
normal_corridor_base_13,0,none,12581,0.00023500292445532978,2.8429567464627326e-05,-0.1568661779165268,-35.3632621,149.1652374,0.0,0.0,0.0,-0.02,-9.942168253473938e-05,9.444942406844348e-05,0.0,1000,1000,1000,1000,12600,0,0.002976412884891033,0.0028867416549474,0.002737260889261961,10,{}
normal_corridor_base_13,0,none,12914,0.00024127228243742138,3.702984031406231e-05,-0.14314784109592438,-35.3632621,149.1652374,0.0,0.0,0.0,-0.02,-9.942163160303608e-05,9.444935858482495e-05,0.0,1000,1000,1000,1000,12600,0,0.0025878408923745155,0.0027371575124561787,0.002753265667706728,10,{}
normal_corridor_base_13,0,none,13247,0.00024511656374670565,4.110855661565438e-05,-0.1309521198272705,-35.3632621,149.1652374,0.0,0.0,0.0,-0.02,-9.942163160303608e-05,9.444935858482495e-05,0.0,1000,1000,1000,1000,12600,0,0.00271989987231791,0.0027291278820484877,0.002705314429476857,10,{}
normal_corridor_base_13,0,none,13582,0.00026225121109746397,4.8781424993649125e-05,-0.11693251132965088,-35.3632621,149.1652374,0.0,0.0,0.0,-0.01,-9.942163160303608e-05,9.44493876886554e-05,0.0,1000,1000,1000,1000,12600,0,0.002721677999943495,0.0025206736754626036,0.002831336110830307,10,{}
normal_corridor_base_13,0,none,13914,0.00026948004961013794,5.7649525842862204e-05,-0.10781162232160568,-35.3632621,149.1652374,0.0,0.0,0.0,-0.01,-9.942155156750232e-05,9.444936586078256e-05,0.0,1000,1000,1000,1000,12600,0,0.002860699314624071,0.0027982587926089764,0.002697254531085491,10,{}
normal_corridor_base_13,0,none,14246,0.0002773671585600823,6.56584816169925e-05,-0.0999065414071083,-35.3632621,149.1652374,0.0,0.0,0.0,-0.01,-9.942155156750232e-05,9.444936586078256e-05,0.0,1000,1000,1000,1000,12600,0,0.0028319861739873886,0.00291455932892859,0.002939133206382394,10,{}
normal_corridor_base_13,0,none,14579,0.00029265458579175174,8.12550715636462e-05,-0.090910404920578,-35.3632621,149.1652374,0.0,0.0,0.0,-0.01,-9.942151518771425e-05,9.444934403290972e-05,0.0,1000,1000,1000,1000,12600,0,0.0030076559633016586,0.002912976546213031,0.002590418327599764,10,{}
normal_corridor_base_13,0,none,14914,0.0003021651937160641,9.355360816698521e-05,-0.08512380719184875,-35.3632621,149.1652374,0.0,0.0,0.0,-0.01,-9.942146425601095e-05,9.444929310120642e-05,0.0,1000,1000,1000,1000,12600,0,0.002902900567278266,0.0028261467814445496,0.0028417441062629223,10,{}
normal_corridor_base_13,0,none,15352,0.0003202961233910173,0.00010656270023901016,-0.07727712392807007,-35.3632621,149.1652374,0.0,0.0,0.0,-0.01,-9.942146425601095e-05,9.444929310120642e-05,0.0,1000,1000,1000,1000,12600,0,0.0026916449423879385,0.002702249912545085,0.0026672801468521357,10,{}
normal_corridor_base_13,0,none,15602,0.0003311962354928255,0.0001118296422646381,-0.07388365268707275,-35.3632621,149.1652374,0.0,0.0,0.0,-0.01,-9.942150063579902e-05,9.444935130886734e-05,0.0,1000,1000,1000,1000,12600,0,0.0026916449423879385,0.002702249912545085,0.0026672801468521357,10,{}
normal_corridor_base_13,0,none,15854,0.0003366611781530082,0.00012025694741168991,-0.07094002515077591,-35.3632621,149.1652374,0.0,0.0,0.0,0.0,-9.942148608388379e-05,9.444936586078256e-05,0.0,1000,1000,1000,1000,12600,0,0.0027463410515338182,0.0027875511441379786,0.0025867025833576918,10,{}
normal_corridor_base_13,0,none,16254,0.0003452042583376169,0.00012997495650779456,-0.06826519221067429,-35.3632621,149.1652374,0.0,0.0,0.0,0.0,-9.942147880792618e-05,9.444936586078256e-05,0.0,1000,1000,1000,1000,12600,0,0.002869691699743271,0.002785970689728856,0.002647893503308296,10,{}
normal_corridor_base_13,0,none,16586,0.0003638520138338208,0.00014320445188786834,-0.06417358666658401,-35.3632621,149.1652374,0.0,0.0,0.0,0.0,-9.942150791175663e-05,9.444938041269779e-05,0.0,1000,1000,1000,1000,12600,0,0.0031085845548659563,0.002815792104229331,0.0027286061085760593,10,{}
normal_corridor_base_13,0,none,16919,0.0003763569111470133,0.00015359913231804967,-0.062004681676626205,-35.3632621,149.1652374,0.0,0.0,0.0,0.0,-9.942147880792618e-05,9.444940224057063e-05,0.0,1000,1000,1000,1000,12600,0,0.002865777350962162,0.0028376190457493067,0.002775738248601556,10,{}
normal_corridor_base_13,0,none,17252,0.0003903138276655227,0.0001601037074578926,-0.060146648436784744,-35.3632621,149.1652374,0.0,0.0,0.0,0.0,-9.94214933598414e-05,9.444936586078256e-05,0.0,1000,1000,1000,1000,12600,0,0.002925122855231166,0.002977222204208374,0.0028551104478538036,10,{}
normal_corridor_base_13,0,none,17584,0.0004027424147352576,0.00017400854267179966,-0.058120936155319214,-35.3632621,149.1652374,0.0,0.0,0.0,0.0,-9.9421595223248e-05,9.444939496461302e-05,0.0,1000,1000,1000,1000,12600,0,0.00296124373562634,0.0027103577740490437,0.0030167517252266407,10,{}
normal_corridor_base_13,0,none,17919,0.00041744954069145024,0.00018805080617312342,-0.05688483268022537,-35.3632621,149.1652374,0.0,0.0,0.0,0.0,-9.942165343090892e-05,9.444936586078256e-05,0.0,1000,1000,1000,1000,12600,0,0.002817785833030939,0.002800537273287773,0.0025307456962764263,10,{}
normal_corridor_base_13,0,none,18251,0.0004270728095434606,0.00020470103481784463,-0.0558619387447834,-35.3632621,149.1652374,0.0,0.0,0.0,0.0,-9.942168253473938e-05,9.444936586078256e-05,0.0,1000,1000,1000,1000,12600,0,0.002815471962094307,0.0029619846027344465,0.002856997773051262,10,{}
normal_corridor_base_13,0,none,18584,0.00044296879786998034,0.00022028872626833618,-0.054770585149526596,-35.3632621,149.1652374,0.0,0.0,0.0,0.0,-9.942166070686653e-05,9.444932948099449e-05,0.0,1000,1000,1000,1000,12600,0,0.0027616608422249556,0.0030997339636087418,0.002953063230961561,10,{}
normal_corridor_base_13,0,none,18916,0.0004598126106429845,0.00023361794592346996,-0.054163478314876556,-35.3632621,149.1652374,0.0,0.0,0.0,0.0,-9.942166070686653e-05,9.444932948099449e-05,0.0,1000,1000,1000,1000,12600,0,0.003018074668943882,0.0028145345859229565,0.002857241779565811,10,{}
normal_corridor_base_13,0,none,19249,0.00047722464660182595,0.00024924997705966234,-0.053667087107896805,-35.3632621,149.1652374,0.0,0.0,0.0,0.0,-9.94216461549513e-05,9.444930765312165e-05,0.0,1000,1000,1000,1000,12600,0,0.0026763048954308033,0.0029934279154986143,0.0026998568791896105,10,{}
normal_corridor_base_13,0,none,19582,0.0004941592924296856,0.0002628302318044007,-0.05319015681743622,-35.3632621,149.1652374,0.0,0.0,0.0,0.0,-9.942161705112085e-05,9.444933675695211e-05,0.0,1000,1000,1000,1000,12600,0,0.0028453224804252386,0.002839728957042098,0.002742855343967676,10,{}
normal_corridor_base_13,0,none,19917,0.0005114254308864474,0.00027753724134527147,-0.052950114011764526,-35.3632621,149.1652374,0.0,0.0,0.0,0.0,-9.942161705112085e-05,9.444933675695211e-05,0.0,1000,1000,1000,1000,12600,0,0.0030314966570585966,0.002733111847192049,0.0028809455689042807,10,{}
normal_corridor_base_13,0,none,20249,0.0005297295283526182,0.00029753081616945565,-0.05264391750097275,-35.3632621,149.1652374,-0.006,0.0,0.0,0.0,-9.942170436261222e-05,9.444935858482495e-05,0.0,1000,1000,1000,1000,12600,0,0.00289059616625309,0.002816411666572094,0.0025918998289853334,10,{}
normal_corridor_base_13,0,none,20581,0.0005516737583093345,0.00031857157591730356,-0.05261782929301262,-35.3632621,149.1652374,-0.008,0.0,0.0,0.0,-9.942171891452745e-05,9.444938041269779e-05,0.0,1000,1000,1000,1000,12600,0,0.002630454022437334,0.0028242075350135565,0.0025320034474134445,10,{}
normal_corridor_base_13,0,none,20914,0.0005646563949994743,0.0003326911828480661,-0.052696794271469116,-35.3632621,149.1652374,-0.007,0.0,0.0,0.0,-9.942171891452745e-05,9.444938041269779e-05,0.0,1000,1000,1000,1000,12600,0,0.0028986805118620396,0.002791839186102152,0.003066639881581068,10,{}
normal_corridor_base_13,0,none,21247,0.000579498999286443,0.00034886933281086385,-0.052804283797740936,-35.3632621,149.1652374,-0.005,0.0,0.0,0.0,-9.942174074240029e-05,9.44493876886554e-05,0.0,1000,1000,1000,1000,12600,0,0.00295058055780828,0.0028669999446719885,0.002882125321775675,10,{}
normal_corridor_base_13,0,none,21582,0.0006016883417032659,0.00037150163552723825,-0.05306004732847214,-35.3632621,149.1652374,-0.004,0.0,0.0,0.0,-9.942177712218836e-05,9.444936586078256e-05,0.0,1000,1000,1000,1000,12600,0,0.0027588666416704655,0.002974015660583973,0.002747295191511512,10,{}
normal_corridor_base_13,0,none,21914,0.0006216289475560188,0.0003831785579677671,-0.053281523287296295,-35.3632621,149.1652374,-0.002,0.0,0.0,0.0,-9.942177712218836e-05,9.444936586078256e-05,0.0,1000,1000,1000,1000,12600,0,0.003025091951712966,0.0028569127898663282,0.002735767513513565,10,{}
normal_corridor_base_13,0,none,22246,0.0006398608675226569,0.0003998741740360856,-0.05356156453490257,-35.3632621,149.1652374,-0.001,0.0,0.01,0.0,-9.942180622601882e-05,9.444937313674018e-05,0.0,1000,1000,1000,1000,12600,0,0.0026951429899781942,0.002621200168505311,0.0027974615804851055,10,{}
normal_corridor_base_13,0,none,22579,0.0006622896180488169,0.0004278969718143344,-0.05396950989961624,-35.3632621,149.1652374,0.0,0.0,0.01,0.0,-9.942192264134064e-05,9.444946044823155e-05,0.0,1000,1000,1000,1000,12600,0,0.0028068104293197393,0.002668682485818863,0.0028233020566403866,10,{}
normal_corridor_base_13,0,none,22914,0.000682411715388298,0.0004471675492823124,-0.05432901158928871,-35.3632621,149.1652374,0.0,0.0,0.01,0.0,-9.942192264134064e-05,9.444946044823155e-05,0.0,1000,1000,1000,1000,12600,0,0.002701626857742667,0.0024876422248780727,0.003040469018742442,10,{}
normal_corridor_base_13,0,none,23246,0.000700302654877305,0.0004631167685147375,-0.05468033626675606,-35.3632621,149.1652374,0.001,-0.01,0.01,0.0,-9.942198084900156e-05,9.444947500014678e-05,0.0,1000,1000,1000,1000,12600,0,0.003209467278793454,0.00284433551132679,0.0027399519458413124,10,{}
normal_corridor_base_13,0,none,23579,0.0007192083867266774,0.0004872205026913434,-0.055233221501111984,-35.3632621,149.1652374,0.001,-0.01,0.01,0.0,-9.942186443367973e-05,9.444942406844348e-05,0.0,1000,1000,1000,1000,12600,0,0.0027533206157386303,0.00296085886657238,0.00256757321767509,10,{}
normal_corridor_base_13,0,none,23912,0.0007326476625166833,0.0005029186140745878,-0.05562663450837135,-35.3632621,149.1652374,0.002,-0.01,0.01,0.0,-9.942186443367973e-05,9.444942406844348e-05,0.0,1000,1000,1000,1000,12600,0,0.002421565819531679,0.002619642298668623,0.002781911054626107,10,{}
normal_corridor_base_13,0,none,24244,0.0007466261740773916,0.0005215610144659877,-0.05607164278626442,-35.3632621,149.1652374,0.002,-0.01,0.01,0.0,-9.942184260580689e-05,9.44493876886554e-05,0.0,1000,1000,1000,1000,12600,0,0.002634091302752495,0.002824542811140418,0.0025222317781299353,10,{}
normal_corridor_base_13,0,none,24579,0.0007637428352609277,0.0005402580718509853,-0.05664506182074547,-35.3632621,149.1652374,0.002,-0.01,0.01,0.0,-9.942189353751019e-05,9.444943134440109e-05,0.0,1000,1000,1000,1000,12600,0,0.002738551702350378,0.0028734789229929447,0.0028842331375926733,10,{}
normal_corridor_base_13,0,none,24911,0.0007821785984560847,0.0005562706501223147,-0.0570954903960228,-35.3632621,149.1652374,0.003,-0.01,0.01,0.0,-9.942189353751019e-05,9.444943134440109e-05,0.0,1000,1000,1000,1000,12600,0,0.0028247933369129896,0.002887091366574168,0.002759204711765051,10,{}
normal_corridor_base_13,0,none,25244,0.0007934356690384448,0.0005741631030105054,-0.05755084380507469,-35.3632621,149.1652374,0.003,-0.01,0.01,0.0,-9.942191536538303e-05,9.444949682801962e-05,0.0,1000,1000,1000,1000,12600,0,0.0027775748167186975,0.0027855788357555866,0.002793997758999467,10,{}
normal_corridor_base_13,0,none,25577,0.0008151362417265773,0.0005935339722782373,-0.05810471624135971,-35.3632621,149.1652374,0.003,-0.01,0.01,0.0,-9.942189353751019e-05,9.444951137993485e-05,0.0,1000,1000,1000,1000,12600,0,0.002681372221559286,0.002762367483228445,0.0027965016197413206,10,{}
normal_corridor_base_13,0,none,25909,0.0008264745702035725,0.0006103788036853075,-0.05851759761571884,-35.3632621,149.1652374,0.002,-0.01,0.01,0.0,-9.942189353751019e-05,9.444951137993485e-05,0.0,1000,1000,1000,1000,12600,0,0.0027351591270416975,0.003073715604841709,0.002861392218619585,10,{}
normal_corridor_base_13,0,none,26244,0.0008459053933620453,0.0006199969793669879,-0.05901353061199188,-35.3632621,149.1652374,0.002,-0.01,0.01,0.0,-9.942187898559496e-05,9.444946772418916e-05,0.0,1000,1000,1000,1000,12600,0,0.003026567632332444,0.002623867243528366,0.0030660326592624187,10,{}
normal_corridor_base_13,0,none,26576,0.0008635080885142088,0.0006294242339208722,-0.059670377522706985,-35.3632621,149.1652374,0.002,-0.01,0.01,0.0,-9.942191536538303e-05,9.44494386203587e-05,0.0,1000,1000,1000,1000,12600,0,0.002581625245511532,0.0026652587112039328,0.0028510463889688253,10,{}
normal_corridor_base_13,0,none,26909,0.0008727869717404246,0.000637850200291723,-0.0601612888276577,-35.3632621,149.1652374,0.002,-0.01,0.01,0.0,-9.942191536538303e-05,9.44494386203587e-05,0.0,1000,1000,1000,1000,12600,0,0.0026954750064760447,0.0027165571227669716,0.0026182569563388824,10,{}
normal_corridor_base_13,0,none,27241,0.0008873347542248666,0.0006516610155813396,-0.06066404655575752,-35.3632621,149.1652374,0.002,-0.01,0.01,0.0,-9.942195902112871e-05,9.444947500014678e-05,0.0,1000,1000,1000,1000,12600,0,0.002815525745972991,0.0030474471859633923,0.0027473203372210264,10,{}
normal_corridor_base_13,0,none,27574,0.0008997768745757639,0.0006599741755053401,-0.061350613832473755,-35.3632621,149.1652374,0.001,-0.01,0.01,0.0,-9.942193719325587e-05,9.444946772418916e-05,0.0,1000,1000,1000,1000,12600,0,0.0026626107282936573,0.0029079236555844545,0.0027039723936468363,10,{}
normal_corridor_base_13,0,none,27907,0.0009132451959885657,0.000674049777444452,-0.06182438135147095,-35.3632621,149.1652374,0.001,-0.01,0.01,0.0,-9.942193719325587e-05,9.444946772418916e-05,0.0,1000,1000,1000,1000,12600,0,0.00269013037905097,0.0027749070432037115,0.0029431660659611225,10,{}
normal_corridor_base_13,0,none,28242,0.0009213026496581733,0.0006864581955596805,-0.06231053173542023,-35.3632621,149.1652374,0.001,-0.01,0.01,0.0,-9.942200995283201e-05,9.444954775972292e-05,0.0,1000,1000,1000,1000,12600,0,0.002830095821991563,0.0029565903823822737,0.0026123689021915197,10,{}
normal_corridor_base_13,0,none,28574,0.0009368658647872508,0.0007025126251392066,-0.06297435611486435,-35.3632621,149.1652374,0.0,-0.01,0.01,0.0,-9.94220536085777e-05,9.444957686355338e-05,0.0,1000,1000,1000,1000,12600,0,0.002613343996927142,0.0026726694777607918,0.0027227168902754784,10,{}
normal_corridor_base_13,0,none,28906,0.0009471651283092797,0.0007169020245783031,-0.06345482915639877,-35.3632621,149.1652374,0.0,-0.01,0.01,0.0,-9.94220536085777e-05,9.444957686355338e-05,0.0,1000,1000,1000,1000,12600,0,0.002917984966188669,0.0029105881694704294,0.0025409571826457977,10,{}
normal_corridor_base_13,0,none,29239,0.000958783261012286,0.0007334043621085584,-0.06393694132566452,-35.3632621,149.1652374,0.0,-0.01,0.01,0.0,-9.942218457581475e-05,9.444967145100236e-05,0.0,1000,1000,1000,1000,12600,0,0.0029204024467617273,0.002529372461140156,0.002663347404450178,10,{}
normal_corridor_base_13,0,none,29572,0.0009751467150636017,0.0007434585131704807,-0.06455554813146591,-35.3632621,149.1652374,0.0,-0.01,0.01,0.0,-9.942228643922135e-05,9.44496932788752e-05,0.0,1000,1000,1000,1000,12600,0,0.002894270233809948,0.002806775737553835,0.002690123626962304,10,{}
normal_corridor_base_13,0,none,29907,0.0009878681739792228,0.0007564657717011869,-0.06504258513450623,-35.3632621,149.1652374,0.0,-0.01,0.02,0.0,-9.942228643922135e-05,9.44496932788752e-05,0.0,1000,1000,1000,1000,12600,0,0.0026739283930510283,0.0028335396200418472,0.0029003198724240065,10,{}
normal_corridor_base_13,0,none,30352,0.0009988810634240508,0.0007762580644339323,-0.06582269817590714,-35.3632621,149.1652374,-0.001,-0.01,0.02,0.0,-9.942236647475511e-05,9.444977331440896e-05,0.0,1000,1000,1000,1000,12600,0,0.002702143741771579,0.002893122611567378,0.002731258049607277,10,{}
normal_corridor_base_13,0,none,30604,0.0009988810634240508,0.0007762580644339323,-0.06582269817590714,-35.3632621,149.1652374,-0.001,-0.01,0.02,0.0,-9.942238102667034e-05,9.44497951422818e-05,0.0,1000,1000,1000,1000,12600,0,0.0028912292327731848,0.0026727893855422735,0.002809150842949748,10,{}
normal_corridor_base_13,0,none,30854,0.0010126048000529408,0.0007888980908319354,-0.06657411903142929,-35.3632621,149.1652374,-0.001,-0.01,0.02,0.0,-9.942244651028886e-05,9.444986062590033e-05,0.0,1000,1000,1000,1000,12600,0,0.002649520756676793,0.002705460647121072,0.0029449232388287783,10,{}
normal_corridor_base_13,0,none,31104,0.0010159077355638146,0.0007932847365736961,-0.06687667965888977,-35.3632621,149.1652374,-0.002,-0.01,0.02,0.0,-9.942250471794978e-05,9.444988972973078e-05,0.0,1000,1000,1000,1000,12600,0,0.0026380515191704035,0.0026918735820800066,0.0029353960417211056,10,{}
normal_corridor_base_13,0,none,31354,0.0010301554575562477,0.0007988509023562074,-0.06732474267482758,-35.3632621,149.1652374,-0.002,-0.01,0.02,0.0,-9.942250471794978e-05,9.444991883356124e-05,0.0,1000,1000,1000,1000,12600,0,0.002714283997192979,0.0029571945779025555,0.0028449641540646553,10,{}
normal_corridor_base_13,0,none,31602,0.0010363091714680195,0.0008043480338528752,-0.06762232631444931,-35.3632621,149.1652374,-0.002,-0.01,0.02,0.0,-9.942253382178023e-05,9.444995521334931e-05,0.0,1000,1000,1000,1000,12600,0,0.002871585311368108,0.002759430557489395,0.002892202464863658,10,{}
normal_corridor_base_13,0,none,31852,0.0010430477559566498,0.0008082006243057549,-0.06798524409532547,-35.3632621,149.1652374,-0.003,-0.01,0.02,0.0,-9.942251199390739e-05,9.444992610951886e-05,0.0,1000,1000,1000,1000,12600,0,0.0028606064151972532,0.003124406561255455,0.002567918971180916,10,{}
normal_corridor_base_13,0,none,32102,0.0010435042204335332,0.0008108944748528302,-0.06829271465539932,-35.3632621,149.1652374,-0.003,-0.01,0.02,0.0,-9.942249016603455e-05,9.444988972973078e-05,0.0,1000,1000,1000,1000,12600,0,0.0029866781551390886,0.0028969356790184975,0.002745127771049738,10,{}
normal_corridor_base_13,0,none,32352,0.001054968568496406,0.0008190538501366973,-0.06872183084487915,-35.3632621,149.1652374,-0.003,-0.01,0.02,0.0,-9.942246833816171e-05,9.444992610951886e-05,0.0,1000,1000,1000,1000,12600,0,0.0029866781551390886,0.0028969356790184975,0.002745127771049738,10,{}
normal_corridor_base_13,0,none,32604,0.0010616193758323789,0.0008242976618930697,-0.06903468817472458,-35.3632621,149.1652374,-0.003,-0.01,0.02,0.0,-9.942246833816171e-05,9.444995521334931e-05,0.0,1000,1000,1000,1000,12600,0,0.002683835569769144,0.0026950398460030556,0.0030262796208262444,10,{}
normal_corridor_base_13,0,none,32854,0.0010681115090847015,0.0008406415581703186,-0.06945914775133133,-35.3632621,149.1652374,-0.004,-0.01,0.02,0.0,-9.942246833816171e-05,9.444995521334931e-05,0.0,1000,1000,1000,1000,12600,0,0.0026551131159067154,0.002578417072072625,0.002885910216718912,10,{}
normal_corridor_base_13,0,none,33104,0.0010737383272498846,0.0008456860086880624,-0.0697445496916771,-35.3632621,149.1652374,-0.004,-0.01,0.02,0.0,-9.942253382178023e-05,9.444992610951886e-05,0.0,1000,1000,1000,1000,12600,0,0.0026569052133709192,0.0026757537852972746,0.002672051079571247,10,{}
normal_corridor_base_13,0,none,33354,0.0010887292446568608,0.0008581726578995585,-0.07016995549201965,-35.3632621,149.1652374,-0.004,-0.01,0.02,0.0,-9.942253382178023e-05,9.444992610951886e-05,0.0,1000,1000,1000,1000,12600,0,0.0026569052133709192,0.0026757537852972746,0.002672051079571247,10,{}
normal_corridor_base_13,0,none,33762,0.0011068646563217044,0.0008717779419384897,-0.07074185460805893,-35.3632621,149.1652374,-0.004,-0.01,0.02,0.0,-9.942255564965308e-05,9.444993338547647e-05,0.0,1000,1000,1000,1000,12600,0,0.003123515285551548,0.0028532231226563454,0.0027558912988752127,10,{}
normal_corridor_base_13,0,none,34097,0.001117266365326941,0.0008762775105424225,-0.07116924226284027,-35.3632621,149.1652374,-0.005,-0.02,0.02,0.0,-9.942250471794978e-05,9.444995521334931e-05,0.0,1000,1000,1000,1000,12600,0,0.0026519543025642633,0.00287467404268682,0.002852760022506118,10,{}
normal_corridor_base_13,0,none,34429,0.001120996312238276,0.0008884402923285961,-0.07157198339700699,-35.3632621,149.1652374,-0.005,-0.02,0.02,0.0,-9.942246833816171e-05,9.445000614505261e-05,0.0,1000,1000,1000,1000,12600,0,0.0026476760394871235,0.00269123911857605,0.0026281611062586308,10,{}
normal_corridor_base_13,0,none,34761,0.0011350363492965698,0.0009063024772331119,-0.07210759073495865,-35.3632621,149.1652374,-0.005,-0.02,0.02,0.0,-9.942246833816171e-05,9.445000614505261e-05,0.0,1000,1000,1000,1000,12600,0,0.0029015671461820602,0.0027535236440598965,0.0029253927059471607,10,{}
normal_corridor_base_13,0,none,35094,0.001146406983025372,0.0009183713118545711,-0.07250130921602249,-35.3632621,149.1652374,-0.005,-0.02,0.02,0.0,-9.942237375071272e-05,9.444997704122216e-05,0.0,1000,1000,1000,1000,12600,0,0.0028430356178432703,0.0029932737816125154,0.0027085694018751383,10,{}
normal_corridor_base_13,0,none,35429,0.0011514698853716254,0.000928748631849885,-0.0728938952088356,-35.3632621,149.1652374,-0.005,-0.02,0.02,0.0,-9.942231554305181e-05,9.444992610951886e-05,0.0,1000,1000,1000,1000,12600,0,0.0025255398359149694,0.0027807645965367556,0.002468856517225504,10,{}
normal_corridor_base_13,0,none,35761,0.0011626548366621137,0.0009317022049799562,-0.0734221562743187,-35.3632621,149.1652374,-0.005,-0.02,0.02,0.0,-9.942231554305181e-05,9.444992610951886e-05,0.0,1000,1000,1000,1000,12600,0,0.002700079930946231,0.0028356679249554873,0.002786333439871669,10,{}
normal_corridor_base_13,0,none,36094,0.0011664534686133265,0.000938438402954489,-0.07373952865600586,-35.3632621,149.1652374,-0.005,-0.02,0.02,0.0,-9.942233009496704e-05,9.444993338547647e-05,0.0,1000,1000,1000,1000,12600,0,0.0027888917829841375,0.002734640846028924,0.002816367894411087,10,{}
normal_corridor_base_13,0,none,36427,0.0011753212893381715,0.0009507669019512832,-0.07410271465778351,-35.3632621,149.1652374,-0.005,-0.02,0.02,0.0,-9.94223082670942e-05,9.44498970056884e-05,0.0,1000,1000,1000,1000,12600,0,0.003076266497373581,0.0028165634721517563,0.002890896052122116,10,{}
normal_corridor_base_13,0,none,36759,0.0011849862057715654,0.0009703426039777696,-0.07461565732955933,-35.3632621,149.1652374,-0.005,-0.02,0.02,0.0,-9.94223082670942e-05,9.44498970056884e-05,0.0,1000,1000,1000,1000,12600,0,0.002763701369985938,0.00272600376047194,0.002891866723075509,10,{}
normal_corridor_base_13,0,none,37094,0.0011960637057200074,0.0009856339311227202,-0.0749674141407013,-35.3632621,149.1652374,-0.005,-0.02,0.02,0.0,-9.942233737092465e-05,9.44498970056884e-05,0.0,1000,1000,1000,1000,12600,0,0.00275614345446229,0.0027387323789298534,0.0027661968488246202,10,{}
normal_corridor_base_13,0,none,37426,0.001204916974529624,0.000998032744973898,-0.07533354312181473,-35.3632621,149.1652374,-0.005,-0.02,0.02,0.0,-9.942233737092465e-05,9.444986790185794e-05,0.0,1000,1000,1000,1000,12600,0,0.002934136660769582,0.0029310358222573996,0.0026315252762287855,10,{}
normal_corridor_base_13,0,none,37759,0.0012128917733207345,0.0010107269044965506,-0.07581054419279099,-35.3632621,149.1652374,-0.005,-0.02,0.02,0.0,-9.942233737092465e-05,9.444986790185794e-05,0.0,1000,1000,1000,1000,12600,0,0.003031826578080654,0.00290522794239223,0.002664240077137947,10,{}
normal_corridor_base_13,0,none,38092,0.0012158291647210717,0.0010275088716298342,-0.0761779248714447,-35.3632621,149.1652374,-0.006,-0.02,0.02,0.0,-9.942235192283988e-05,9.444986790185794e-05,0.0,1000,1000,1000,1000,12600,0,0.003048646729439497,0.0026938265655189753,0.0024579940363764763,10,{}
normal_corridor_base_13,0,none,38424,0.0012288996949791908,0.0010376018472015858,-0.07652753591537476,-35.3632621,149.1652374,-0.006,-0.02,0.02,0.0,-9.942232281900942e-05,9.444986062590033e-05,0.0,1000,1000,1000,1000,12600,0,0.003130180761218071,0.0030486625619232655,0.0029738673474639654,10,{}
normal_corridor_base_13,0,none,38759,0.0012429377529770136,0.0010433695279061794,-0.0769866406917572,-35.3632621,149.1652374,-0.006,-0.02,0.02,0.0,-9.942232281900942e-05,9.444986062590033e-05,0.0,1000,1000,1000,1000,12600,0,0.0026306004729121923,0.002897199708968401,0.0027910431381314993,10,{}
normal_corridor_base_13,0,none,39091,0.0012479637516662478,0.001063439529389143,-0.07733268290758133,-35.3632621,149.1652374,-0.006,-0.02,0.02,0.0,-9.942229371517897e-05,9.444986790185794e-05,0.0,1000,1000,1000,1000,12600,0,0.0030262554064393044,0.003122102003544569,0.002683674218133092,10,{}
normal_corridor_base_13,0,none,39424,0.0012512626126408577,0.001065355958417058,-0.077674001455307,-35.3632621,149.1652374,-0.006,-0.02,0.02,0.0,-9.942226461134851e-05,9.444988972973078e-05,0.0,1000,1000,1000,1000,12600,0,0.0027249983977526426,0.002614710247144103,0.0026505275163799524,10,{}
normal_corridor_base_13,0,none,39756,0.0012549803359434009,0.0010755518451333046,-0.07811141759157181,-35.3632621,149.1652374,-0.006,-0.02,0.02,0.0,-9.942226461134851e-05,9.444988972973078e-05,0.0,1000,1000,1000,1000,12600,0,0.002667311578989029,0.002916359342634678,0.0025199775118380785,10,{}
normal_corridor_base_13,0,none,40089,0.0012612134451046586,0.0010760993463918567,-0.07845137268304825,-35.3632621,149.1652374,-0.006,-0.02,0.02,0.0,-9.942229371517897e-05,9.444991155760363e-05,0.0,1000,1000,1000,1000,12600,0,0.002668251283466816,0.0028706334996968508,0.002583472291007638,10,{}
normal_corridor_base_13,0,none,40422,0.0012706801062449813,0.0010900371707975864,-0.07875994592905045,-35.3632621,149.1652374,-0.006,-0.02,0.02,0.0,-9.942227188730612e-05,9.444994066143408e-05,0.0,1000,1000,1000,1000,12600,0,0.0026902148965746164,0.002757733454927802,0.0029438415076583624,10,{}
normal_corridor_base_13,0,none,40757,0.0012793265050277114,0.001095459796488285,-0.07917842268943787,-35.3632621,149.1652374,-0.006,-0.02,0.02,0.0,-9.942227188730612e-05,9.444994066143408e-05,0.0,1000,1000,1000,1000,12600,0,0.0028131543658673763,0.002925125416368246,0.002780621638521552,10,{}
normal_corridor_base_13,0,none,41089,0.0012862489093095064,0.0011012250324711204,-0.07943057268857956,-35.3632621,149.1652374,-0.006,-0.02,0.02,0.0,-9.942227188730612e-05,9.444994066143408e-05,0.0,1000,1000,1000,1000,12600,0,0.002760396571829915,0.002741570118814707,0.002757009584456682,10,{}
normal_corridor_base_13,0,none,41421,0.0012940638698637486,0.0011128000915050507,-0.079737089574337,-35.3632621,149.1652374,-0.006,-0.02,0.02,0.0,-9.942230099113658e-05,9.444990428164601e-05,0.0,1000,1000,1000,1000,12600,0,0.002711486304178834,0.0031399880535900593,0.0028409038204699755,10,{}
normal_corridor_base_13,0,none,41754,0.0013106070691719651,0.0011348113184794784,-0.08014146983623505,-35.3632621,149.1652374,-0.006,0.0,0.0,0.0,-9.942230099113658e-05,9.444990428164601e-05,0.0,1000,1000,1000,1000,12600,0,0.00270401150919497,0.003005407052114606,0.0029613033402711153,10,{}
normal_corridor_base_13,0,none,42087,0.0013829994713887572,0.0012018074048683047,-0.08044131100177765,-35.3632621,149.1652374,-0.006,0.0,0.0,0.0,-9.942232281900942e-05,9.444991155760363e-05,0.0,1000,1000,1000,1000,12600,0,0.002743273274973035,0.002699795877560973,0.0027409722097218037,10,{}
normal_corridor_base_13,0,none,42422,0.001455890480428934,0.0012778573436662555,-0.08075662702322006,-35.3632621,149.1652374,-0.006,0.0,0.0,0.0,-9.942227916326374e-05,9.444992610951886e-05,0.0,1000,1000,1000,1000,12600,0,0.003045362187549472,0.0029170773923397064,0.002715658862143755,10,{}
normal_corridor_base_13,0,none,42754,0.001538033946417272,0.001361457514576614,-0.08115526288747787,-35.3632621,149.1652374,-0.006,0.0,0.0,0.0,-9.942227916326374e-05,9.444992610951886e-05,0.0,1000,1000,1000,1000,12600,0,0.0026637334376573563,0.0025790168438106775,0.0024678667541593313,10,{}
normal_corridor_base_13,0,none,43086,0.0015981150791049004,0.0014194929972290993,-0.08146229386329651,-35.3632621,149.1652374,-0.006,-0.01,0.01,0.0,-9.94223082670942e-05,9.444992610951886e-05,0.0,1000,1000,1000,1000,12600,0,0.002733021043241024,0.0028868853114545345,0.0027894636150449514,10,{}
normal_corridor_base_13,0,none,43419,0.0016348798526450992,0.0014507633168250322,-0.08177464455366135,-35.3632621,149.1652374,-0.006,-0.01,0.01,0.0,-9.942233009496704e-05,9.444986062590033e-05,0.0,1000,1000,1000,1000,12600,0,0.002576817525550723,0.003176544327288866,0.0027933428063988686,10,{}
normal_corridor_base_13,0,none,43754,0.0016597450012341142,0.001471510506235063,-0.08217804878950119,-35.3632621,149.1652374,-0.006,-0.01,0.01,0.0,-9.942233009496704e-05,9.444986062590033e-05,0.0,1000,1000,1000,1000,12600,0,0.0026445691473782063,0.0028707177843898535,0.00274306396022439,10,{}
normal_corridor_base_13,0,none,44086,0.001658120658248663,0.0014767374377697706,-0.0824887678027153,-35.3632621,149.1652374,-0.006,-0.01,0.01,0.0,-9.942239557858557e-05,9.44498970056884e-05,0.0,1000,1000,1000,1000,12600,0,0.0027934378013014793,0.003053870517760515,0.0028891151305288076,10,{}
normal_corridor_base_13,0,none,44419,0.0016331131337210536,0.001450283802114427,-0.08278544247150421,-35.3632621,149.1652375,-0.006,-0.01,0.01,0.0,-9.942240285454318e-05,9.44498970056884e-05,0.0,1000,1000,1000,1000,12600,0,0.0027719982899725437,0.003066358854994178,0.002798953326418996,10,{}
normal_corridor_base_13,0,none,44752,0.0015873690135776997,0.0014002305688336492,-0.08315740525722504,-35.3632621,149.1652375,-0.006,-0.01,0.02,0.0,-9.942240285454318e-05,9.44498970056884e-05,0.0,1000,1000,1000,1000,12600,0,0.0030384520068764687,0.0026971683837473392,0.0026642782613635063,10,{}
normal_corridor_base_13,0,none,45084,0.0015390244079753757,0.0013567284913733602,-0.08344098925590515,-35.3632621,149.1652375,-0.006,-0.01,0.02,0.0,-9.94223082670942e-05,9.444983152206987e-05,0.0,1000,1000,1000,1000,12600,0,0.0028182845562696457,0.0027837492525577545,0.0029188122134655714,10,{}
normal_corridor_base_13,0,none,45354,0.0014804797247052193,0.0012993920827284455,-0.08371040970087051,-35.3632621,149.1652375,-0.006,-0.01,0.02,0.0,-9.94223082670942e-05,9.444983152206987e-05,0.0,1000,1000,1000,1000,12600,0,0.0026632556691765785,0.002734146313741803,0.002825269242748618,10,{}
normal_corridor_base_13,0,none,45604,0.0014411400770768523,0.0012627006508409977,-0.0839231014251709,-35.3632622,149.1652375,-0.006,-0.01,0.02,0.0,-9.942233737092465e-05,9.444988972973078e-05,0.0,1000,1000,1000,1000,12600,0,0.0026632556691765785,0.002734146313741803,0.002825269242748618,10,{}
normal_corridor_base_13,0,none,45854,0.0013846403453499079,0.0012035705149173737,-0.08412586897611618,-35.3632622,149.1652375,-0.006,-0.01,0.02,0.0,-9.942232281900942e-05,9.444987517781556e-05,0.0,1000,1000,1000,1000,12600,0,0.0030863878782838583,0.0027566668577492237,0.002908692229539156,10,{}
normal_corridor_base_13,0,none,46104,0.0013428085949271917,0.001158235245384276,-0.08433030545711517,-35.3632622,149.1652375,-0.006,-0.01,0.01,0.0,-9.942230099113658e-05,9.444988245377317e-05,0.0,1000,1000,1000,1000,12600,0,0.002984887221828103,0.0028086963575333357,0.0028126961551606655,10,{}
normal_corridor_base_13,0,none,46352,0.0013025023508816957,0.0011123078875243664,-0.08450182527303696,-35.3632622,149.1652375,-0.006,-0.01,0.01,0.0,-9.942228643922135e-05,9.444988245377317e-05,0.0,1000,1000,1000,1000,12600,0,0.00257099443115294,0.002707461826503277,0.0028636532370001078,10,{}
normal_corridor_base_13,0,none,46602,0.0012772622285410762,0.0010922300862148404,-0.08466111123561859,-35.3632622,149.1652375,-0.006,-0.01,0.01,0.0,-9.942232281900942e-05,9.444991155760363e-05,0.0,1000,1000,1000,1000,12600,0,0.00264216517098248,0.002815608400851488,0.002646306762471795,10,{}
normal_corridor_base_13,0,none,46852,0.0012309965677559376,0.001052438747137785,-0.08486385643482208,-35.3632621,149.1652375,-0.006,-0.01,0.01,0.0,-9.942226461134851e-05,9.444991155760363e-05,0.0,1000,1000,1000,1000,12600,0,0.0029707022476941347,0.002645723056048155,0.0024611451663076878,10,{}
normal_corridor_base_13,0,none,47104,0.0011975904926657677,0.001022713491693139,-0.08504047244787216,-35.3632621,149.1652375,-0.006,-0.01,0.01,0.0,-9.942225005943328e-05,9.444992610951886e-05,0.0,1000,1000,1000,1000,12600,0,0.0028023007325828075,0.002653572941198945,0.002382361562922597,10,{}
normal_corridor_base_13,0,none,47354,0.0011719116009771824,0.001000384334474802,-0.08522963523864746,-35.3632621,149.1652375,-0.006,-0.01,0.01,0.0,-9.942221367964521e-05,9.44498970056884e-05,0.0,1000,1000,1000,1000,12600,0,0.00298507884144783,0.0028518245089799166,0.0027925963513553143,10,{}
normal_corridor_base_13,0,none,47604,0.0011588070774450898,0.000987262581475079,-0.08539555966854095,-35.3632621,149.1652375,-0.006,-0.01,0.01,0.0,-9.942217729985714e-05,9.444986062590033e-05,0.0,1000,1000,1000,1000,12600,0,0.0027651889249682426,0.00278066867031157,0.002833001781255007,10,{}
normal_corridor_base_13,0,none,47854,0.001132429693825543,0.0009647379629313946,-0.08558318018913269,-35.3632621,149.1652375,-0.006,-0.01,0.01,0.0,-9.942214819602668e-05,9.444982424611226e-05,0.0,1000,1000,1000,1000,12600,0,0.0028726437594741583,0.002711338922381401,0.0027382494881749153,10,{}
normal_corridor_base_13,0,none,48104,0.0011169440113008022,0.0009482037858106196,-0.08573798090219498,-35.3632621,149.1652375,-0.006,-0.01,0.01,0.0,-9.942211909219623e-05,9.444982424611226e-05,0.0,1000,1000,1000,1000,12600,0,0.0030948978383094072,0.0027696487959474325,0.002795629668980837,10,{}
normal_corridor_base_13,0,none,48352,0.0011059866519644856,0.0009370085899718106,-0.08592329174280167,-35.3632621,149.1652375,-0.006,-0.01,0.01,0.0,-9.9422104540281e-05,9.444980969419703e-05,0.0,1000,1000,1000,1000,12600,0,0.0026993537321686745,0.0029867307748645544,0.002863135654479265,10,{}
normal_corridor_base_13,0,none,48602,0.001099247019737959,0.0009307488217018545,-0.0860808938741684,-35.3632621,149.1652375,-0.006,-0.01,0.01,0.0,-9.942207543645054e-05,9.444980969419703e-05,0.0,1000,1000,1000,1000,12600,0,0.0028912005946040154,0.0027307234704494476,0.002998277312144637,10,{}
normal_corridor_base_13,0,none,48852,0.0010890064295381308,0.0009223561501130462,-0.08624280244112015,-35.3632621,149.1652375,-0.006,-0.01,0.01,0.0,-9.942206816049293e-05,9.444978786632419e-05,0.0,1000,1000,1000,1000,12600,0,0.002841594396159053,0.003061505500227213,0.0027512952219694853,10,{}
normal_corridor_base_13,0,none,49102,0.0010843920754268765,0.0009158637840300798,-0.08640726655721664,-35.3632621,149.1652375,-0.006,-0.01,0.01,0.0,-9.942202450474724e-05,9.444976603845134e-05,0.0,1000,1000,1000,1000,12600,0,0.0028043596539646387,0.0031085521914064884,0.0027516770642250776,10,{}
normal_corridor_base_13,0,none,49354,0.0010827458463609219,0.0009113935520872474,-0.08656544238328934,-35.3632621,149.1652375,-0.006,-0.01,0.01,0.0,-9.942195902112871e-05,9.444973693462089e-05,0.0,1000,1000,1000,1000,12600,0,0.002732842927798629,0.0026489251758903265,0.002798243658617139,10,{}
normal_corridor_base_13,0,none,49604,0.001083318260498345,0.0009119200403802097,-0.08671832084655762,-35.3632621,149.1652375,-0.006,-0.01,0.01,0.0,-9.942197357304394e-05,9.444972238270566e-05,0.0,1000,1000,1000,1000,12600,0,0.002705017104744911,0.0028584597166627645,0.002694720169529319,10,{}
normal_corridor_base_13,0,none,49854,0.0010778730502352118,0.0009135783184319735,-0.08688031882047653,-35.3632621,149.1652375,-0.006,-0.01,0.01,0.0,-9.942198812495917e-05,9.444972238270566e-05,0.0,1000,1000,1000,1000,12600,0,0.0026668154168874025,0.002837886568158865,0.002634619129821658,10,{}
normal_corridor_base_13,0,none,50104,0.001077523222193122,0.0009146906668320298,-0.08703603595495224,-35.3632621,149.1652375,-0.006,-0.01,0.01,0.0,-9.942198812495917e-05,9.444970055483282e-05,0.0,1000,1000,1000,1000,12600,0,0.0028905768413096666,0.0027850077021867037,0.0027597155421972275,10,{}
normal_corridor_base_13,0,none,50352,0.001080704852938652,0.0009156184969469905,-0.08718600124120712,-35.3632621,149.1652375,-0.006,-0.01,0.01,0.0,-9.94219517451711e-05,9.444964962312952e-05,0.0,1000,1000,1000,1000,12600,0,0.0024053682573139668,0.002637889701873064,0.002970012603327632,10,{}
normal_corridor_base_13,0,none,50602,0.0010835247812792659,0.0009137835004366934,-0.08734474331140518,-35.3632621,149.1652375,-0.006,-0.01,0.01,0.0,-9.942196629708633e-05,9.444961324334145e-05,0.0,1000,1000,1000,1000,12600,0,0.002823560731485486,0.003015998052433133,0.002757385838776827,10,{}
normal_corridor_base_13,0,none,50852,0.001085303258150816,0.0009118804591707885,-0.08749375492334366,-35.3632621,149.1652375,-0.006,-0.01,0.01,0.0,-9.942192991729826e-05,9.444955503568053e-05,0.0,1000,1000,1000,1000,12600,0,0.002834909362718463,0.003081076079979539,0.0029645063914358616,10,{}
normal_corridor_base_13,0,none,51102,0.0010853878920897841,0.0009120735921896994,-0.08763807266950607,-35.3632621,149.1652375,-0.006,-0.01,0.01,0.0,-9.942192264134064e-05,9.444954775972292e-05,0.0,1000,1000,1000,1000,12600,0,0.0026799850165843964,0.00263270759023726,0.0027050108183175325,10,{}
normal_corridor_base_13,0,none,51354,0.0010858133900910616,0.0009175768354907632,-0.08778438717126846,-35.3632621,149.1652375,-0.006,-0.01,0.01,0.0,-9.942189353751019e-05,9.444951865589246e-05,0.0,1000,1000,1000,1000,12600,0,0.0029122401028871536,0.0027383274864405394,0.0025523535441607237,10,{}
normal_corridor_base_13,0,none,51604,0.0010916340397670865,0.0009184255613945425,-0.08792717009782791,-35.3632621,149.1652375,-0.006,-0.01,0.01,0.0,-9.942188626155257e-05,9.444950410397723e-05,0.0,1000,1000,1000,1000,12600,0,0.002893341239541769,0.0029222385492175817,0.0029246697667986155,10,{}
normal_corridor_base_13,0,none,51854,0.0010946730617433786,0.0009140240726992488,-0.08806680142879486,-35.3632621,149.1652375,-0.006,-0.01,0.01,0.0,-9.942190808942541e-05,9.444951865589246e-05,0.0,1000,1000,1000,1000,12600,0,0.002978250617161393,0.002636110410094261,0.0029025685507804155,10,{}
normal_corridor_base_13,0,none,52104,0.001099464832805097,0.0009063141187652946,-0.08821365237236023,-35.3632621,149.1652375,-0.006,-0.01,0.01,0.0,-9.94219008134678e-05,9.4449489552062e-05,0.0,1000,1000,1000,1000,12600,0,0.002980356104671955,0.0025234532076865435,0.0028609002474695444,10,{}
normal_corridor_base_13,0,none,52354,0.0011040210956707597,0.0009052871610037982,-0.08834532648324966,-35.3632621,149.1652375,-0.006,-0.01,0.01,0.0,-9.942187898559496e-05,9.4449489552062e-05,0.0,1000,1000,1000,1000,12600,0,0.0027319409418851137,0.002879194915294647,0.0028401061426848173,10,{}
normal_corridor_base_13,0,none,52602,0.001108131487853825,0.0009157033637166023,-0.08845441788434982,-35.3632621,149.1652375,-0.006,-0.01,0.01,0.0,-9.942186443367973e-05,9.444945317227393e-05,0.0,1000,1000,1000,1000,12600,0,0.003151178127154708,0.0027405773289501667,0.002797189634293318,10,{}
normal_corridor_base_13,0,none,52852,0.0011104063596576452,0.0009180120541714132,-0.08859742432832718,-35.3632621,149.1652375,-0.006,-0.01,0.01,0.0,-9.942183532984927e-05,9.444941679248586e-05,0.0,1000,1000,1000,1000,12600,0,0.002935736207291484,0.0030668750405311584,0.002910713432356715,10,{}
normal_corridor_base_13,0,none,53102,0.0011100290575996041,0.0009140246547758579,-0.08872392773628235,-35.3632621,149.1652375,-0.006,-0.01,0.01,0.0,-9.942186443367973e-05,9.444943134440109e-05,0.0,1000,1000,1000,1000,12600,0,0.0027094644028693438,0.0028501420747488737,0.002694841008633375,10,{}
normal_corridor_base_13,0,none,53354,0.0011169607751071453,0.0009218837949447334,-0.08887330442667007,-35.3632621,149.1652375,-0.006,-0.01,0.01,0.0,-9.942185715772212e-05,9.444944589631632e-05,0.0,1000,1000,1000,1000,12600,0,0.0027912037912756205,0.0025407737120985985,0.0025785721372812986,10,{}
normal_corridor_base_13,0,none,53604,0.0011289530666545033,0.0009298947406932712,-0.08899985998868942,-35.3632621,149.1652375,-0.006,-0.01,0.01,0.0,-9.942184260580689e-05,9.444943134440109e-05,0.0,1000,1000,1000,1000,12600,0,0.0027636028826236725,0.003063402371481061,0.0027509357314556837,10,{}
normal_corridor_base_13,0,none,53854,0.0011316254967823625,0.0009272624738514423,-0.08913362771272659,-35.3632621,149.1652375,-0.006,-0.01,0.01,0.0,-9.942180622601882e-05,9.444941679248586e-05,0.0,1000,1000,1000,1000,12600,0,0.002527629490941763,0.002687640953809023,0.002939477562904358,10,{}
normal_corridor_base_13,0,none,54104,0.0011331761488690972,0.000935543270315975,-0.08926473557949066,-35.3632621,149.1652375,-0.006,-0.01,0.01,0.0,-9.942177712218836e-05,9.444940951652825e-05,0.0,1000,1000,1000,1000,12600,0,0.003024512203410268,0.0028088903054594994,0.00287444656714797,10,{}
normal_corridor_base_13,0,none,54354,0.0011349148117005825,0.000939006800763309,-0.08939656615257263,-35.3632621,149.1652375,-0.006,-0.01,0.01,0.0,-9.94217480183579e-05,9.444936586078256e-05,0.0,1000,1000,1000,1000,12600,0,0.0028915447182953358,0.00294332392513752,0.0030009583570063114,10,{}
normal_corridor_base_13,0,none,54602,0.0011444736737757921,0.000948312459513545,-0.08951593935489655,-35.3632621,149.1652375,-0.006,-0.01,0.01,0.0,-9.942172619048506e-05,9.444937313674018e-05,0.0,1000,1000,1000,1000,12600,0,0.00264536845497787,0.0027557071298360825,0.002671495545655489,10,{}
normal_corridor_base_13,0,none,54852,0.0011443330440670252,0.0009473909740336239,-0.08964529633522034,-35.3632621,149.1652375,-0.006,-0.01,0.01,0.0,-9.942174074240029e-05,9.444934403290972e-05,0.0,1000,1000,1000,1000,12600,0,0.003174790646880865,0.0029127050656825304,0.0029006493277847767,10,{}
normal_corridor_base_13,0,none,55102,0.0011466871947050095,0.0009494174737483263,-0.08976775407791138,-35.3632621,149.1652375,-0.006,-0.01,0.01,0.0,-9.942173346644267e-05,9.444930037716404e-05,0.0,1000,1000,1000,1000,12600,0,0.002807936631143093,0.002824501832947135,0.0025800231378525496,10,{}
normal_corridor_base_13,0,none,55352,0.0011457601794973016,0.0009510644595138729,-0.08989112079143524,-35.3632621,149.1652375,-0.006,-0.01,0.01,0.0,-9.94217480183579e-05,9.444930037716404e-05,0.0,1000,1000,1000,1000,12600,0,0.0025631352327764034,0.0025228960439562798,0.0025725215673446655,10,{}
normal_corridor_base_13,0,none,55604,0.0011502888519316912,0.000956373056396842,-0.09001854807138443,-35.3632621,149.1652375,-0.006,-0.01,0.01,0.0,-9.942168981069699e-05,9.444925672141835e-05,0.0,1000,1000,1000,1000,12600,0,0.002765510929748416,0.003074964974075556,0.002696338575333357,10,{}
normal_corridor_base_13,0,none,55854,0.0011466194409877062,0.0009505181224085391,-0.09014086425304413,-35.3632621,149.1652375,-0.006,-0.01,0.01,0.0,-9.942168253473938e-05,9.444926399737597e-05,0.0,1000,1000,1000,1000,12600,0,0.0026970626786351204,0.002862347289919853,0.0025826371274888515,10,{}
normal_corridor_base_13,0,none,56104,0.0011461584363132715,0.0009513688273727894,-0.0902649387717247,-35.3632621,149.1652375,-0.006,-0.01,0.01,0.0,-9.942168253473938e-05,9.444926399737597e-05,0.0,1000,1000,1000,1000,12600,0,0.002768162405118346,0.0028675596695393324,0.0030393858905881643,10,{}
normal_corridor_base_13,0,none,56354,0.0011502844281494617,0.0009554664720781147,-0.09038625657558441,-35.3632621,149.1652375,-0.006,-0.01,0.01,0.0,-9.942167525878176e-05,9.444924216950312e-05,0.0,1000,1000,1000,1000,12600,0,0.0027056431863456964,0.0029029136057943106,0.0030944880563765764,10,{}
normal_corridor_base_13,0,none,56602,0.0011527383467182517,0.00096181157277897,-0.09050453454256058,-35.3632621,149.1652375,-0.006,-0.01,0.01,0.0,-9.94216970866546e-05,9.44492785492912e-05,0.0,1000,1000,1000,1000,12600,0,0.002758015412837267,0.002629471942782402,0.0027786518912762403,10,{}
normal_corridor_base_13,0,none,56852,0.0011381834046915174,0.0009591942653059959,-0.0905950516462326,-35.3632621,149.1652375,-0.006,-0.01,0.01,0.0,-9.942175529431552e-05,9.444930765312165e-05,0.0,1000,1000,1000,1000,12600,0,0.002888137474656105,0.002761377254500985,0.002772427164018154,10,{}
normal_corridor_base_13,0,none,57102,0.0011330320267006755,0.0009540771134197712,-0.09070689976215363,-35.3632621,149.1652375,-0.006,-0.01,0.01,0.0,-9.942178439814597e-05,9.444930037716404e-05,0.0,1000,1000,1000,1000,12600,0,0.002785005373880267,0.0029907100833952427,0.002825937932357192,10,{}
normal_corridor_base_13,0,none,57352,0.0011409764410927892,0.0009569668327458203,-0.09082821756601334,-35.3632621,149.1652375,-0.006,-0.01,0.01,0.0,-9.942182805389166e-05,9.444933675695211e-05,0.0,1000,1000,1000,1000,12600,0,0.002815601183101535,0.0029023857787251472,0.002774878405034542,10,{}
normal_corridor_base_13,0,none,57604,0.0011460911482572556,0.0009644821984693408,-0.09094139188528061,-35.3632622,149.1652375,-0.006,-0.01,0.01,0.0,-9.942182805389166e-05,9.444937313674018e-05,0.0,1000,1000,1000,1000,12600,0,0.002687373198568821,0.002643563784658909,0.0024666949175298214,10,{}
normal_corridor_base_13,0,none,57854,0.0011466119904071093,0.000962508434895426,-0.0910528376698494,-35.3632621,149.1652375,-0.006,-0.01,0.01,0.0,-9.942181350197643e-05,9.444936586078256e-05,0.0,1000,1000,1000,1000,12600,0,0.0026802695356309414,0.0025301838759332895,0.0026132501661777496,10,{}
normal_corridor_base_13,0,none,58104,0.0011502383276820183,0.0009602914215065539,-0.09115958958864212,-35.3632621,149.1652375,-0.006,-0.01,0.01,0.0,-9.942185715772212e-05,9.444939496461302e-05,0.0,1000,1000,1000,1000,12600,0,0.0026224867906421423,0.002778815571218729,0.002571041928604245,10,{}
normal_corridor_base_13,0,none,58354,0.0011542538413777947,0.0009660207433626056,-0.09127738326787949,-35.3632621,149.1652375,-0.006,-0.01,0.01,0.0,-9.942185715772212e-05,9.444938041269779e-05,0.0,1000,1000,1000,1000,12600,0,0.0030612251721322536,0.0027113177347928286,0.002757216105237603,10,{}
normal_corridor_base_13,0,none,58604,0.0011546610621735454,0.0009717983193695545,-0.09138084948062897,-35.3632622,149.1652375,-0.006,-0.01,0.01,0.0,-9.942191536538303e-05,9.444943134440109e-05,0.0,1000,1000,1000,1000,12600,0,0.003133420366793871,0.003081529401242733,0.0028623209800571203,10,{}
normal_corridor_base_13,0,none,58852,0.0011538100661709905,0.0009683509124442935,-0.09149660915136337,-35.3632621,149.1652375,-0.006,-0.01,0.01,0.0,-9.942192991729826e-05,9.44494386203587e-05,0.0,1000,1000,1000,1000,12600,0,0.0029170187190175056,0.0027995863929390907,0.002555648796260357,10,{}
normal_corridor_base_13,0,none,59102,0.0011551947100088,0.0009697854402475059,-0.09160082787275314,-35.3632621,149.1652375,-0.006,-0.01,0.01,0.0,-9.942192991729826e-05,9.444942406844348e-05,0.0,1000,1000,1000,1000,12600,0,0.0026698396541178226,0.002687668427824974,0.0025346761103719473,10,{}
normal_corridor_base_13,0,none,59352,0.0011575749376788735,0.0009746067225933075,-0.09170693159103394,-35.3632621,149.1652375,-0.006,-0.01,0.01,0.0,-9.942192991729826e-05,9.444938041269779e-05,0.0,1000,1000,1000,1000,12600,0,0.002957551274448633,0.002569808391854167,0.002684804145246744,10,{}
normal_corridor_base_13,0,none,59604,0.0011625707847997546,0.000980509095825255,-0.09181113541126251,-35.3632622,149.1652375,-0.006,-0.01,0.01,0.0,-9.942194446921349e-05,9.444936586078256e-05,0.0,1000,1000,1000,1000,12600,0,0.0030077449046075344,0.0027688895352184772,0.002743503777310252,10,{}
normal_corridor_base_13,0,none,59854,0.0011516455560922623,0.0009753592894412577,-0.09191368520259857,-35.3632621,149.1652375,-0.006,-0.01,0.01,0.0,-9.942198812495917e-05,9.444939496461302e-05,0.0,1000,1000,1000,1000,12600,0,0.0026662040036171675,0.002803605981171131,0.002736208261922002,10,{}
normal_corridor_base_13,0,none,60104,0.0011504569556564093,0.0009703016839921474,-0.09201113879680634,-35.3632621,149.1652375,-0.006,-0.01,0.01,0.0,-9.942199540091679e-05,9.444936586078256e-05,0.0,1000,1000,1000,1000,12600,0,0.0030158718582242727,0.0027474574744701385,0.002700456418097019,10,{}
normal_corridor_base_13,0,none,60354,0.0011522154090926051,0.0009683694806881249,-0.09211692214012146,-35.3632622,149.1652375,-0.006,-0.01,0.01,0.0,-9.942202450474724e-05,9.444936586078256e-05,0.0,1000,1000,1000,1000,12600,0,0.0026820385828614235,0.002776504959911108,0.0027320347726345062,10,{}
normal_corridor_base_13,0,none,60604,0.0011581178987398744,0.0009714451734907925,-0.0922129899263382,-35.3632622,149.1652375,-0.006,-0.01,0.01,0.0,-9.942203905666247e-05,9.444936586078256e-05,0.0,1000,1000,1000,1000,12600,0,0.002713428344577551,0.0028823455795645714,0.002858642488718033,10,{}
normal_corridor_base_13,0,none,60852,0.0011499288957566023,0.000958397111389786,-0.09232009947299957,-35.3632621,149.1652375,-0.006,-0.01,0.01,0.0,-9.942202450474724e-05,9.444935858482495e-05,0.0,1000,1000,1000,1000,12600,0,0.0028073571156710386,0.0027939474675804377,0.0025490240659564734,10,{}
normal_corridor_base_13,0,none,61102,0.0011544747976586223,0.0009527129586786032,-0.09241677075624466,-35.3632622,149.1652375,-0.006,-0.01,0.01,0.0,-9.94220536085777e-05,9.444938041269779e-05,0.0,1000,1000,1000,1000,12600,0,0.002510633785277605,0.0029175973031669855,0.002739523071795702,10,{}
normal_corridor_base_13,0,none,61352,0.0011564003070816398,0.0009571516420692205,-0.0925113782286644,-35.3632622,149.1652375,-0.006,-0.01,0.01,0.0,-9.942203905666247e-05,9.444936586078256e-05,0.0,1000,1000,1000,1000,12600,0,0.003003196557983756,0.003056483343243599,0.002976182149723172,10,{}
normal_corridor_base_13,0,none,61602,0.0011645826743915677,0.0009608317050151527,-0.0926024466753006,-35.3632622,149.1652375,-0.006,-0.01,0.01,0.0,-9.942208271240816e-05,9.444936586078256e-05,0.0,1000,1000,1000,1000,12600,0,0.0027469261549413204,0.002822626382112503,0.002925677690654993,10,{}
normal_corridor_base_13,0,none,61854,0.0011553490767255425,0.0009530881070531905,-0.09267980605363846,-35.3632622,149.1652375,-0.006,-0.01,0.01,0.0,-9.942209726432338e-05,9.444940951652825e-05,0.0,1000,1000,1000,1000,12600,0,0.002903211396187544,0.002813684055581689,0.0030312021262943745,10,{}
normal_corridor_base_13,0,none,62104,0.001157258404418826,0.0009556295699439943,-0.09276822954416275,-35.3632621,149.1652375,-0.006,-0.01,0.01,0.0,-9.942209726432338e-05,9.444942406844348e-05,0.0,1000,1000,1000,1000,12600,0,0.002529751742258668,0.0028320522978901863,0.002814509440213442,10,{}
normal_corridor_base_13,0,none,62354,0.0011614286340773106,0.0009541811887174845,-0.09286416321992874,-35.3632622,149.1652375,-0.006,-0.01,0.01,0.0,-9.942213364411145e-05,9.444946044823155e-05,0.0,1000,1000,1000,1000,12600,0,0.002675029681995511,0.002683610888198018,0.002634878735989332,10,{}
normal_corridor_base_13,0,none,62604,0.001163510256446898,0.0009637571638450027,-0.09294836223125458,-35.3632622,149.1652375,-0.006,-0.01,0.01,0.0,-9.942212636815384e-05,9.444947500014678e-05,0.0,1000,1000,1000,1000,12600,0,0.0026495237834751606,0.0029550199396908283,0.0028511269483715296,10,{}
normal_corridor_base_13,0,none,62852,0.001160728163085878,0.0009621633216738701,-0.09304382652044296,-35.3632621,149.1652375,-0.006,-0.01,0.01,0.0,-9.942213364411145e-05,9.4449489552062e-05,0.0,1000,1000,1000,1000,12600,0,0.0026120177935808897,0.0031740327831357718,0.0026498541701585054,10,{}
normal_corridor_base_13,0,none,63102,0.001159900100901723,0.000967455271165818,-0.09313782304525375,-35.3632621,149.1652375,-0.006,-0.01,0.01,0.0,-9.942211181623861e-05,9.44494386203587e-05,0.0,1000,1000,1000,1000,12600,0,0.002932027680799365,0.0028574655298143625,0.002698762807995081,10,{}
normal_corridor_base_13,0,none,63352,0.0011587125482037663,0.0009649535641074181,-0.0932362824678421,-35.3632622,149.1652375,-0.006,-0.01,0.01,0.0,-9.9422104540281e-05,9.444940951652825e-05,0.0,1000,1000,1000,1000,12600,0,0.0027855681255459785,0.0026213510427623987,0.0028815087862312794,10,{}
normal_corridor_base_13,0,none,63602,0.0011617381824180484,0.0009743143455125391,-0.0933159589767456,-35.3632622,149.1652375,-0.006,-0.01,0.01,0.0,-9.9422104540281e-05,9.444938041269779e-05,0.0,1000,1000,1000,1000,12600,0,0.0029318092856556177,0.0025605331175029278,0.0025548480916768312,10,{}
normal_corridor_base_13,0,none,63854,0.0011584690073505044,0.0009707882418297231,-0.09340238571166992,-35.3632622,149.1652375,-0.006,-0.01,0.01,0.0,-9.942209726432338e-05,9.444941679248586e-05,0.0,1000,1000,1000,1000,12600,0,0.0029751271940767765,0.0029373522847890854,0.0029288255609571934,10,{}
normal_corridor_base_13,0,none,64104,0.0011628748616203666,0.0009624826489016414,-0.09348593652248383,-35.3632622,149.1652375,-0.006,-0.01,0.01,0.0,-9.942211909219623e-05,9.444942406844348e-05,0.0,1000,1000,1000,1000,12600,0,0.0027495338581502438,0.0030118876602500677,0.0031028869561851025,10,{}
normal_corridor_base_13,0,none,64354,0.0011642989702522755,0.0009641905198805034,-0.09357450902462006,-35.3632622,149.1652375,-0.006,-0.01,0.01,0.0,-9.94221554719843e-05,9.44494386203587e-05,0.0,1000,1000,1000,1000,12600,0,0.0029476762283593416,0.0028871356043964624,0.002852474106475711,10,{}
normal_corridor_base_13,0,none,64604,0.0011741885682567954,0.0009669042192399502,-0.09365779906511307,-35.3632622,149.1652375,-0.006,-0.01,0.01,0.0,-9.942217002389953e-05,9.444946044823155e-05,0.0,1000,1000,1000,1000,12600,0,0.002898129168897867,0.0029549153987318277,0.002889412920922041,10,{}
normal_corridor_base_13,0,none,64854,0.001171768642961979,0.0009591298294253647,-0.09374520927667618,-35.3632622,149.1652375,-0.006,-0.01,0.01,0.0,-9.94222064036876e-05,9.444946044823155e-05,0.0,1000,1000,1000,1000,12600,0,0.0028465164359658957,0.00294336024671793,0.002842680085450411,10,{}
normal_corridor_base_13,0,none,65102,0.001164199085906148,0.0009521534666419029,-0.09382757544517517,-35.3632621,149.1652375,-0.006,-0.01,0.01,0.0,-9.942217729985714e-05,9.444944589631632e-05,0.0,1000,1000,1000,1000,12600,0,0.002917112782597542,0.0030844872817397118,0.002727409591898322,10,{}
normal_corridor_base_13,0,none,65352,0.0011632529785856605,0.0009587622480466962,-0.09391269832849503,-35.3632622,149.1652375,-0.006,-0.01,0.01,0.0,-9.942219912772998e-05,9.444947500014678e-05,0.0,1000,1000,1000,1000,12600,0,0.0028165739495307207,0.0026213927194476128,0.0029441467486321926,10,{}
normal_corridor_base_13,0,none,65602,0.0011653007240965962,0.0009651315049268305,-0.09399529546499252,-35.3632622,149.1652375,-0.006,-0.01,0.01,0.0,-9.942222095560282e-05,9.444951137993485e-05,0.0,1000,1000,1000,1000,12600,0,0.0027411801274865866,0.0025626991409808397,0.002770032500848174,10,{}
normal_corridor_base_13,0,none,65854,0.0011631697416305542,0.0009609948610886931,-0.09408164024353027,-35.3632621,149.1652375,-0.006,-0.01,0.01,0.0,-9.942218457581475e-05,9.4449489552062e-05,0.0,1000,1000,1000,1000,12600,0,0.0027194644790142775,0.002993851201608777,0.0026798939798027277,10,{}
normal_corridor_base_13,0,none,66104,0.0011659893207252026,0.0009625441743992269,-0.09415919333696365,-35.3632621,149.1652375,-0.006,-0.01,0.01,0.0,-9.942219912772998e-05,9.4449489552062e-05,0.0,1000,1000,1000,1000,12600,0,0.0026407046243548393,0.0029035003390163183,0.0028565218672156334,10,{}
normal_corridor_base_13,0,none,66354,0.0011718731839209795,0.0009609108092263341,-0.0942363440990448,-35.3632621,149.1652375,-0.006,-0.01,0.01,0.0,-9.942219912772998e-05,9.444950410397723e-05,0.0,1000,1000,1000,1000,12600,0,0.0027958459686487913,0.00286304485052824,0.0027418937534093857,10,{}
normal_corridor_base_13,0,none,66604,0.0011726110242307186,0.0009753918275237083,-0.09431953728199005,-35.3632621,149.1652375,-0.006,-0.01,0.01,0.0,-9.942219912772998e-05,9.444949682801962e-05,0.0,1000,1000,1000,1000,12600,0,0.0029651187360286713,0.0026440012734383345,0.002666248008608818,10,{}
normal_corridor_base_13,0,none,66854,0.0011725417571142316,0.0009709883597679436,-0.09439033269882202,-35.3632621,149.1652375,-0.006,-0.01,0.01,0.0,-9.94221554719843e-05,9.444948227610439e-05,0.0,1000,1000,1000,1000,12600,0,0.0024607828818261623,0.0028213772457093,0.0029791288543492556,10,{}
normal_corridor_base_13,0,none,67102,0.0011723568895831704,0.0009706027340143919,-0.09445023536682129,-35.3632621,149.1652375,-0.006,-0.01,0.01,0.0,-9.942216274794191e-05,9.444951137993485e-05,0.0,1000,1000,1000,1000,12600,0,0.002986763371154666,0.0026000149082392454,0.0031203904654830694,10,{}
normal_corridor_base_13,0,none,67352,0.001173321041278541,0.0009732607868500054,-0.09451431781053543,-35.3632621,149.1652375,-0.006,-0.01,0.01,0.0,-9.94221554719843e-05,9.4449489552062e-05,0.0,1000,1000,1000,1000,12600,0,0.002960223238915205,0.002874573227018118,0.0029355392325669527,10,{}
normal_corridor_base_13,0,none,67602,0.00117766042239964,0.0009827303001657128,-0.09458618611097336,-35.3632622,149.1652375,-0.006,-0.01,0.01,0.0,-9.942222095560282e-05,9.4449489552062e-05,0.0,1000,1000,1000,1000,12600,0,0.002562410430982709,0.002971244975924492,0.0027293353341519833,10,{}
normal_corridor_base_13,0,none,67852,0.001176556572318077,0.0009819908300414681,-0.09466645121574402,-35.3632621,149.1652375,-0.006,-0.01,0.01,0.0,-9.942214092006907e-05,9.444947500014678e-05,0.0,1000,1000,1000,1000,12600,0,0.002663783263415098,0.002971030306071043,0.0027500344440340996,10,{}
normal_corridor_base_13,0,none,68104,0.0011775109451264143,0.0009816321544349194,-0.09473291039466858,-35.3632621,149.1652375,-0.006,-0.01,0.01,0.0,-9.942214092006907e-05,9.444949682801962e-05,0.0,1000,1000,1000,1000,12600,0,0.0031104327645152807,0.002690546913072467,0.0024643922224640846,10,{}
normal_corridor_base_13,0,none,68354,0.0011824790854007006,0.0009904473554342985,-0.09480943530797958,-35.3632622,149.1652375,-0.006,-0.01,0.01,0.0,-9.942217002389953e-05,9.444948227610439e-05,0.0,1000,1000,1000,1000,12600,0,0.0030359053052961826,0.0027874791994690895,0.0028328639455139637,10,{}
normal_corridor_base_13,0,none,68604,0.0011907374719157815,0.0009965590434148908,-0.09487823396921158,-35.3632622,149.1652375,-0.006,-0.01,0.01,0.0,-9.942212636815384e-05,9.44494386203587e-05,0.0,1000,1000,1000,1000,12600,0,0.0028010692913085222,0.0031360036227852106,0.0030197782907634974,10,{}
