flight_id,label,attack_type,timestamp,att_roll,att_pitch,att_yaw,pos_lat,pos_lon,pos_alt_rel,pos_vx,pos_vy,pos_vz,nav_roll,nav_pitch,nav_alt_error,servo1_raw,servo2_raw,servo3_raw,servo4_raw,sys_voltage_battery,sys_load,vib_x,vib_y,vib_z,gps_sats_visible,attack_params_json
normal_corridor_base_11,0,none,10046,0.0001894897868623957,-4.2135652620345354e-05,-0.3456082344055176,-35.3632621,149.1652374,0.0,0.0,0.0,-0.03,-9.942176257027313e-05,9.444949682801962e-05,0.0,1000,1000,1000,1000,12600,0,0.0028742454014718533,0.002800154499709606,0.002734722103923559,0,{}
normal_corridor_base_11,0,none,10379,0.0001983233232749626,-3.281214594608173e-05,-0.3240640461444855,-35.3632621,149.1652374,0.0,0.0,0.0,-0.03,-9.942168253473938e-05,9.444943134440109e-05,0.0,1000,1000,1000,1000,12600,0,0.0028282927814871073,0.002979203127324581,0.002778915222734213,10,{}
normal_corridor_base_11,0,none,10711,0.00019861666078213602,-2.2568587155546993e-05,-0.2931039333343506,-35.3632621,149.1652374,0.0,0.0,0.0,-0.03,-9.942168253473938e-05,9.444938041269779e-05,0.0,1000,1000,1000,1000,12600,0,0.002532507060095668,0.0029192783404141665,0.0030093661043792963,10,{}
normal_corridor_base_11,0,none,11044,0.00020458803919609636,-1.3359492186282296e-05,-0.2577741742134094,-35.3632621,149.1652374,0.0,0.0,0.0,-0.03,-9.942168253473938e-05,9.444938041269779e-05,0.0,1000,1000,1000,1000,12600,0,0.002836862811818719,0.002728384220972657,0.002633249619975686,10,{}
normal_corridor_base_11,0,none,11377,0.00020859501091763377,-8.108557267405558e-06,-0.23353412747383118,-35.3632621,149.1652374,0.0,0.0,0.0,-0.03,-9.942160977516323e-05,9.444940951652825e-05,0.0,1000,1000,1000,1000,12600,0,0.002985302358865738,0.002854609163478017,0.0030399092938750982,10,{}
normal_corridor_base_11,0,none,11711,0.00021273594757076353,-1.2588045592565322e-06,-0.21145011484622955,-35.3632621,149.1652374,0.0,0.0,0.0,-0.03,-9.942157339537516e-05,9.444940224057063e-05,0.0,1000,1000,1000,1000,12600,0,0.0031424181070178747,0.0028044164646416903,0.00256141135469079,10,{}
normal_corridor_base_11,0,none,12044,0.000219634166569449,1.4495335562969558e-05,-0.18561992049217224,-35.3632621,149.1652374,0.0,0.0,0.0,-0.02,-9.942157339537516e-05,9.444940224057063e-05,0.0,1000,1000,1000,1000,12600,0,0.0029585014563053846,0.002878935309126973,0.0029264322947710752,10,{}
normal_corridor_base_11,0,none,12376,0.00022587424609810114,2.1116497009643354e-05,-0.16864849627017975,-35.3632621,149.1652374,0.0,0.0,0.0,-0.02,-9.942167525878176e-05,9.444942406844348e-05,0.0,1000,1000,1000,1000,12600,0,0.0028136970940977335,0.00299519719555974,0.0028560187201946974,10,{}
normal_corridor_base_11,0,none,12709,0.00023499671078752726,3.078768713749014e-05,-0.15354399383068085,-35.3632621,149.1652374,0.0,0.0,0.0,-0.02,-9.942165343090892e-05,9.444936586078256e-05,0.0,1000,1000,1000,1000,12600,0,0.00289321132004261,0.002776896581053734,0.002975469920784235,10,{}
normal_corridor_base_11,0,none,13042,0.00024676945758983493,3.6271914723329246e-05,-0.13599933683872223,-35.3632621,149.1652374,0.0,0.0,0.0,-0.02,-9.942165343090892e-05,9.444936586078256e-05,0.0,1000,1000,1000,1000,12600,0,0.0027935942634940147,0.002652478637173772,0.0028130249120295048,10,{}
normal_corridor_base_11,0,none,13377,0.00025552784791216254,4.2830262827919796e-05,-0.12469124794006348,-35.3632621,149.1652374,0.0,0.0,0.0,-0.01,-9.942163160303608e-05,9.444936586078256e-05,0.0,1000,1000,1000,1000,12600,0,0.002714059315621853,0.002509752754122019,0.00292109209112823,10,{}
normal_corridor_base_11,0,none,13709,0.000261925277300179,5.463749039336108e-05,-0.11469967663288116,-35.3632621,149.1652374,0.0,0.0,0.0,-0.01,-9.942163160303608e-05,9.444940224057063e-05,0.0,1000,1000,1000,1000,12600,0,0.002764177042990923,0.0028115632012486458,0.002802482573315501,10,{}
normal_corridor_base_11,0,none,14041,0.00027662745560519397,6.380163540598005e-05,-0.10329419374465942,-35.3632621,149.1652374,0.0,0.0,0.0,-0.01,-9.942163160303608e-05,9.444940224057063e-05,0.0,1000,1000,1000,1000,12600,0,0.0026140110567212105,0.0027781017124652863,0.002879454754292965,10,{}
normal_corridor_base_11,0,none,14374,0.0002816999040078372,7.184869900811464e-05,-0.09596545249223709,-35.3632621,149.1652374,0.0,0.0,0.0,-0.01,-9.942153701558709e-05,9.444936586078256e-05,0.0,1000,1000,1000,1000,12600,0,0.002808630233630538,0.002866762923076749,0.002895042998716235,10,{}
normal_corridor_base_11,0,none,14709,0.0002970525238197297,8.284320938400924e-05,-0.0895601361989975,-35.3632621,149.1652374,0.0,0.0,0.0,-0.01,-9.942152973962948e-05,9.444933675695211e-05,0.0,1000,1000,1000,1000,12600,0,0.002930238377302885,0.0027745075058192015,0.002801804570481181,10,{}
normal_corridor_base_11,0,none,15042,0.000309918075799942,9.731486352393404e-05,-0.08221013844013214,-35.3632621,149.1652374,0.0,0.0,0.0,-0.01,-9.942152973962948e-05,9.444933675695211e-05,0.0,1000,1000,1000,1000,12600,0,0.0028256189543753862,0.0027292296290397644,0.002798848319798708,10,{}
normal_corridor_base_11,0,none,15357,0.0003206520341336727,0.00010651929187588394,-0.07719778269529343,-35.3632621,149.1652374,0.0,0.0,0.0,-0.01,-9.942153701558709e-05,9.444938041269779e-05,0.0,1000,1000,1000,1000,12600,0,0.002783697796985507,0.0028518897015601397,0.0029002265073359013,10,{}
normal_corridor_base_11,0,none,15607,0.00033108144998550415,0.00011128994083264843,-0.0738343894481659,-35.3632621,149.1652374,0.0,0.0,0.0,-0.01,-9.942150063579902e-05,9.444935130886734e-05,0.0,1000,1000,1000,1000,12600,0,0.002783697796985507,0.0028518897015601397,0.0029002265073359013,10,{}
normal_corridor_base_11,0,none,15859,0.0003363890282344073,0.00012000498827546835,-0.07087501883506775,-35.3632621,149.1652374,0.0,0.0,0.0,0.0,-9.942148608388379e-05,9.444936586078256e-05,0.0,1000,1000,1000,1000,12600,0,0.0026922293473035097,0.002791967475786805,0.002570111770182848,10,{}
normal_corridor_base_11,0,none,16109,0.00034575845347717404,0.00012983879423700273,-0.06822995096445084,-35.3632621,149.1652374,0.0,0.0,0.0,0.0,-9.942147153196856e-05,9.444935858482495e-05,0.0,1000,1000,1000,1000,12600,0,0.0026499242521822453,0.002886570291593671,0.0024996548891067505,10,{}
normal_corridor_base_11,0,none,16359,0.00035378028405830264,0.0001375292195007205,-0.06591206789016724,-35.3632621,149.1652374,0.0,0.0,0.0,0.0,-9.942147153196856e-05,9.444935858482495e-05,0.0,1000,1000,1000,1000,12600,0,0.002905152505263686,0.0028612499590963125,0.0026816504541784525,10,{}
normal_corridor_base_11,0,none,16609,0.00036622723564505577,0.0001452677242923528,-0.06388644129037857,-35.3632621,149.1652374,0.0,0.0,0.0,0.0,-9.942151518771425e-05,9.44493876886554e-05,0.0,1000,1000,1000,1000,12600,0,0.0030702329240739346,0.0028023950289934874,0.0027498232666403055,10,{}
normal_corridor_base_11,0,none,16859,0.0003762731794267893,0.00015426664322149009,-0.062099505215883255,-35.3632621,149.1652374,0.0,0.0,0.0,0.0,-9.942151518771425e-05,9.44493876886554e-05,0.0,1000,1000,1000,1000,12600,0,0.003136045066639781,0.002573417266830802,0.0025887133087962866,10,{}
normal_corridor_base_11,0,none,17387,0.00039584419573657215,0.00016780977603048086,-0.059199802577495575,-35.3632621,149.1652374,0.0,0.0,0.0,0.0,-9.942146425601095e-05,9.444936586078256e-05,0.0,1000,1000,1000,1000,12600,0,0.0030203750357031822,0.002645124914124608,0.003021922428160906,10,{}
normal_corridor_base_11,0,none,17722,0.0004070299328304827,0.0001760535960784182,-0.05791876092553139,-35.3632621,149.1652374,0.0,0.0,0.0,0.0,-9.942160977516323e-05,9.444937313674018e-05,0.0,1000,1000,1000,1000,12600,0,0.0026677981950342655,0.0028069205582141876,0.0025622262619435787,10,{}
normal_corridor_base_11,0,none,18054,0.00042266587843187153,0.00019506159878801554,-0.05638319253921509,-35.3632621,149.1652374,0.0,0.0,0.0,0.0,-9.942165343090892e-05,9.444935130886734e-05,0.0,1000,1000,1000,1000,12600,0,0.003043233649805188,0.0028062378987669945,0.0029400403145700693,10,{}
normal_corridor_base_11,0,none,18386,0.0004332614771556109,0.00020856685296166688,-0.05544842779636383,-35.3632621,149.1652374,0.0,0.0,0.0,0.0,-9.942165343090892e-05,9.444935130886734e-05,0.0,1000,1000,1000,1000,12600,0,0.0027133189141750336,0.002904227701947093,0.003171168267726898,10,{}
normal_corridor_base_11,0,none,18719,0.0004458255716599524,0.00022276250820141286,-0.05471475422382355,-35.3632621,149.1652374,0.0,0.0,0.0,0.0,-9.942161705112085e-05,9.444930037716404e-05,0.0,1000,1000,1000,1000,12600,0,0.0027133189141750336,0.002904227701947093,0.003171168267726898,10,{}
normal_corridor_base_11,0,none,19054,0.00047034057206474245,0.00024227402172982693,-0.05393132194876671,-35.3632621,149.1652374,0.0,0.0,0.0,0.0,-9.94216461549513e-05,9.444930037716404e-05,0.0,1000,1000,1000,1000,12600,0,0.003032083623111248,0.003178509185090661,0.0027660441119223833,10,{}
normal_corridor_base_11,0,none,19387,0.00048202849575318396,0.0002532807702664286,-0.05355648696422577,-35.3632621,149.1652374,0.0,0.0,0.0,0.0,-9.94216461549513e-05,9.444930037716404e-05,0.0,1000,1000,1000,1000,12600,0,0.003081119619309902,0.0029808066319674253,0.002780078910291195,10,{}
normal_corridor_base_11,0,none,19719,0.0004992583999410272,0.00026521115796640515,-0.053210943937301636,-35.3632621,149.1652374,0.0,0.0,0.0,0.0,-9.942161705112085e-05,9.444932220503688e-05,0.0,1000,1000,1000,1000,12600,0,0.0028444919735193253,0.0027936785481870174,0.002571870107203722,10,{}
normal_corridor_base_11,0,none,20051,0.0005263186176307499,0.00028516570455394685,-0.052779559046030045,-35.3632621,149.1652374,0.008,0.0,0.0,0.0,-9.942171163856983e-05,9.444935858482495e-05,0.0,1000,1000,1000,1000,12600,0,0.002852614503353834,0.0027183103375136852,0.002820821013301611,10,{}
normal_corridor_base_11,0,none,20384,0.0005366443074308336,0.0003028790815733373,-0.05265098437666893,-35.3632621,149.1652374,-0.007,0.0,0.0,0.0,-9.942171163856983e-05,9.444935858482495e-05,0.0,1000,1000,1000,1000,12600,0,0.0030765400733798742,0.0026414666790515184,0.0029735069256275892,10,{}
normal_corridor_base_11,0,none,20719,0.0005520037957467139,0.00032074470072984695,-0.052669402211904526,-35.3632621,149.1652374,-0.008,0.0,0.0,0.0,-9.942174074240029e-05,9.444940224057063e-05,0.0,1000,1000,1000,1000,12600,0,0.002804919146001339,0.002982266014441848,0.002943920437246561,10,{}
normal_corridor_base_11,0,none,21051,0.0005697426968254149,0.0003412255900911987,-0.0527958907186985,-35.3632621,149.1652374,-0.006,0.0,0.0,0.0,-9.94217480183579e-05,9.444938041269779e-05,0.0,1000,1000,1000,1000,12600,0,0.0027735356707125902,0.0029042938258498907,0.003114926628768444,10,{}
normal_corridor_base_11,0,none,21384,0.0005893557681702077,0.00035366613883525133,-0.052965834736824036,-35.3632621,149.1652374,-0.005,0.0,0.0,0.0,-9.94217480183579e-05,9.444938041269779e-05,0.0,1000,1000,1000,1000,12600,0,0.0026669325307011604,0.0027789934538304806,0.0029920765664428473,10,{}
normal_corridor_base_11,0,none,21717,0.0006060759769752622,0.0003718918887898326,-0.05314623937010765,-35.3632621,149.1652374,-0.003,0.0,0.0,0.0,-9.942178439814597e-05,9.444935130886734e-05,0.0,1000,1000,1000,1000,12600,0,0.0028422344475984573,0.002868244657292962,0.0028373331297188997,10,{}
normal_corridor_base_11,0,none,22049,0.0006322654080577195,0.00039253750583156943,-0.05347117409110069,-35.3632621,149.1652374,-0.002,0.0,0.01,0.0,-9.942181350197643e-05,9.444940224057063e-05,0.0,1000,1000,1000,1000,12600,0,0.0029376831371337175,0.0029291482642292976,0.0028633049223572016,10,{}
normal_corridor_base_11,0,none,22384,0.0006500281160697341,0.00041002011857926846,-0.05376526713371277,-35.3632621,149.1652374,0.0,0.0,0.01,0.0,-9.942181350197643e-05,9.444940224057063e-05,0.0,1000,1000,1000,1000,12600,0,0.002598169958218932,0.0031038864981383085,0.0026293734554201365,10,{}
normal_corridor_base_11,0,none,22716,0.0006650133291259408,0.00043474556878209114,-0.05408091098070145,-35.3632621,149.1652374,0.0,0.0,0.01,0.0,-9.942194446921349e-05,9.444948227610439e-05,0.0,1000,1000,1000,1000,12600,0,0.002681483281776309,0.0027515548281371593,0.0027146346401423216,10,{}
normal_corridor_base_11,0,none,23049,0.0006925194757059216,0.000456184905488044,-0.05456433817744255,-35.3632621,149.1652374,0.0,0.0,0.01,0.0,-9.94219517451711e-05,9.444945317227393e-05,0.0,1000,1000,1000,1000,12600,0,0.002938285004347563,0.0026340994518250227,0.0028963705990463495,10,{}
normal_corridor_base_11,0,none,23382,0.0007064747042022645,0.00047332316171377897,-0.05498455464839935,-35.3632621,149.1652374,0.001,-0.01,0.01,0.0,-9.94219517451711e-05,9.444945317227393e-05,0.0,1000,1000,1000,1000,12600,0,0.0028423890471458435,0.002601960441097617,0.002901046071201563,10,{}
normal_corridor_base_11,0,none,23714,0.0007216609665192664,0.00048796829651109874,-0.05536223575472832,-35.3632621,149.1652374,0.002,-0.01,0.01,0.0,-9.942187170963734e-05,9.444945317227393e-05,0.0,1000,1000,1000,1000,12600,0,0.002801255788654089,0.0028519416227936745,0.0028879577293992043,10,{}
normal_corridor_base_11,0,none,24047,0.0007411116966977715,0.0005141529254615307,-0.05590835586190224,-35.3632621,149.1652374,0.002,-0.01,0.01,0.0,-9.942184260580689e-05,9.444940224057063e-05,0.0,1000,1000,1000,1000,12600,0,0.002795186825096607,0.0026752068661153316,0.0028296303935348988,10,{}
normal_corridor_base_11,0,none,24381,0.0007532211020588875,0.0005262213526293635,-0.05636518821120262,-35.3632621,149.1652374,0.002,-0.01,0.01,0.0,-9.942184260580689e-05,9.444940224057063e-05,0.0,1000,1000,1000,1000,12600,0,0.002996075199916959,0.002640945604071021,0.002689381130039692,10,{}
normal_corridor_base_11,0,none,24714,0.0007683106232434511,0.0005426190909929574,-0.05678942799568176,-35.3632621,149.1652374,0.002,-0.01,0.01,0.0,-9.942188626155257e-05,9.44494386203587e-05,0.0,1000,1000,1000,1000,12600,0,0.0031432928517460823,0.0027932196389883757,0.002909321803599596,10,{}
normal_corridor_base_11,0,none,25046,0.0007900408818386495,0.0005646735662594438,-0.05739283561706543,-35.3632621,149.1652374,0.003,-0.01,0.01,0.0,-9.942190808942541e-05,9.444951137993485e-05,0.0,1000,1000,1000,1000,12600,0,0.0028212114702910185,0.0028569630812853575,0.0026625809259712696,10,{}
normal_corridor_base_11,0,none,25379,0.0008006865391507745,0.000577370694372803,-0.05784577876329422,-35.3632621,149.1652374,0.003,-0.01,0.01,0.0,-9.942190808942541e-05,9.444951137993485e-05,0.0,1000,1000,1000,1000,12600,0,0.0027196214068681,0.0028036877047270536,0.002812584862112999,10,{}
normal_corridor_base_11,0,none,25712,0.0008210992673411965,0.0005965826567262411,-0.058195557445287704,-35.3632621,149.1652374,0.003,-0.01,0.01,0.0,-9.942189353751019e-05,9.444953320780769e-05,0.0,1000,1000,1000,1000,12600,0,0.0025631673634052277,0.002964911749586463,0.002704543061554432,10,{}
normal_corridor_base_11,0,none,26047,0.0008357015904039145,0.0006179839256219566,-0.05881243944168091,-35.3632621,149.1652374,0.002,-0.01,0.01,0.0,-9.942190808942541e-05,9.4449489552062e-05,0.0,1000,1000,1000,1000,12600,0,0.0025953259319067,0.002758318092674017,0.002802525879815221,10,{}
normal_corridor_base_11,0,none,26379,0.0008510641055181623,0.0006208542035892606,-0.059306494891643524,-35.3632621,149.1652374,0.002,-0.01,0.01,0.0,-9.942190808942541e-05,9.4449489552062e-05,0.0,1000,1000,1000,1000,12600,0,0.0026167850010097027,0.002861310262233019,0.002960408804938197,10,{}
normal_corridor_base_11,0,none,26711,0.0008655514684505761,0.0006310244789347053,-0.05979781225323677,-35.3632621,149.1652374,0.002,-0.01,0.01,0.0,-9.942192264134064e-05,9.444944589631632e-05,0.0,1000,1000,1000,1000,12600,0,0.0026553620118647814,0.002952998038381338,0.0025070689152926207,10,{}
normal_corridor_base_11,0,none,27044,0.0008781898650340736,0.0006441135192289948,-0.060462310910224915,-35.3632621,149.1652374,0.002,-0.01,0.01,0.0,-9.942198084900156e-05,9.444949682801962e-05,0.0,1000,1000,1000,1000,12600,0,0.002809048630297184,0.0031108486000448465,0.002974395640194416,10,{}
normal_corridor_base_11,0,none,27379,0.0008934529614634812,0.0006560869514942169,-0.06094816327095032,-35.3632621,149.1652374,0.002,-0.01,0.01,0.0,-9.942198084900156e-05,9.444949682801962e-05,0.0,1000,1000,1000,1000,12600,0,0.0026484783738851547,0.0027103396132588387,0.0026969299651682377,10,{}
normal_corridor_base_11,0,none,27712,0.0009020619327202439,0.0006638601771555841,-0.06148470193147659,-35.3632621,149.1652374,0.001,-0.01,0.01,0.0,-9.94219517451711e-05,9.444947500014678e-05,0.0,1000,1000,1000,1000,12600,0,0.002840672852471471,0.002677338430657983,0.0023833001032471657,10,{}
normal_corridor_base_11,0,none,28044,0.0009182433132082224,0.0006781989941373467,-0.06211892515420914,-35.3632621,149.1652374,0.001,-0.01,0.01,0.0,-9.942204633262008e-05,9.444956231163815e-05,0.0,1000,1000,1000,1000,12600,0,0.0029418368358165026,0.002989065134897828,0.0028099233750253916,10,{}
normal_corridor_base_11,0,none,28376,0.0009275511256419122,0.0006895968108437955,-0.06263770163059235,-35.3632621,149.1652374,0.001,-0.01,0.01,0.0,-9.942204633262008e-05,9.444956231163815e-05,0.0,1000,1000,1000,1000,12600,0,0.002877607475966215,0.0028879146557301283,0.002736738184466958,10,{}
normal_corridor_base_11,0,none,28709,0.0009430138161405921,0.0007055733003653586,-0.06311026960611343,-35.3632621,149.1652374,0.0,-0.01,0.01,0.0,-9.942208998836577e-05,9.444961324334145e-05,0.0,1000,1000,1000,1000,12600,0,0.002724525984376669,0.002584487199783325,0.0029624381568282843,10,{}
normal_corridor_base_11,0,none,29044,0.0009524166816845536,0.0007234019576571882,-0.06375590711832047,-35.3632621,149.1652374,0.0,-0.01,0.01,0.0,-9.94222064036876e-05,9.444967145100236e-05,0.0,1000,1000,1000,1000,12600,0,0.00294087384827435,0.0026186027098447084,0.0026341434568166733,10,{}
normal_corridor_base_11,0,none,29376,0.0009666107362136245,0.0007373904809355736,-0.06422734260559082,-35.3632621,149.1652374,0.0,-0.01,0.01,0.0,-9.94222064036876e-05,9.444967145100236e-05,0.0,1000,1000,1000,1000,12600,0,0.0027398555539548397,0.0027553716208785772,0.002511332044377923,10,{}
normal_corridor_base_11,0,none,29709,0.0009772491175681353,0.0007445118390023708,-0.06470245122909546,-35.3632621,149.1652374,0.0,-0.01,0.02,0.0,-9.942228643922135e-05,9.444970055483282e-05,0.0,1000,1000,1000,1000,12600,0,0.002545869443565607,0.0029596525710076094,0.0026174827944487333,10,{}
normal_corridor_base_11,0,none,30042,0.000989668071269989,0.000761956674978137,-0.06533745676279068,-35.3632621,149.1652374,0.0,-0.01,0.02,0.0,-9.942238830262795e-05,9.444978059036657e-05,0.0,1000,1000,1000,1000,12600,0,0.003070092061534524,0.0027080499567091465,0.0028933780267834663,10,{}
normal_corridor_base_11,0,none,30357,0.0009989721002057195,0.0007763414760120213,-0.06582410633563995,-35.3632621,149.1652374,-0.001,-0.01,0.02,0.0,-9.942238830262795e-05,9.444978059036657e-05,0.0,1000,1000,1000,1000,12600,0,0.002423244994133711,0.0029068165458738804,0.0031264221761375666,10,{}
normal_corridor_base_11,0,none,30609,0.0010032141581177711,0.000782694376539439,-0.06622231006622314,-35.3632621,149.1652374,-0.001,-0.01,0.02,0.0,-9.942236647475511e-05,9.444978059036657e-05,0.0,1000,1000,1000,1000,12600,0,0.002423244994133711,0.0029068165458738804,0.0031264221761375666,10,{}
normal_corridor_base_11,0,none,30859,0.0010150817688554525,0.000789501762483269,-0.06658732891082764,-35.3632621,149.1652374,-0.001,-0.01,0.02,0.0,-9.942243195837364e-05,9.444985334994271e-05,0.0,1000,1000,1000,1000,12600,0,0.0027452956419438124,0.0027041237335652113,0.0029417253099381924,10,{}
normal_corridor_base_11,0,none,31399,0.0010302014416083694,0.0008001132518984377,-0.06734599173069,-35.3632621,149.1652374,-0.002,-0.01,0.02,0.0,-9.942253382178023e-05,9.444995521334931e-05,0.0,1000,1000,1000,1000,12600,0,0.0028622495010495186,0.002820268040522933,0.002973902504891157,10,{}
normal_corridor_base_11,0,none,31732,0.0010421178303658962,0.0008096107048913836,-0.06783612072467804,-35.3632621,149.1652374,-0.002,-0.01,0.02,0.0,-9.942249744199216e-05,9.444991883356124e-05,0.0,1000,1000,1000,1000,12600,0,0.002678600838407874,0.002889018040150404,0.002933368319645524,10,{}
normal_corridor_base_11,0,none,32067,0.0010428006062284112,0.0008101807325147092,-0.06827544420957565,-35.3632621,149.1652374,-0.003,-0.01,0.02,0.0,-9.942249016603455e-05,9.444988972973078e-05,0.0,1000,1000,1000,1000,12600,0,0.0027411088813096285,0.0029415511526167393,0.0027524519246071577,10,{}
normal_corridor_base_11,0,none,32399,0.001055037253536284,0.0008189529762603343,-0.0687045231461525,-35.3632621,149.1652374,-0.003,-0.01,0.02,0.0,-9.942246833816171e-05,9.444995521334931e-05,0.0,1000,1000,1000,1000,12600,0,0.0030758753418922424,0.002673085080459714,0.0028119629714637995,10,{}
normal_corridor_base_11,0,none,32731,0.0010676536476239562,0.0008336188038811088,-0.06930278241634369,-35.3632621,149.1652374,-0.003,-0.01,0.02,0.0,-9.942254837369546e-05,9.444998431717977e-05,0.0,1000,1000,1000,1000,12600,0,0.0030758753418922424,0.002673085080459714,0.0028119629714637995,10,{}
normal_corridor_base_11,0,none,33064,0.0010745793115347624,0.0008459960808977485,-0.0697292685508728,-35.3632621,149.1652374,-0.004,-0.01,0.02,0.0,-9.942254837369546e-05,9.444994066143408e-05,0.0,1000,1000,1000,1000,12600,0,0.0025941473431885242,0.0025122861843556166,0.002933937357738614,10,{}
normal_corridor_base_11,0,none,33399,0.0010883178329095244,0.0008579547866247594,-0.07015655934810638,-35.3632621,149.1652374,-0.004,-0.01,0.02,0.0,-9.942253382178023e-05,9.444992610951886e-05,0.0,1000,1000,1000,1000,12600,0,0.002820348832756281,0.002750442363321781,0.0026859373319894075,10,{}
normal_corridor_base_11,0,none,33732,0.0011057320516556501,0.0008718307362869382,-0.07072564214468002,-35.3632621,149.1652374,-0.004,-0.01,0.02,0.0,-9.942253382178023e-05,9.444992610951886e-05,0.0,1000,1000,1000,1000,12600,0,0.002803707029670477,0.0029281764291226864,0.0028481793124228716,10,{}
normal_corridor_base_11,0,none,34064,0.001115785795263946,0.0008762817597016692,-0.07115676254034042,-35.3632621,149.1652374,-0.005,-0.02,0.02,0.0,-9.942249016603455e-05,9.444996976526454e-05,0.0,1000,1000,1000,1000,12600,0,0.0025321447756141424,0.0028945901431143284,0.002952227834612131,10,{}
normal_corridor_base_11,0,none,34397,0.0011210773373022676,0.0008880041423253715,-0.07156042754650116,-35.3632621,149.1652374,-0.005,-0.02,0.02,0.0,-9.942249016603455e-05,9.444996976526454e-05,0.0,1000,1000,1000,1000,12600,0,0.002832880010828376,0.0028224284760653973,0.002748766215518117,10,{}
normal_corridor_base_11,0,none,34729,0.0011344224913045764,0.0009059070725925267,-0.07209542393684387,-35.3632621,149.1652374,-0.005,-0.02,0.02,0.0,-9.94224101305008e-05,9.444994066143408e-05,0.0,1000,1000,1000,1000,12600,0,0.0028614939656108618,0.0027549201622605324,0.003100030589848757,10,{}
normal_corridor_base_11,0,none,35064,0.0011466675205156207,0.0009170101839117706,-0.07248874753713608,-35.3632621,149.1652374,-0.005,-0.02,0.02,0.0,-9.942235192283988e-05,9.444992610951886e-05,0.0,1000,1000,1000,1000,12600,0,0.002786464523524046,0.002937530167400837,0.0027264507953077555,10,{}
normal_corridor_base_11,0,none,35396,0.0011515262303873897,0.0009286239510402083,-0.07288168370723724,-35.3632621,149.1652374,-0.005,-0.02,0.02,0.0,-9.942235192283988e-05,9.444992610951886e-05,0.0,1000,1000,1000,1000,12600,0,0.002657857723534107,0.002888002432882786,0.0024525283370167017,10,{}
normal_corridor_base_11,0,none,35729,0.0011612002272158861,0.0009328785818070173,-0.07340934872627258,-35.3632621,149.1652374,-0.005,-0.02,0.02,0.0,-9.942234464688227e-05,9.444991155760363e-05,0.0,1000,1000,1000,1000,12600,0,0.002760563511401415,0.002866355935111642,0.0028354921378195286,10,{}
normal_corridor_base_11,0,none,36062,0.0011663094628602266,0.0009374801302328706,-0.07372839003801346,-35.3632621,149.1652374,-0.005,-0.02,0.02,0.0,-9.942230099113658e-05,9.444991155760363e-05,0.0,1000,1000,1000,1000,12600,0,0.0026951401960104704,0.002778751775622368,0.0026092042680829763,10,{}
normal_corridor_base_11,0,none,36394,0.0011755726300179958,0.0009504415793344378,-0.07408861815929413,-35.3632621,149.1652374,-0.005,-0.02,0.02,0.0,-9.942230099113658e-05,9.444991155760363e-05,0.0,1000,1000,1000,1000,12600,0,0.002937018172815442,0.002723381854593754,0.002760634059086442,10,{}
normal_corridor_base_11,0,none,36729,0.0011851645540446043,0.0009697230998426676,-0.0746011883020401,-35.3632621,149.1652374,-0.005,-0.02,0.02,0.0,-9.942232281900942e-05,9.444991883356124e-05,0.0,1000,1000,1000,1000,12600,0,0.002787989564239979,0.0026156383100897074,0.002784260082989931,10,{}
normal_corridor_base_11,0,none,37061,0.001195225166156888,0.0009850412607192993,-0.07495377212762833,-35.3632621,149.1652374,-0.005,-0.02,0.02,0.0,-9.942232281900942e-05,9.444987517781556e-05,0.0,1000,1000,1000,1000,12600,0,0.0026666701305657625,0.002785111777484417,0.002733060857281089,10,{}
normal_corridor_base_11,0,none,37394,0.0012052723905071616,0.0009980046888813376,-0.07531985640525818,-35.3632621,149.1652374,-0.005,-0.02,0.02,0.0,-9.942232281900942e-05,9.444987517781556e-05,0.0,1000,1000,1000,1000,12600,0,0.0028331996873021126,0.0030848863534629345,0.0027771969325840473,10,{}
normal_corridor_base_11,0,none,37726,0.0012097645085304976,0.0010074732126668096,-0.07567905634641647,-35.3632621,149.1652374,-0.005,-0.02,0.02,0.0,-9.942234464688227e-05,9.444990428164601e-05,0.0,1000,1000,1000,1000,12600,0,0.0028697187080979347,0.003112332196906209,0.002536181593313813,10,{}
normal_corridor_base_11,0,none,38059,0.0012155526783317327,0.00102745380718261,-0.07616548985242844,-35.3632621,149.1652374,-0.006,-0.02,0.02,0.0,-9.942232281900942e-05,9.444985334994271e-05,0.0,1000,1000,1000,1000,12600,0,0.003024093573912978,0.0026862204540520906,0.0024966266937553883,10,{}
normal_corridor_base_11,0,none,38392,0.0012280448572710156,0.0010368991643190384,-0.07651591300964355,-35.3632621,149.1652374,-0.006,-0.02,0.02,0.0,-9.942232281900942e-05,9.444985334994271e-05,0.0,1000,1000,1000,1000,12600,0,0.0029384715016931295,0.002877888036891818,0.002699473174288869,10,{}
normal_corridor_base_11,0,none,38727,0.0012383963912725449,0.0010410932591184974,-0.0768585056066513,-35.3632621,149.1652374,-0.006,-0.02,0.02,0.0,-9.942233009496704e-05,9.444986790185794e-05,0.0,1000,1000,1000,1000,12600,0,0.002700249897316098,0.002802492119371891,0.002812760416418314,10,{}
normal_corridor_base_11,0,none,39059,0.0012481390731409192,0.00106300029437989,-0.07732131332159042,-35.3632621,149.1652374,-0.006,-0.02,0.02,0.0,-9.942227188730612e-05,9.444986062590033e-05,0.0,1000,1000,1000,1000,12600,0,0.002997615374624729,0.0030995465349406004,0.0028631389141082764,10,{}
normal_corridor_base_11,0,none,39391,0.001251066685654223,0.0010643454734236002,-0.07766275107860565,-35.3632621,149.1652374,-0.006,-0.02,0.02,0.0,-9.942227188730612e-05,9.444986062590033e-05,0.0,1000,1000,1000,1000,12600,0,0.002792170038446784,0.0026255715638399124,0.002916268538683653,10,{}
normal_corridor_base_11,0,none,39724,0.0012529651867225766,0.0010742871090769768,-0.07799555361270905,-35.3632621,149.1652374,-0.006,-0.02,0.02,0.0,-9.94222573353909e-05,9.444988245377317e-05,0.0,1000,1000,1000,1000,12600,0,0.0028062465135008097,0.0028160903602838516,0.0027045574970543385,10,{}
normal_corridor_base_11,0,none,40057,0.0012598318280652165,0.001076243701390922,-0.07844098657369614,-35.3632621,149.1652374,-0.006,-0.02,0.02,0.0,-9.942225005943328e-05,9.444991155760363e-05,0.0,1000,1000,1000,1000,12600,0,0.0026672559324651957,0.0031725566368550062,0.002655304502695799,10,{}
normal_corridor_base_11,0,none,40392,0.0012703815009444952,0.0010896960739046335,-0.07875031232833862,-35.3632621,149.1652374,-0.006,-0.02,0.02,0.0,-9.942225005943328e-05,9.444991155760363e-05,0.0,1000,1000,1000,1000,12600,0,0.0026632756926119328,0.0029220536816865206,0.003107399446889758,10,{}
normal_corridor_base_11,0,none,40724,0.00127659912686795,0.001092887599952519,-0.07906040549278259,-35.3632621,149.1652374,-0.006,-0.02,0.02,0.0,-9.942225005943328e-05,9.444992610951886e-05,0.0,1000,1000,1000,1000,12600,0,0.0026536292862147093,0.002871546894311905,0.0027671430725604296,10,{}
normal_corridor_base_11,0,none,41056,0.0012860323768109083,0.0011011423775926232,-0.07942060381174088,-35.3632621,149.1652374,-0.006,-0.02,0.02,0.0,-9.94222573353909e-05,9.444992610951886e-05,0.0,1000,1000,1000,1000,12600,0,0.002656626980751753,0.0028557393234223127,0.0026892831083387136,10,{}
normal_corridor_base_11,0,none,41389,0.0012937673600390553,0.0011130982311442494,-0.07972516864538193,-35.3632621,149.1652374,-0.006,-0.02,0.02,0.0,-9.94222573353909e-05,9.444992610951886e-05,0.0,1000,1000,1000,1000,12600,0,0.002734714187681675,0.003120271721854806,0.0028130465652793646,10,{}
normal_corridor_base_11,0,none,41724,0.0013027745299041271,0.0011223972542211413,-0.08003151416778564,-35.3632621,149.1652374,-0.006,0.0,0.0,0.0,-9.942229371517897e-05,9.444990428164601e-05,0.0,1000,1000,1000,1000,12600,0,0.002911861054599285,0.002796322340145707,0.002910271752625704,10,{}
normal_corridor_base_11,0,none,42057,0.001379975932650268,0.0011985789751634002,-0.08042872697114944,-35.3632621,149.1652374,-0.006,0.0,0.0,0.0,-9.942229371517897e-05,9.444990428164601e-05,0.0,1000,1000,1000,1000,12600,0,0.002884776098653674,0.002695983974263072,0.00278518907725811,10,{}
normal_corridor_base_11,0,none,42389,0.001453361939638853,0.0012755125062540174,-0.08074535429477692,-35.3632621,149.1652374,-0.006,0.0,0.0,0.0,-9.942229371517897e-05,9.444990428164601e-05,0.0,1000,1000,1000,1000,12600,0,0.003045953344553709,0.003032101783901453,0.0026866227854043245,10,{}
normal_corridor_base_11,0,none,42722,0.0015167640522122383,0.0013423021882772446,-0.08104418218135834,-35.3632621,149.1652374,-0.006,0.0,0.0,0.0,-9.942230099113658e-05,9.444993338547647e-05,0.0,1000,1000,1000,1000,12600,0,0.002922793384641409,0.0024713664315640926,0.0024586613290011883,10,{}
normal_corridor_base_11,0,none,43054,0.001596036832779646,0.0014183787861838937,-0.08145105838775635,-35.3632621,149.1652374,-0.006,-0.01,0.01,0.0,-9.942230099113658e-05,9.444991155760363e-05,0.0,1000,1000,1000,1000,12600,0,0.0025750843342393637,0.002923642983660102,0.0028033247217535973,10,{}
normal_corridor_base_11,0,none,43389,0.0016329302452504635,0.0014493041671812534,-0.08176402002573013,-35.3632621,149.1652374,-0.006,-0.01,0.01,0.0,-9.942230099113658e-05,9.444991155760363e-05,0.0,1000,1000,1000,1000,12600,0,0.002660946222022176,0.002983517711982131,0.0028423983603715897,10,{}
normal_corridor_base_11,0,none,43721,0.0016595508204773068,0.0014764227671548724,-0.08206714689731598,-35.3632621,149.1652374,-0.006,-0.01,0.01,0.0,-9.942233009496704e-05,9.444983879802749e-05,0.0,1000,1000,1000,1000,12600,0,0.0025006625801324844,0.002869984833523631,0.0027518561109900475,10,{}
normal_corridor_base_11,0,none,44054,0.0016594113549217582,0.0014788357075303793,-0.08247735351324081,-35.3632621,149.1652374,-0.006,-0.01,0.01,0.0,-9.942237375071272e-05,9.444988972973078e-05,0.0,1000,1000,1000,1000,12600,0,0.0027775135822594166,0.0031717654783278704,0.002611886477097869,10,{}
normal_corridor_base_11,0,none,44387,0.0016327473567798734,0.001450760057196021,-0.08277595043182373,-35.3632621,149.1652375,-0.006,-0.01,0.02,0.0,-9.942237375071272e-05,9.444988972973078e-05,0.0,1000,1000,1000,1000,12600,0,0.0027468909975141287,0.00292516453191638,0.002861234126612544,10,{}
normal_corridor_base_11,0,none,44719,0.0016104812966659665,0.001418139087036252,-0.08305767178535461,-35.3632621,149.1652375,-0.006,-0.01,0.02,0.0,-9.942239557858557e-05,9.444988245377317e-05,0.0,1000,1000,1000,1000,12600,0,0.0027613015845417976,0.0027049279306083918,0.0026829519774764776,10,{}
normal_corridor_base_11,0,none,45054,0.0015425040619447827,0.0013600611127912998,-0.08343403041362762,-35.3632621,149.1652375,-0.006,-0.01,0.02,0.0,-9.942233737092465e-05,9.444986062590033e-05,0.0,1000,1000,1000,1000,12600,0,0.002748071448877454,0.0028288692701607943,0.002902423497289419,10,{}
normal_corridor_base_11,0,none,45359,0.001479779719375074,0.0012987024383619428,-0.08371084183454514,-35.3632622,149.1652375,-0.006,-0.01,0.02,0.0,-9.942233737092465e-05,9.444986062590033e-05,0.0,1000,1000,1000,1000,12600,0,0.002571113407611847,0.0028456051368266344,0.002653334755450487,10,{}
normal_corridor_base_11,0,none,45609,0.0014392905868589878,0.0012611208949238062,-0.08392900973558426,-35.3632622,149.1652375,-0.006,-0.01,0.02,0.0,-9.942233737092465e-05,9.444988972973078e-05,0.0,1000,1000,1000,1000,12600,0,0.002571113407611847,0.0028456051368266344,0.002653334755450487,10,{}
normal_corridor_base_11,0,none,45859,0.0013833766570314765,0.0012024238239973783,-0.0841258093714714,-35.3632622,149.1652375,-0.006,-0.01,0.02,0.0,-9.942232281900942e-05,9.444988245377317e-05,0.0,1000,1000,1000,1000,12600,0,0.0030986382625997066,0.0027661113999783993,0.0028485991060733795,10,{}
normal_corridor_base_11,0,none,46109,0.0013420513132587075,0.001157171092927456,-0.0843360424041748,-35.3632622,149.1652375,-0.006,-0.01,0.01,0.0,-9.942230099113658e-05,9.444987517781556e-05,0.0,1000,1000,1000,1000,12600,0,0.002964441664516926,0.0029269512742757797,0.002818138338625431,10,{}
normal_corridor_base_11,0,none,46357,0.001302325981669128,0.0011121886782348156,-0.0845024436712265,-35.3632622,149.1652375,-0.006,-0.01,0.01,0.0,-9.942227916326374e-05,9.444988245377317e-05,0.0,1000,1000,1000,1000,12600,0,0.0026376990135759115,0.0026923753321170807,0.002795394277200103,10,{}
normal_corridor_base_11,0,none,46607,0.0012755653588101268,0.0010910893324762583,-0.08466821908950806,-35.3632622,149.1652375,-0.006,-0.01,0.01,0.0,-9.942231554305181e-05,9.444991883356124e-05,0.0,1000,1000,1000,1000,12600,0,0.0025980600621551275,0.002760016592219472,0.002596876583993435,10,{}
normal_corridor_base_11,0,none,46857,0.0012299279915168881,0.0010512996232137084,-0.08486584573984146,-35.3632622,149.1652375,-0.006,-0.01,0.01,0.0,-9.942226461134851e-05,9.444991155760363e-05,0.0,1000,1000,1000,1000,12600,0,0.0029620593413710594,0.0027733377646654844,0.002418660558760166,10,{}
normal_corridor_base_11,0,none,47109,0.001197610516101122,0.001022752607241273,-0.08504755795001984,-35.3632621,149.1652375,-0.006,-0.01,0.01,0.0,-9.942224278347567e-05,9.444992610951886e-05,0.0,1000,1000,1000,1000,12600,0,0.0028424265328794718,0.0027120981831103563,0.0024378583766520023,10,{}
normal_corridor_base_11,0,none,47359,0.0011716082226485014,0.0010006602387875319,-0.08523144572973251,-35.3632621,149.1652375,-0.006,-0.01,0.01,0.0,-9.942222095560282e-05,9.444990428164601e-05,0.0,1000,1000,1000,1000,12600,0,0.002942302729934454,0.00285010295920074,0.0027276657056063414,10,{}
normal_corridor_base_11,0,none,47609,0.0011574157979339361,0.0009868261404335499,-0.08540232479572296,-35.3632621,149.1652375,-0.006,-0.01,0.01,0.0,-9.942217729985714e-05,9.444986790185794e-05,0.0,1000,1000,1000,1000,12600,0,0.0027303090319037437,0.0027330066077411175,0.002782264491543174,10,{}
normal_corridor_base_11,0,none,47859,0.0011315657757222652,0.0009639391209930182,-0.08558480441570282,-35.3632621,149.1652375,-0.006,-0.01,0.01,0.0,-9.942214819602668e-05,9.444982424611226e-05,0.0,1000,1000,1000,1000,12600,0,0.002810887759551406,0.002708232030272484,0.002716965042054653,10,{}
normal_corridor_base_11,0,none,48109,0.0011161502916365862,0.0009478863212279975,-0.08574502170085907,-35.3632621,149.1652375,-0.006,-0.01,0.01,0.0,-9.942212636815384e-05,9.444983152206987e-05,0.0,1000,1000,1000,1000,12600,0,0.0030491205397993326,0.002733191242441535,0.002740527968853712,10,{}
normal_corridor_base_11,0,none,48357,0.001106012612581253,0.00093677086988464,-0.08592470735311508,-35.3632621,149.1652375,-0.006,-0.01,0.01,0.0,-9.9422104540281e-05,9.444981697015464e-05,0.0,1000,1000,1000,1000,12600,0,0.0027207722887396812,0.0029172629583626986,0.0028043659403920174,10,{}
normal_corridor_base_11,0,none,48607,0.0010997147765010595,0.0009313396876677871,-0.08608714491128922,-35.3632621,149.1652375,-0.006,-0.01,0.01,0.0,-9.942207543645054e-05,9.444981697015464e-05,0.0,1000,1000,1000,1000,12600,0,0.002890377538278699,0.0026794741861522198,0.0029869847930967808,10,{}
normal_corridor_base_11,0,none,48857,0.0010899577755481005,0.00092239526566118,-0.08624351769685745,-35.3632621,149.1652375,-0.006,-0.01,0.01,0.0,-9.942206816049293e-05,9.444978786632419e-05,0.0,1000,1000,1000,1000,12600,0,0.002804914489388466,0.003062453819438815,0.002783847041428089,10,{}
normal_corridor_base_11,0,none,49107,0.0010843358468264341,0.0009157821768894792,-0.08641350269317627,-35.3632621,149.1652375,-0.006,-0.01,0.01,0.0,-9.942201722878963e-05,9.444976603845134e-05,0.0,1000,1000,1000,1000,12600,0,0.0029323778580874205,0.0030525163747370243,0.0026932063046842813,10,{}
normal_corridor_base_11,0,none,49359,0.0010836297878995538,0.0009114728891290724,-0.0865660011768341,-35.3632621,149.1652375,-0.006,-0.01,0.01,0.0,-9.942196629708633e-05,9.444973693462089e-05,0.0,1000,1000,1000,1000,12600,0,0.002685017418116331,0.002609838033095002,0.002766446676105261,10,{}
normal_corridor_base_11,0,none,49609,0.001083314185962081,0.0009116774308495224,-0.08672421425580978,-35.3632621,149.1652375,-0.006,-0.01,0.01,0.0,-9.942197357304394e-05,9.444972965866327e-05,0.0,1000,1000,1000,1000,12600,0,0.0027467922773212194,0.0029318167362362146,0.0026389684062451124,10,{}
normal_corridor_base_11,0,none,49859,0.0010767091298475862,0.0009133914718404412,-0.08688103407621384,-35.3632621,149.1652375,-0.006,-0.01,0.01,0.0,-9.942198812495917e-05,9.444971510674804e-05,0.0,1000,1000,1000,1000,12600,0,0.0026736531872302294,0.0027801760006695986,0.0026876882184296846,10,{}
normal_corridor_base_11,0,none,50109,0.0010772880632430315,0.0009144202340394258,-0.08704080432653427,-35.3632621,149.1652375,-0.006,-0.01,0.01,0.0,-9.942198812495917e-05,9.444970055483282e-05,0.0,1000,1000,1000,1000,12600,0,0.002833524253219366,0.0027619735337793827,0.0027765596751123667,10,{}
normal_corridor_base_11,0,none,50357,0.0010809910017997026,0.0009157849126495421,-0.08718764036893845,-35.3632621,149.1652375,-0.006,-0.01,0.01,0.0,-9.942198084900156e-05,9.444967145100236e-05,0.0,1000,1000,1000,1000,12600,0,0.0024278932251036167,0.0027282009832561016,0.002920859958976507,10,{}
normal_corridor_base_11,0,none,50607,0.0010836353758350015,0.0009140715119428933,-0.08734989911317825,-35.3632621,149.1652375,-0.006,-0.01,0.01,0.0,-9.942197357304394e-05,9.444961324334145e-05,0.0,1000,1000,1000,1000,12600,0,0.002853745361790061,0.0029560495167970657,0.0026965592987835407,10,{}
normal_corridor_base_11,0,none,50857,0.0010847687954083085,0.0009121404145844281,-0.08749409765005112,-35.3632621,149.1652375,-0.006,-0.01,0.01,0.0,-9.942192991729826e-05,9.444955503568053e-05,0.0,1000,1000,1000,1000,12600,0,0.0027642769273370504,0.0030450865160673857,0.002888584043830633,10,{}
normal_corridor_base_11,0,none,51107,0.0010859727626666427,0.0009131425758823752,-0.08764319121837616,-35.3632621,149.1652375,-0.006,-0.01,0.01,0.0,-9.942192264134064e-05,9.444954775972292e-05,0.0,1000,1000,1000,1000,12600,0,0.002756689442321658,0.002719373442232609,0.0027006652671843767,10,{}
normal_corridor_base_11,0,none,51359,0.0010868506506085396,0.0009175626910291612,-0.08778399229049683,-35.3632621,149.1652375,-0.006,-0.01,0.01,0.0,-9.942188626155257e-05,9.444952593185008e-05,0.0,1000,1000,1000,1000,12600,0,0.002846841234713793,0.0027739584911614656,0.002557207830250263,10,{}
normal_corridor_base_11,0,none,51609,0.0010907595278695226,0.0009178295731544495,-0.08793086558580399,-35.3632621,149.1652375,-0.006,-0.01,0.01,0.0,-9.942188626155257e-05,9.444949682801962e-05,0.0,1000,1000,1000,1000,12600,0,0.0028616972267627716,0.0030034955125302076,0.002972721355035901,10,{}
normal_corridor_base_11,0,none,51859,0.0010945609537884593,0.0009136635926552117,-0.08806651085615158,-35.3632621,149.1652375,-0.006,-0.01,0.01,0.0,-9.94219008134678e-05,9.444951137993485e-05,0.0,1000,1000,1000,1000,12600,0,0.002981453202664852,0.0026728399097919464,0.0029063106048852205,10,{}
normal_corridor_base_11,0,none,52109,0.001098877633921802,0.0009065615013241768,-0.08821754157543182,-35.3632621,149.1652375,-0.006,-0.01,0.01,0.0,-9.94219008134678e-05,9.4449489552062e-05,0.0,1000,1000,1000,1000,12600,0,0.002923040883615613,0.0024742335081100464,0.0028510168194770813,10,{}
normal_corridor_base_11,0,none,52359,0.0011044458951801062,0.0009058786672540009,-0.08834592998027802,-35.3632621,149.1652375,-0.006,-0.01,0.01,0.0,-9.942188626155257e-05,9.444948227610439e-05,0.0,1000,1000,1000,1000,12600,0,0.002700075274333358,0.0028381752781569958,0.0027657821774482727,10,{}
normal_corridor_base_11,0,none,52607,0.001109062577597797,0.0009166827076114714,-0.08845909684896469,-35.3632621,149.1652375,-0.006,-0.01,0.01,0.0,-9.942186443367973e-05,9.444945317227393e-05,0.0,1000,1000,1000,1000,12600,0,0.0030767873395234346,0.0026920665986835957,0.0027921046130359173,10,{}
normal_corridor_base_11,0,none,52857,0.0011100494302809238,0.0009182153735309839,-0.08859853446483612,-35.3632621,149.1652375,-0.006,-0.01,0.01,0.0,-9.942182077793404e-05,9.444941679248586e-05,0.0,1000,1000,1000,1000,12600,0,0.002857872284948826,0.0030428499449044466,0.002914107870310545,10,{}
normal_corridor_base_11,0,none,53107,0.0011102529242634773,0.000914226402528584,-0.08872886747121811,-35.3632621,149.1652375,-0.006,-0.01,0.01,0.0,-9.942186443367973e-05,9.44494386203587e-05,0.0,1000,1000,1000,1000,12600,0,0.0026771798729896545,0.0028078118339180946,0.002763086697086692,10,{}
normal_corridor_base_11,0,none,53359,0.0011165087344124913,0.0009218102204613388,-0.08887452632188797,-35.3632621,149.1652375,-0.006,-0.01,0.01,0.0,-9.942187170963734e-05,9.444946044823155e-05,0.0,1000,1000,1000,1000,12600,0,0.0027506540063768625,0.0026006281841546297,0.002626319183036685,10,{}
normal_corridor_base_11,0,none,53609,0.001130168791860342,0.0009308191947638988,-0.0890049859881401,-35.3632621,149.1652375,-0.006,-0.01,0.01,0.0,-9.942181350197643e-05,9.444940951652825e-05,0.0,1000,1000,1000,1000,12600,0,0.002713617868721485,0.00301196682266891,0.0027076255064457655,10,{}
normal_corridor_base_11,0,none,53859,0.0011319947661831975,0.0009267268469557166,-0.08913467079401016,-35.3632621,149.1652375,-0.006,-0.01,0.01,0.0,-9.942180622601882e-05,9.444942406844348e-05,0.0,1000,1000,1000,1000,12600,0,0.002530421130359173,0.0027555502019822598,0.002873047022148967,10,{}
normal_corridor_base_11,0,none,54109,0.0011332229478284717,0.000935083138756454,-0.08926977217197418,-35.3632621,149.1652375,-0.006,-0.01,0.01,0.0,-9.942177712218836e-05,9.444941679248586e-05,0.0,1000,1000,1000,1000,12600,0,0.0029445025138556957,0.0027861802373081446,0.0029055504128336906,10,{}
normal_corridor_base_11,0,none,54359,0.0011347508989274502,0.0009401349816471338,-0.08939773589372635,-35.3632621,149.1652375,-0.006,-0.01,0.01,0.0,-9.942174074240029e-05,9.444936586078256e-05,0.0,1000,1000,1000,1000,12600,0,0.0029112566262483597,0.0028869768138974905,0.0029184368904680014,10,{}
normal_corridor_base_11,0,none,54607,0.001145786838606,0.0009493388934060931,-0.08952122181653976,-35.3632621,149.1652375,-0.006,-0.01,0.01,0.0,-9.942173346644267e-05,9.444938041269779e-05,0.0,1000,1000,1000,1000,12600,0,0.002589056733995676,0.0028299414552748203,0.0026409763377159834,10,{}
normal_corridor_base_11,0,none,54857,0.001144826295785606,0.000947308202739805,-0.08964657038450241,-35.3632621,149.1652375,-0.006,-0.01,0.01,0.0,-9.942174074240029e-05,9.444933675695211e-05,0.0,1000,1000,1000,1000,12600,0,0.0031821478623896837,0.0028687571175396442,0.0029707627836614847,10,{}
normal_corridor_base_11,0,none,55107,0.001146528753452003,0.0009491603705100715,-0.08977216482162476,-35.3632621,149.1652375,-0.006,-0.01,0.01,0.0,-9.942173346644267e-05,9.444929310120642e-05,0.0,1000,1000,1000,1000,12600,0,0.0027446968015283346,0.0028260392136871815,0.002674097428098321,10,{}
normal_corridor_base_11,0,none,55357,0.0011458054650574923,0.0009519106242805719,-0.08989275246858597,-35.3632621,149.1652375,-0.006,-0.01,0.01,0.0,-9.942174074240029e-05,9.444929310120642e-05,0.0,1000,1000,1000,1000,12600,0,0.002567561808973551,0.002525416435673833,0.0025980344507843256,10,{}
normal_corridor_base_11,0,none,55609,0.0011497512459754944,0.0009569270769134164,-0.09002306312322617,-35.3632621,149.1652375,-0.006,-0.01,0.01,0.0,-9.942171891452745e-05,9.44492785492912e-05,0.0,1000,1000,1000,1000,12600,0,0.002695290371775627,0.0031588468700647354,0.0026334859430789948,10,{}
normal_corridor_base_11,0,none,55859,0.001146637019701302,0.0009505224879831076,-0.0901414081454277,-35.3632621,149.1652375,-0.006,-0.01,0.01,0.0,-9.942170436261222e-05,9.444929310120642e-05,0.0,1000,1000,1000,1000,12600,0,0.0026250488590449095,0.0027982108294963837,0.0025702097918838263,10,{}
normal_corridor_base_11,0,none,56109,0.0011456083739176393,0.0009517219150438905,-0.09026864171028137,-35.3632621,149.1652375,-0.006,-0.01,0.01,0.0,-9.942168253473938e-05,9.444927127333358e-05,0.0,1000,1000,1000,1000,12600,0,0.0027849364560097456,0.002856514183804393,0.003040461568161845,10,{}
normal_corridor_base_11,0,none,56359,0.001150742289610207,0.0009558619349263608,-0.09038730710744858,-35.3632621,149.1652375,-0.006,-0.01,0.01,0.0,-9.942167525878176e-05,9.444924216950312e-05,0.0,1000,1000,1000,1000,12600,0,0.0027203415520489216,0.002890425967052579,0.003163292771205306,10,{}
normal_corridor_base_11,0,none,56607,0.001152109820395708,0.0009611812420189381,-0.09050841629505157,-35.3632621,149.1652375,-0.006,-0.01,0.01,0.0,-9.94216970866546e-05,9.444927127333358e-05,0.0,1000,1000,1000,1000,12600,0,0.0027449512854218483,0.0026981437113136053,0.0027362967375665903,10,{}
normal_corridor_base_11,0,none,56857,0.0011377293849363923,0.0009589620749466121,-0.09059562534093857,-35.3632621,149.1652375,-0.006,-0.01,0.01,0.0,-9.942174074240029e-05,9.444930037716404e-05,0.0,1000,1000,1000,1000,12600,0,0.0028524380177259445,0.002723886864259839,0.002717749448493123,10,{}
normal_corridor_base_11,0,none,57107,0.0011325697414577007,0.0009548433008603752,-0.09071137011051178,-35.3632621,149.1652375,-0.006,-0.01,0.01,0.0,-9.942178439814597e-05,9.444930037716404e-05,0.0,1000,1000,1000,1000,12600,0,0.0027467580512166023,0.002944682026281953,0.0027957407291978598,10,{}
normal_corridor_base_11,0,none,57357,0.0011408913414925337,0.0009567330125719309,-0.09083002805709839,-35.3632621,149.1652375,-0.006,-0.01,0.01,0.0,-9.942182077793404e-05,9.444934403290972e-05,0.0,1000,1000,1000,1000,12600,0,0.002813530620187521,0.00291701452806592,0.0027251604478806257,10,{}
normal_corridor_base_11,0,none,57609,0.0011471644975245,0.0009653907036408782,-0.09094556421041489,-35.3632622,149.1652375,-0.006,-0.01,0.01,0.0,-9.942180622601882e-05,9.444935130886734e-05,0.0,1000,1000,1000,1000,12600,0,0.0026687553618103266,0.002612673444673419,0.002502416493371129,10,{}
normal_corridor_base_11,0,none,57859,0.0011461941758170724,0.0009619080810807645,-0.09105420857667923,-35.3632622,149.1652375,-0.006,-0.01,0.01,0.0,-9.942182805389166e-05,9.444936586078256e-05,0.0,1000,1000,1000,1000,12600,0,0.0026686876080930233,0.0025595328770577908,0.002613175194710493,10,{}
normal_corridor_base_11,0,none,58109,0.0011505525326356292,0.0009610041161067784,-0.09116332978010178,-35.3632621,149.1652375,-0.006,-0.01,0.01,0.0,-9.942185715772212e-05,9.444940224057063e-05,0.0,1000,1000,1000,1000,12600,0,0.0025921626947820187,0.002722289878875017,0.0025753893423825502,10,{}
normal_corridor_base_11,0,none,58359,0.001154232071712613,0.000966985709965229,-0.09127876162528992,-35.3632622,149.1652375,-0.006,-0.01,0.01,0.0,-9.94218498817645e-05,9.444938041269779e-05,0.0,1000,1000,1000,1000,12600,0,0.003136976854875684,0.00285535492002964,0.002741058124229312,10,{}
normal_corridor_base_11,0,none,58609,0.0011553011136129498,0.0009718756773509085,-0.09138531237840652,-35.3632622,149.1652375,-0.006,-0.01,0.01,0.0,-9.942191536538303e-05,9.444943134440109e-05,0.0,1000,1000,1000,1000,12600,0,0.0033145740162581205,0.0030581026803702116,0.0028399054426699877,10,{}
normal_corridor_base_11,0,none,58857,0.0011541019193828106,0.0009683457319624722,-0.09149757027626038,-35.3632622,149.1652375,-0.006,-0.01,0.01,0.0,-9.94219517451711e-05,9.444946772418916e-05,0.0,1000,1000,1000,1000,12600,0,0.002873932244256139,0.002750982763245702,0.002643563784658909,10,{}
normal_corridor_base_11,0,none,59107,0.0011552872601896524,0.0009689393336884677,-0.09160509705543518,-35.3632621,149.1652375,-0.006,-0.01,0.01,0.0,-9.942193719325587e-05,9.444942406844348e-05,0.0,1000,1000,1000,1000,12600,0,0.0027203550562262535,0.0027573516126722097,0.0026316349394619465,10,{}
normal_corridor_base_11,0,none,59357,0.001157941878773272,0.00097500323317945,-0.0917072743177414,-35.3632622,149.1652375,-0.006,-0.01,0.01,0.0,-9.942193719325587e-05,9.444938041269779e-05,0.0,1000,1000,1000,1000,12600,0,0.002996547147631645,0.002563196700066328,0.0026640347205102444,10,{}
normal_corridor_base_11,0,none,59609,0.0011633834801614285,0.0009801442502066493,-0.09181450307369232,-35.3632622,149.1652375,-0.006,-0.01,0.01,0.0,-9.942194446921349e-05,9.444936586078256e-05,0.0,1000,1000,1000,1000,12600,0,0.002974344417452812,0.0027255008462816477,0.002718479372560978,10,{}
normal_corridor_base_11,0,none,59859,0.001150948228314519,0.0009753514314070344,-0.09191413968801498,-35.3632621,149.1652375,-0.006,-0.01,0.01,0.0,-9.942197357304394e-05,9.44493876886554e-05,0.0,1000,1000,1000,1000,12600,0,0.002691302914172411,0.0028327982872724533,0.002781176706776023,10,{}
normal_corridor_base_11,0,none,60109,0.001150992582552135,0.0009697595960460603,-0.0920155718922615,-35.3632621,149.1652375,-0.006,-0.01,0.01,0.0,-9.942198812495917e-05,9.444936586078256e-05,0.0,1000,1000,1000,1000,12600,0,0.0030766644049435854,0.0027686390094459057,0.0027320855297148228,10,{}
normal_corridor_base_11,0,none,60359,0.001152415294200182,0.0009686223929747939,-0.0921175554394722,-35.3632621,149.1652375,-0.006,-0.01,0.01,0.0,-9.942203178070486e-05,9.444936586078256e-05,0.0,1000,1000,1000,1000,12600,0,0.00264367600902915,0.0028392449021339417,0.0027064899913966656,10,{}
normal_corridor_base_11,0,none,60609,0.0011598190758377314,0.0009716156055219471,-0.09221701323986053,-35.3632622,149.1652375,-0.006,-0.01,0.01,0.0,-9.942204633262008e-05,9.444936586078256e-05,0.0,1000,1000,1000,1000,12600,0,0.0027707696426659822,0.002933873562142253,0.0028347743209451437,10,{}
normal_corridor_base_11,0,none,60857,0.0011504931608214974,0.0009576431475579739,-0.09232048690319061,-35.3632621,149.1652375,-0.006,-0.01,0.01,0.0,-9.942202450474724e-05,9.444936586078256e-05,0.0,1000,1000,1000,1000,12600,0,0.002845232840627432,0.0027584449853748083,0.00260436930693686,10,{}
normal_corridor_base_11,0,none,61107,0.0011541639687493443,0.0009533643024042249,-0.09242001920938492,-35.3632621,149.1652375,-0.006,-0.01,0.01,0.0,-9.94220536085777e-05,9.444938041269779e-05,0.0,1000,1000,1000,1000,12600,0,0.002500199945643544,0.0029055047780275345,0.002839866327121854,10,{}
normal_corridor_base_11,0,none,61357,0.0011569516500458121,0.0009570189868099988,-0.09251154214143753,-35.3632622,149.1652375,-0.006,-0.01,0.01,0.0,-9.942203905666247e-05,9.444936586078256e-05,0.0,1000,1000,1000,1000,12600,0,0.0030743605457246304,0.003097902750596404,0.0030541466549038887,10,{}
normal_corridor_base_11,0,none,61607,0.0011638278374448419,0.0009604333317838609,-0.0926051139831543,-35.3632622,149.1652375,-0.006,-0.01,0.01,0.0,-9.942208271240816e-05,9.444936586078256e-05,0.0,1000,1000,1000,1000,12600,0,0.002756094792857766,0.0028211004100739956,0.0029993485659360886,10,{}
normal_corridor_base_11,0,none,61859,0.0011544275330379605,0.0009527966612949967,-0.09268105775117874,-35.3632622,149.1652375,-0.006,-0.01,0.01,0.0,-9.942209726432338e-05,9.444940951652825e-05,0.0,1000,1000,1000,1000,12600,0,0.002897427650168538,0.0027740972582250834,0.0030336007475852966,10,{}
normal_corridor_base_11,0,none,62109,0.0011569677153602242,0.0009554944699630141,-0.09277230501174927,-35.3632622,149.1652375,-0.006,-0.01,0.01,0.0,-9.9422104540281e-05,9.444942406844348e-05,0.0,1000,1000,1000,1000,12600,0,0.002576263854280114,0.0028237842489033937,0.00281587615609169,10,{}
normal_corridor_base_11,0,none,62359,0.001162378117442131,0.0009543164051137865,-0.09286495298147202,-35.3632622,149.1652375,-0.006,-0.01,0.01,0.0,-9.942212636815384e-05,9.444945317227393e-05,0.0,1000,1000,1000,1000,12600,0,0.0026123153511434793,0.0026703509502112865,0.0027822148986160755,10,{}
normal_corridor_base_11,0,none,62609,0.0011630640365183353,0.0009633832378312945,-0.09295174479484558,-35.3632622,149.1652375,-0.006,-0.01,0.01,0.0,-9.942212636815384e-05,9.444947500014678e-05,0.0,1000,1000,1000,1000,12600,0,0.002607963513582945,0.00300018722191453,0.0027914310339838266,10,{}
normal_corridor_base_11,0,none,62857,0.001160485320724547,0.0009621976059861481,-0.09304482489824295,-35.3632621,149.1652375,-0.006,-0.01,0.01,0.0,-9.942214092006907e-05,9.4449489552062e-05,0.0,1000,1000,1000,1000,12600,0,0.002651479560881853,0.003121313638985157,0.0026552302297204733,10,{}
normal_corridor_base_11,0,none,63107,0.0011597730917856097,0.0009676816989667714,-0.09314043819904327,-35.3632622,149.1652375,-0.006,-0.01,0.01,0.0,-9.942209726432338e-05,9.444941679248586e-05,0.0,1000,1000,1000,1000,12600,0,0.0029293911065906286,0.0028691685292869806,0.0026994990184903145,10,{}
normal_corridor_base_11,0,none,63357,0.0011584697058424354,0.0009658655035309494,-0.0932370126247406,-35.3632622,149.1652375,-0.006,-0.01,0.01,0.0,-9.942211181623861e-05,9.444940951652825e-05,0.0,1000,1000,1000,1000,12600,0,0.0027864265721291304,0.0026744119822978973,0.002895828802138567,10,{}
normal_corridor_base_11,0,none,63607,0.0011627428466454148,0.0009755063219927251,-0.0933191254734993,-35.3632622,149.1652375,-0.006,-0.01,0.01,0.0,-9.942211181623861e-05,9.44493876886554e-05,0.0,1000,1000,1000,1000,12600,0,0.002906401641666889,0.00250183860771358,0.0027420709375292063,10,{}
normal_corridor_base_11,0,none,63859,0.0011575233656913042,0.0009708762518130243,-0.09340231865644455,-35.3632622,149.1652375,-0.006,-0.01,0.01,0.0,-9.942211181623861e-05,9.444943134440109e-05,0.0,1000,1000,1000,1000,12600,0,0.002907722955569625,0.0029737127479165792,0.0028477597516030073,10,{}
normal_corridor_base_11,0,none,64109,0.0011629948858171701,0.0009625497623346746,-0.09349004924297333,-35.3632622,149.1652375,-0.006,-0.01,0.01,0.0,-9.942211909219623e-05,9.444942406844348e-05,0.0,1000,1000,1000,1000,12600,0,0.0027221243362873793,0.003016339847818017,0.0031026387587189674,10,{}
normal_corridor_base_11,0,none,64359,0.0011643841862678528,0.0009647234110161662,-0.0935746431350708,-35.3632622,149.1652375,-0.006,-0.01,0.01,0.0,-9.942214819602668e-05,9.444943134440109e-05,0.0,1000,1000,1000,1000,12600,0,0.0028825874906033278,0.00287686032243073,0.002806844422593713,10,{}
normal_corridor_base_11,0,none,64609,0.0011742374626919627,0.0009671474690549076,-0.09366049617528915,-35.3632622,149.1652375,-0.006,-0.01,0.01,0.0,-9.942217002389953e-05,9.444946044823155e-05,0.0,1000,1000,1000,1000,12600,0,0.002824182389304042,0.0028840594459325075,0.0029115660581737757,10,{}
normal_corridor_base_11,0,none,64859,0.0011716042645275593,0.0009586861706338823,-0.09374558180570602,-35.3632621,149.1652375,-0.006,-0.01,0.01,0.0,-9.942219912772998e-05,9.444946772418916e-05,0.0,1000,1000,1000,1000,12600,0,0.0028020250611007214,0.0029560797847807407,0.0029144000727683306,10,{}
normal_corridor_base_11,0,none,65107,0.0011646389029920101,0.0009524457273073494,-0.0938311368227005,-35.3632621,149.1652375,-0.006,-0.01,0.01,0.0,-9.942217729985714e-05,9.444945317227393e-05,0.0,1000,1000,1000,1000,12600,0,0.002846860559657216,0.0030448264442384243,0.0027191070839762688,10,{}
normal_corridor_base_11,0,none,65357,0.0011628345819190145,0.0009588719112798572,-0.09391337633132935,-35.3632621,149.1652375,-0.006,-0.01,0.01,0.0,-9.942219185177237e-05,9.444947500014678e-05,0.0,1000,1000,1000,1000,12600,0,0.0027609574608504772,0.0027785159181803465,0.0029155134689062834,10,{}
normal_corridor_base_11,0,none,65607,0.0011659776791930199,0.0009660838986746967,-0.09399935603141785,-35.3632622,149.1652375,-0.006,-0.01,0.01,0.0,-9.942222095560282e-05,9.444951137993485e-05,0.0,1000,1000,1000,1000,12600,0,0.0027030259370803833,0.002563867950811982,0.0027166062500327826,10,{}
normal_corridor_base_11,0,none,65859,0.0011626722989603877,0.0009607851970940828,-0.09408099204301834,-35.3632621,149.1652375,-0.006,-0.01,0.01,0.0,-9.942219912772998e-05,9.4449489552062e-05,0.0,1000,1000,1000,1000,12600,0,0.0026965041179209948,0.002991631394252181,0.002652183873578906,10,{}
normal_corridor_base_11,0,none,66109,0.0011652786051854491,0.0009615044109523296,-0.09416186809539795,-35.3632621,149.1652375,-0.006,-0.01,0.01,0.0,-9.942219185177237e-05,9.4449489552062e-05,0.0,1000,1000,1000,1000,12600,0,0.002651833463460207,0.002939603989943862,0.002944599138572812,10,{}
normal_corridor_base_11,0,none,66359,0.0011716493172571063,0.0009616982424631715,-0.0942365825176239,-35.3632621,149.1652375,-0.006,-0.01,0.01,0.0,-9.942219912772998e-05,9.444951137993485e-05,0.0,1000,1000,1000,1000,12600,0,0.0028581684455275536,0.002851201221346855,0.0026736941654235125,10,{}
normal_corridor_base_11,0,none,66609,0.0011715091532096267,0.0009742812835611403,-0.09432173520326614,-35.3632622,149.1652375,-0.006,-0.01,0.01,0.0,-9.942217729985714e-05,9.444947500014678e-05,0.0,1000,1000,1000,1000,12600,0,0.0029005699325352907,0.0027807378210127354,0.002708904445171356,10,{}
normal_corridor_base_11,0,none,66859,0.001172133139334619,0.0009718957007862628,-0.09439142793416977,-35.3632621,149.1652375,-0.006,-0.01,0.01,0.0,-9.942214819602668e-05,9.444947500014678e-05,0.0,1000,1000,1000,1000,12600,0,0.0024763979017734528,0.0028172589372843504,0.002990212058648467,10,{}
normal_corridor_base_11,0,none,67107,0.0011719756294041872,0.0009704708936624229,-0.0944526419043541,-35.3632621,149.1652375,-0.006,-0.01,0.01,0.0,-9.94221554719843e-05,9.444950410397723e-05,0.0,1000,1000,1000,1000,12600,0,0.0029315960127860308,0.002608770038932562,0.0031276470981538296,10,{}
normal_corridor_base_11,0,none,67357,0.0011737729655578732,0.0009735629428178072,-0.09451471269130707,-35.3632621,149.1652375,-0.006,-0.01,0.01,0.0,-9.942214819602668e-05,9.4449489552062e-05,0.0,1000,1000,1000,1000,12600,0,0.0029668936040252447,0.002841623267158866,0.0028961992356926203,10,{}
normal_corridor_base_11,0,none,67607,0.001176408608444035,0.0009820432169362903,-0.09458958357572556,-35.3632622,149.1652375,-0.006,-0.01,0.01,0.0,-9.942221367964521e-05,9.444949682801962e-05,0.0,1000,1000,1000,1000,12600,0,0.0026007136330008507,0.0029933638870716095,0.002721191616728902,10,{}
normal_corridor_base_11,0,none,67857,0.0011767096584662795,0.0009822479914873838,-0.09466615319252014,-35.3632621,149.1652375,-0.006,-0.01,0.01,0.0,-9.942214092006907e-05,9.444947500014678e-05,0.0,1000,1000,1000,1000,12600,0,0.002686419291421771,0.0029666952323168516,0.0027812058106064796,10,{}
normal_corridor_base_11,0,none,68109,0.0011777249164879322,0.0009811946656554937,-0.09473525732755661,-35.3632622,149.1652375,-0.006,-0.01,0.01,0.0,-9.942217002389953e-05,9.444952593185008e-05,0.0,1000,1000,1000,1000,12600,0,0.0030995316337794065,0.002659887308254838,0.0024362201802432537,10,{}
normal_corridor_base_11,0,none,68359,0.0011827886337414384,0.0009911633096635342,-0.09480980038642883,-35.3632622,149.1652375,-0.006,-0.01,0.01,0.0,-9.942214092006907e-05,9.444946044823155e-05,0.0,1000,1000,1000,1000,12600,0,0.002987128449603915,0.002749452367424965,0.002868725685402751,10,{}
normal_corridor_base_11,0,none,68609,0.0011901033576577902,0.0009955057175830007,-0.09488175809383392,-35.3632622,149.1652375,-0.006,-0.01,0.01,0.0,-9.942213364411145e-05,9.44494386203587e-05,0.0,1000,1000,1000,1000,12600,0,0.0027335314080119133,0.0030491549987345934,0.002974350471049547,10,{}
normal_corridor_base_11,0,none,68859,0.0011928011663258076,0.0009890219662338495,-0.09495220333337784,-35.3632622,149.1652375,-0.006,-0.01,0.01,0.0,-9.942213364411145e-05,9.44493876886554e-05,0.0,1000,1000,1000,1000,12600,0,0.002812271239235997,0.002663548570126295,0.00277336104772985,10,{}
