flight_id,label,attack_type,timestamp,att_roll,att_pitch,att_yaw,pos_lat,pos_lon,pos_alt_rel,pos_vx,pos_vy,pos_vz,nav_roll,nav_pitch,nav_alt_error,servo1_raw,servo2_raw,servo3_raw,servo4_raw,sys_voltage_battery,sys_load,vib_x,vib_y,vib_z,gps_sats_visible,attack_params_json
normal_corridor_base_6,0,none,10284,0.00019517980399541557,-3.890565494657494e-05,-0.3379243016242981,-35.3632621,149.1652374,0.0,0.0,0.0,-0.03,-9.942168253473938e-05,9.444944589631632e-05,0.0,1000,1000,1000,1000,12600,0,0.0027339474763721228,0.002911041025072336,0.002769358456134796,10,{}
normal_corridor_base_6,0,none,10616,0.00019640316895674914,-2.1334939447115175e-05,-0.2965931296348572,-35.3632621,149.1652374,0.0,0.0,0.0,-0.03,-9.942171163856983e-05,9.444940951652825e-05,0.0,1000,1000,1000,1000,12600,0,0.002443023957312107,0.0026354792062193155,0.0029217617120593786,10,{}
normal_corridor_base_6,0,none,10949,0.00020076862710993737,-1.7643087630858645e-05,-0.2694093585014343,-35.3632621,149.1652374,0.0,0.0,0.0,-0.03,-9.942171163856983e-05,9.444940951652825e-05,0.0,1000,1000,1000,1000,12600,0,0.002529002260416746,0.0023868533316999674,0.002627534791827202,10,{}
normal_corridor_base_6,0,none,11282,0.00020725482318084687,-9.372494787385222e-06,-0.24436047673225403,-35.3632621,149.1652374,0.0,0.0,0.0,-0.03,-9.942160977516323e-05,9.444940951652825e-05,0.0,1000,1000,1000,1000,12600,0,0.0029885161202400923,0.0025305435992777348,0.0029209256172180176,10,{}
normal_corridor_base_6,0,none,11617,0.00021460199786815792,-1.1574421705518034e-06,-0.2140260934829712,-35.3632621,149.1652374,0.0,0.0,0.0,-0.03,-9.942158067133278e-05,9.444940224057063e-05,0.0,1000,1000,1000,1000,12600,0,0.002863633679226041,0.0027381987310945988,0.0029724608175456524,10,{}
normal_corridor_base_6,0,none,11949,0.00022186701244208962,8.588142918597441e-06,-0.1939782202243805,-35.3632621,149.1652374,0.0,0.0,0.0,-0.02,-9.942158067133278e-05,9.444940224057063e-05,0.0,1000,1000,1000,1000,12600,0,0.0029391483403742313,0.0026307241059839725,0.002598474035039544,10,{}
normal_corridor_base_6,0,none,12281,0.00022325245663523674,2.0167917682556435e-05,-0.17611126601696014,-35.3632621,149.1652374,0.0,0.0,0.0,-0.02,-9.94216461549513e-05,9.444939496461302e-05,0.0,1000,1000,1000,1000,12600,0,0.002971093636006117,0.0027972417883574963,0.0027418285608291626,10,{}
normal_corridor_base_6,0,none,12614,0.00023595064703840762,2.944151492556557e-05,-0.15525595843791962,-35.3632621,149.1652374,0.0,0.0,0.0,-0.02,-9.942166070686653e-05,9.444937313674018e-05,0.0,1000,1000,1000,1000,12600,0,0.0029866909608244896,0.0029191893991082907,0.0029351948760449886,10,{}
normal_corridor_base_6,0,none,12947,0.00024225571542046964,3.658425703179091e-05,-0.14162884652614594,-35.3632621,149.1652374,0.0,0.0,0.0,-0.02,-9.942166070686653e-05,9.444937313674018e-05,0.0,1000,1000,1000,1000,12600,0,0.002652036724612117,0.0028556440956890583,0.0026955895591527224,10,{}
normal_corridor_base_6,0,none,13282,0.00024847910390235484,4.1967017750721425e-05,-0.1296234428882599,-35.3632621,149.1652374,0.0,0.0,0.0,-0.02,-9.942163160303608e-05,9.444936586078256e-05,0.0,1000,1000,1000,1000,12600,0,0.002758770016953349,0.0028550485149025917,0.0028070013504475355,10,{}
normal_corridor_base_6,0,none,13614,0.00026194495148956776,5.313839574228041e-05,-0.11579494923353195,-35.3632621,149.1652374,0.0,0.0,0.0,-0.01,-9.942163160303608e-05,9.444940951652825e-05,0.0,1000,1000,1000,1000,12600,0,0.00259967939928174,0.002679296303540468,0.002933497540652752,10,{}
normal_corridor_base_6,0,none,13946,0.00027085337205789983,5.882106415810995e-05,-0.10691496729850769,-35.3632621,149.1652374,0.0,0.0,0.0,-0.01,-9.942163160303608e-05,9.444940951652825e-05,0.0,1000,1000,1000,1000,12600,0,0.0027701263315975666,0.0027020445559173822,0.002753793029114604,10,{}
normal_corridor_base_6,0,none,14279,0.00027931362274102867,6.590747943846509e-05,-0.0991264209151268,-35.3632621,149.1652374,0.0,0.0,0.0,-0.01,-9.942152246367186e-05,9.444936586078256e-05,0.0,1000,1000,1000,1000,12600,0,0.0029746987856924534,0.0027930857613682747,0.002983375918120146,10,{}
normal_corridor_base_6,0,none,14614,0.00029493882902897894,8.042945410124958e-05,-0.0902404934167862,-35.3632621,149.1652374,0.0,0.0,0.0,-0.01,-9.942152973962948e-05,9.444933675695211e-05,0.0,1000,1000,1000,1000,12600,0,0.0030366808641701937,0.0030590679962188005,0.0026238267309963703,10,{}
normal_corridor_base_6,0,none,14947,0.00030550017254427075,9.417690307600424e-05,-0.08458688110113144,-35.3632621,149.1652374,0.0,0.0,0.0,-0.01,-9.942152973962948e-05,9.444933675695211e-05,0.0,1000,1000,1000,1000,12600,0,0.002874908968806267,0.002740771509706974,0.0028681494295597076,10,{}
normal_corridor_base_6,0,none,15359,0.0003211866714991629,0.00010703221778385341,-0.0771338939666748,-35.3632621,149.1652374,0.0,0.0,0.0,-0.01,-9.942153701558709e-05,9.444938041269779e-05,0.0,1000,1000,1000,1000,12600,0,0.002811152720823884,0.0026147400494664907,0.0027074350509792566,10,{}
normal_corridor_base_6,0,none,15609,0.0003307907027192414,0.00011150518548674881,-0.07378612458705902,-35.3632621,149.1652374,0.0,0.0,0.0,-0.01,-9.942150063579902e-05,9.444935858482495e-05,0.0,1000,1000,1000,1000,12600,0,0.002811152720823884,0.0026147400494664907,0.0027074350509792566,10,{}
normal_corridor_base_6,0,none,15859,0.0003363890282344073,0.00012000498827546835,-0.07087501883506775,-35.3632621,149.1652374,0.0,0.0,0.0,0.0,-9.942148608388379e-05,9.444936586078256e-05,0.0,1000,1000,1000,1000,12600,0,0.0026640279684215784,0.002792098093777895,0.0025840585585683584,10,{}
normal_corridor_base_6,0,none,16109,0.00034575845347717404,0.00012983879423700273,-0.06822995096445084,-35.3632621,149.1652374,0.0,0.0,0.0,0.0,-9.942147153196856e-05,9.444935858482495e-05,0.0,1000,1000,1000,1000,12600,0,0.0026499242521822453,0.002886570291593671,0.0024996548891067505,10,{}
normal_corridor_base_6,0,none,16359,0.00035378028405830264,0.0001375292195007205,-0.06591206789016724,-35.3632621,149.1652374,0.0,0.0,0.0,0.0,-9.942147153196856e-05,9.444935858482495e-05,0.0,1000,1000,1000,1000,12600,0,0.002905152505263686,0.0028612499590963125,0.0026816504541784525,10,{}
normal_corridor_base_6,0,none,16609,0.00036622723564505577,0.0001452677242923528,-0.06388644129037857,-35.3632621,149.1652374,0.0,0.0,0.0,0.0,-9.942147153196856e-05,9.444935130886734e-05,0.0,1000,1000,1000,1000,12600,0,0.0030702329240739346,0.0028023950289934874,0.0027498232666403055,10,{}
normal_corridor_base_6,0,none,16859,0.0003762731794267893,0.00015426664322149009,-0.062099505215883255,-35.3632621,149.1652374,0.0,0.0,0.0,0.0,-9.942147153196856e-05,9.444935130886734e-05,0.0,1000,1000,1000,1000,12600,0,0.003136045066639781,0.002573417266830802,0.0025887133087962866,10,{}
normal_corridor_base_6,0,none,17269,0.00038774023414589465,0.00015907306806184351,-0.06051822006702423,-35.3632621,149.1652374,0.0,0.0,0.0,0.0,-9.942145698005334e-05,9.44493876886554e-05,0.0,1000,1000,1000,1000,12600,0,0.0028869544621556997,0.002881009364500642,0.002789945574477315,10,{}
normal_corridor_base_6,0,none,17602,0.00039978791028261185,0.0001737871061777696,-0.058466389775276184,-35.3632621,149.1652374,0.0,0.0,0.0,0.0,-9.942160249920562e-05,9.444938041269779e-05,0.0,1000,1000,1000,1000,12600,0,0.003016294213011861,0.0026016102638095617,0.003029768355190754,10,{}
normal_corridor_base_6,0,none,17936,0.00041852809954434633,0.00019025888468604535,-0.056778259575366974,-35.3632621,149.1652374,0.0,0.0,0.0,0.0,-9.942166070686653e-05,9.444936586078256e-05,0.0,1000,1000,1000,1000,12600,0,0.0030783317051827908,0.002832933561876416,0.0029439814388751984,10,{}
normal_corridor_base_6,0,none,18269,0.000429679115768522,0.00020413100719451904,-0.05577734112739563,-35.3632621,149.1652374,0.0,0.0,0.0,0.0,-9.942166070686653e-05,9.444936586078256e-05,0.0,1000,1000,1000,1000,12600,0,0.00253796624019742,0.002703476930037141,0.002802085131406784,10,{}
normal_corridor_base_6,0,none,18601,0.0004406931111589074,0.00021704533719457686,-0.054948292672634125,-35.3632621,149.1652374,0.0,0.0,0.0,0.0,-9.942161705112085e-05,9.444931492907926e-05,0.0,1000,1000,1000,1000,12600,0,0.0027133189141750336,0.002904227701947093,0.003171168267726898,10,{}
normal_corridor_base_6,0,none,18934,0.0004618592793121934,0.00023555105144623667,-0.05412039905786514,-35.3632621,149.1652374,0.0,0.0,0.0,0.0,-9.942165343090892e-05,9.444932220503688e-05,0.0,1000,1000,1000,1000,12600,0,0.003113233484327793,0.0027945374604314566,0.002908800495788455,10,{}
normal_corridor_base_6,0,none,19267,0.0004795810964424163,0.00024877121904864907,-0.05368317663669586,-35.3632621,149.1652374,0.0,0.0,0.0,0.0,-9.942165343090892e-05,9.444932220503688e-05,0.0,1000,1000,1000,1000,12600,0,0.0027409503236413,0.0031216987408697605,0.002663941355422139,10,{}
normal_corridor_base_6,0,none,19602,0.000488833524286747,0.0002587739145383239,-0.05332493409514427,-35.3632621,149.1652374,0.0,0.0,0.0,0.0,-9.942158067133278e-05,9.444932948099449e-05,0.0,1000,1000,1000,1000,12600,0,0.0027866375166922808,0.0029060053639113903,0.0028225278947502375,10,{}
normal_corridor_base_6,0,none,19934,0.000515563937369734,0.0002769231505226344,-0.052887868136167526,-35.3632621,149.1652374,0.0,0.0,0.0,0.0,-9.942171163856983e-05,9.44493876886554e-05,0.0,1000,1000,1000,1000,12600,0,0.0030321250669658184,0.0026993118226528168,0.0028139196801930666,10,{}
normal_corridor_base_6,0,none,20266,0.00053022539941594,0.0003002042358275503,-0.052624206990003586,-35.3632621,149.1652374,-0.006,0.0,0.0,0.0,-9.942171163856983e-05,9.44493876886554e-05,0.0,1000,1000,1000,1000,12600,0,0.0029249286744743586,0.002924099564552307,0.0027138800360262394,10,{}
normal_corridor_base_6,0,none,20599,0.0005454441998153925,0.0003142083587590605,-0.05260391905903816,-35.3632621,149.1652374,-0.008,0.0,0.0,0.0,-9.942171163856983e-05,9.444936586078256e-05,0.0,1000,1000,1000,1000,12600,0,0.002737652976065874,0.002892297925427556,0.002536361338570714,10,{}
normal_corridor_base_6,0,none,20934,0.0005675050779245794,0.00033563055330887437,-0.05270057171583176,-35.3632621,149.1652374,-0.007,0.0,0.0,0.0,-9.942172619048506e-05,9.444936586078256e-05,0.0,1000,1000,1000,1000,12600,0,0.002891577547416091,0.0027901907451450825,0.003021456068381667,10,{}
normal_corridor_base_6,0,none,21267,0.0005802223458886147,0.0003473716205917299,-0.05281420052051544,-35.3632621,149.1652374,-0.005,0.0,0.0,0.0,-9.942172619048506e-05,9.444936586078256e-05,0.0,1000,1000,1000,1000,12600,0,0.0028958693146705627,0.002767325844615698,0.0029013724997639656,10,{}
normal_corridor_base_6,0,none,21599,0.0005975492531433702,0.0003667576238512993,-0.05302949622273445,-35.3632621,149.1652374,-0.004,0.0,0.0,0.0,-9.942176984623075e-05,9.444938041269779e-05,0.0,1000,1000,1000,1000,12600,0,0.0026282246690243483,0.003014987800270319,0.0027304450049996376,10,{}
normal_corridor_base_6,0,none,21932,0.0006244576652534306,0.00038259694701991975,-0.053322166204452515,-35.3632621,149.1652374,-0.002,0.0,0.0,0.0,-9.942182077793404e-05,9.444937313674018e-05,0.0,1000,1000,1000,1000,12600,0,0.002974194008857012,0.0029475679621100426,0.002911715069785714,10,{}
normal_corridor_base_6,0,none,22264,0.0006426421459764242,0.000401448633056134,-0.05360354483127594,-35.3632621,149.1652374,-0.001,0.0,0.01,0.0,-9.942182077793404e-05,9.444937313674018e-05,0.0,1000,1000,1000,1000,12600,0,0.002653848147019744,0.0025573023594915867,0.0028115343302488327,10,{}
normal_corridor_base_6,0,none,22599,0.0006586728850379586,0.0004211512568872422,-0.053903236985206604,-35.3632621,149.1652374,0.0,0.0,0.01,0.0,-9.942192991729826e-05,9.444948227610439e-05,0.0,1000,1000,1000,1000,12600,0,0.0027698208577930927,0.0028586317785084248,0.0028477017767727375,10,{}
normal_corridor_base_6,0,none,22931,0.0006840811693109572,0.000450442370492965,-0.05437590926885605,-35.3632621,149.1652374,0.0,0.0,0.01,0.0,-9.942198812495917e-05,9.444947500014678e-05,0.0,1000,1000,1000,1000,12600,0,0.0028180722147226334,0.0023838605266064405,0.0030558824073523283,10,{}
normal_corridor_base_6,0,none,23264,0.0006990448455326259,0.00046576495515182614,-0.054757148027420044,-35.3632621,149.1652374,0.001,-0.01,0.01,0.0,-9.942198812495917e-05,9.444947500014678e-05,0.0,1000,1000,1000,1000,12600,0,0.003093415405601263,0.0027337349019944668,0.0027227364480495453,10,{}
normal_corridor_base_6,0,none,23597,0.000713684014044702,0.00048604965559206903,-0.05517347529530525,-35.3632621,149.1652374,0.001,-0.01,0.01,0.0,-9.942187898559496e-05,9.444943134440109e-05,0.0,1000,1000,1000,1000,12600,0,0.0028192296158522367,0.002925215056166053,0.0026969017926603556,10,{}
normal_corridor_base_6,0,none,23929,0.0007357891299761832,0.0005050080944783986,-0.055706121027469635,-35.3632621,149.1652374,0.002,-0.01,0.01,0.0,-9.942180622601882e-05,9.444938041269779e-05,0.0,1000,1000,1000,1000,12600,0,0.0024024350568652153,0.002561277011409402,0.0028277854435145855,10,{}
normal_corridor_base_6,0,none,24264,0.0007476111641153693,0.0005221638130024076,-0.0561666302382946,-35.3632621,149.1652374,0.002,-0.01,0.01,0.0,-9.942180622601882e-05,9.444938041269779e-05,0.0,1000,1000,1000,1000,12600,0,0.0025434952694922686,0.0026742739137262106,0.0025686982553452253,10,{}
normal_corridor_base_6,0,none,24596,0.0007606247672811151,0.0005357427871786058,-0.05659158527851105,-35.3632621,149.1652374,0.002,-0.01,0.01,0.0,-9.942188626155257e-05,9.444942406844348e-05,0.0,1000,1000,1000,1000,12600,0,0.002774923574179411,0.0027915567625313997,0.002855919534340501,10,{}
normal_corridor_base_6,0,none,24929,0.0007837737794034183,0.0005577341071330011,-0.057184848934412,-35.3632621,149.1652374,0.003,-0.01,0.01,0.0,-9.942194446921349e-05,9.444953320780769e-05,0.0,1000,1000,1000,1000,12600,0,0.0026639478746801615,0.0031197196803987026,0.0027187110390514135,10,{}
normal_corridor_base_6,0,none,25261,0.0007934911991469562,0.0005742480279877782,-0.05764259770512581,-35.3632621,149.1652374,0.003,-0.01,0.01,0.0,-9.942194446921349e-05,9.444953320780769e-05,0.0,1000,1000,1000,1000,12600,0,0.0027091135270893574,0.002702048746868968,0.00273518031463027,10,{}
normal_corridor_base_6,0,none,25594,0.0008093519136309624,0.0005872240872122347,-0.05804060399532318,-35.3632621,149.1652374,0.003,-0.01,0.01,0.0,-9.942188626155257e-05,9.444951865589246e-05,0.0,1000,1000,1000,1000,12600,0,0.002831936813890934,0.002797080436721444,0.0027658953331410885,10,{}
normal_corridor_base_6,0,none,25927,0.000828657706733793,0.0006133908173069358,-0.058571524918079376,-35.3632621,149.1652374,0.002,-0.01,0.01,0.0,-9.942190808942541e-05,9.444949682801962e-05,0.0,1000,1000,1000,1000,12600,0,0.0028360593132674694,0.00297338142991066,0.002801330992951989,10,{}
normal_corridor_base_6,0,none,26261,0.0008472169865854084,0.0006202133372426033,-0.05905556678771973,-35.3632621,149.1652374,0.002,-0.01,0.01,0.0,-9.942190808942541e-05,9.444949682801962e-05,0.0,1000,1000,1000,1000,12600,0,0.00306601170450449,0.002602997003123164,0.0029490438755601645,10,{}
normal_corridor_base_6,0,none,26594,0.0008572654915042222,0.0006250911392271519,-0.05955829843878746,-35.3632621,149.1652374,0.002,-0.01,0.01,0.0,-9.942190808942541e-05,9.44494386203587e-05,0.0,1000,1000,1000,1000,12600,0,0.0025126223918050528,0.002689021872356534,0.0027020317502319813,10,{}
normal_corridor_base_6,0,none,26926,0.0008755120215937495,0.000640607438981533,-0.06021597608923912,-35.3632621,149.1652374,0.002,-0.01,0.01,0.0,-9.942198084900156e-05,9.4449489552062e-05,0.0,1000,1000,1000,1000,12600,0,0.0027348194271326065,0.0027171785477548838,0.002702845958992839,10,{}
normal_corridor_base_6,0,none,27259,0.0008885110728442669,0.0006531255785375834,-0.06071816384792328,-35.3632621,149.1652374,0.002,-0.01,0.01,0.0,-9.942198084900156e-05,9.4449489552062e-05,0.0,1000,1000,1000,1000,12600,0,0.002759571187198162,0.0029314877465367317,0.002767398953437805,10,{}
normal_corridor_base_6,0,none,27592,0.000896052923053503,0.0006545111536979675,-0.061237335205078125,-35.3632621,149.1652374,0.001,-0.01,0.01,0.0,-9.942193719325587e-05,9.444946772418916e-05,0.0,1000,1000,1000,1000,12600,0,0.0026552819181233644,0.002837000647559762,0.0025412223767489195,10,{}
normal_corridor_base_6,0,none,27927,0.0009141278569586575,0.0006728857406415045,-0.06189272180199623,-35.3632621,149.1652374,0.001,-0.01,0.01,0.0,-9.94220026768744e-05,9.444953320780769e-05,0.0,1000,1000,1000,1000,12600,0,0.0027971449308097363,0.0028639785014092922,0.0028558240737766027,10,{}
normal_corridor_base_6,0,none,28259,0.0009239354985766113,0.0006879761349409819,-0.06238967925310135,-35.3632621,149.1652374,0.001,-0.01,0.01,0.0,-9.94220026768744e-05,9.444953320780769e-05,0.0,1000,1000,1000,1000,12600,0,0.0027476013638079166,0.002956799929961562,0.002702581463381648,10,{}
normal_corridor_base_6,0,none,28591,0.0009345333673991263,0.0006982282502576709,-0.06289564073085785,-35.3632621,149.1652374,0.0,-0.01,0.01,0.0,-9.94220536085777e-05,9.444957686355338e-05,0.0,1000,1000,1000,1000,12600,0,0.0026298498269170523,0.002591010881587863,0.0029230613727122545,10,{}
normal_corridor_base_6,0,none,28924,0.0009489169460721314,0.0007166685536503792,-0.06352955102920532,-35.3632621,149.1652374,0.0,-0.01,0.01,0.0,-9.942217729985714e-05,9.444966417504475e-05,0.0,1000,1000,1000,1000,12600,0,0.0028823816683143377,0.0027499468997120857,0.0026122478302568197,10,{}
normal_corridor_base_6,0,none,29259,0.000960649223998189,0.0007357455906458199,-0.06401129066944122,-35.3632621,149.1652374,0.0,-0.01,0.01,0.0,-9.942217729985714e-05,9.444966417504475e-05,0.0,1000,1000,1000,1000,12600,0,0.002950282534584403,0.002625067951157689,0.002636599587276578,10,{}
normal_corridor_base_6,0,none,29592,0.0009741723188199103,0.0007409960962831974,-0.06447696685791016,-35.3632621,149.1652374,0.0,-0.01,0.01,0.0,-9.942230099113658e-05,9.444972238270566e-05,0.0,1000,1000,1000,1000,12600,0,0.003108156379312277,0.0027103975880891085,0.002934275893494487,10,{}
normal_corridor_base_6,0,none,29924,0.0009894808754324913,0.0007577895885333419,-0.06512555480003357,-35.3632621,149.1652374,0.0,-0.01,0.02,0.0,-9.942237375071272e-05,9.444977331440896e-05,0.0,1000,1000,1000,1000,12600,0,0.002702820347622037,0.0027750972658395767,0.0028872608672827482,10,{}
normal_corridor_base_6,0,none,30359,0.0009993229759857059,0.0007764409529045224,-0.06582429260015488,-35.3632621,149.1652374,-0.001,-0.01,0.02,0.0,-9.942237375071272e-05,9.444977331440896e-05,0.0,1000,1000,1000,1000,12600,0,0.0025207619182765484,0.002975831041112542,0.003213966730982065,10,{}
normal_corridor_base_6,0,none,30609,0.0010032141581177711,0.000782694376539439,-0.06622231006622314,-35.3632621,149.1652374,-0.001,-0.01,0.02,0.0,-9.942236647475511e-05,9.444978059036657e-05,0.0,1000,1000,1000,1000,12600,0,0.0025207619182765484,0.002975831041112542,0.003213966730982065,10,{}
normal_corridor_base_6,0,none,30859,0.0010150817688554525,0.000789501762483269,-0.06658732891082764,-35.3632621,149.1652374,-0.001,-0.01,0.02,0.0,-9.942243195837364e-05,9.444985334994271e-05,0.0,1000,1000,1000,1000,12600,0,0.0027452956419438124,0.0027041237335652113,0.0029417253099381924,10,{}
normal_corridor_base_6,0,none,31274,0.0010174473281949759,0.0007945855031721294,-0.066986083984375,-35.3632621,149.1652374,-0.002,-0.01,0.02,0.0,-9.942250471794978e-05,9.444992610951886e-05,0.0,1000,1000,1000,1000,12600,0,0.002702842466533184,0.002921517239883542,0.0027641686610877514,10,{}
normal_corridor_base_6,0,none,31607,0.0010302014416083694,0.0008001132518984377,-0.06734599173069,-35.3632621,149.1652374,-0.002,-0.01,0.02,0.0,-9.942253382178023e-05,9.444995521334931e-05,0.0,1000,1000,1000,1000,12600,0,0.0028622495010495186,0.002820268040522933,0.002973902504891157,10,{}
normal_corridor_base_6,0,none,31939,0.0010411771945655346,0.0008090458577498794,-0.0680774599313736,-35.3632621,149.1652374,-0.003,-0.01,0.02,0.0,-9.942249016603455e-05,9.444988972973078e-05,0.0,1000,1000,1000,1000,12600,0,0.0027702704537659883,0.002921447390690446,0.002719338284805417,10,{}
normal_corridor_base_6,0,none,32272,0.001051811734214425,0.0008167504565790296,-0.06851857155561447,-35.3632621,149.1652374,-0.003,-0.01,0.02,0.0,-9.942246833816171e-05,9.444994066143408e-05,0.0,1000,1000,1000,1000,12600,0,0.0029993532225489616,0.002833734732121229,0.002748858882114291,10,{}
normal_corridor_base_6,0,none,32604,0.0010619329987093806,0.0008248612284660339,-0.0689835473895073,-35.3632621,149.1652374,-0.003,-0.01,0.02,0.0,-9.942243923433125e-05,9.444992610951886e-05,0.0,1000,1000,1000,1000,12600,0,0.003146572271361947,0.002726596547290683,0.0029289782978594303,10,{}
normal_corridor_base_6,0,none,32939,0.00106913095805794,0.0008436340722255409,-0.06955143809318542,-35.3632621,149.1652374,-0.004,-0.01,0.02,0.0,-9.942254837369546e-05,9.444994066143408e-05,0.0,1000,1000,1000,1000,12600,0,0.002646987559273839,0.002667822875082493,0.002976579824462533,10,{}
normal_corridor_base_6,0,none,33271,0.001081483089365065,0.0008532270439900458,-0.06998641788959503,-35.3632621,149.1652374,-0.004,-0.01,0.02,0.0,-9.942254109773785e-05,9.444991883356124e-05,0.0,1000,1000,1000,1000,12600,0,0.0028832622338086367,0.002949155867099762,0.0026976619847118855,10,{}
normal_corridor_base_6,0,none,33604,0.0010963947279378772,0.0008633217657916248,-0.07041088491678238,-35.3632621,149.1652374,-0.004,-0.01,0.02,0.0,-9.942253382178023e-05,9.444992610951886e-05,0.0,1000,1000,1000,1000,12600,0,0.00274679041467607,0.0030649013351649046,0.0028697364032268524,10,{}
normal_corridor_base_6,0,none,33937,0.001112920232117176,0.0008768925326876342,-0.07097995281219482,-35.3632621,149.1652374,-0.004,-0.02,0.02,0.0,-9.942251199390739e-05,9.444994066143408e-05,0.0,1000,1000,1000,1000,12600,0,0.0026456620544195175,0.002788345329463482,0.0027933584060519934,10,{}
normal_corridor_base_6,0,none,34269,0.0011180307483300567,0.0008823166717775166,-0.07138734310865402,-35.3632621,149.1652374,-0.005,-0.02,0.02,0.0,-9.942251199390739e-05,9.444994066143408e-05,0.0,1000,1000,1000,1000,12600,0,0.0032328057568520308,0.0025437497533857822,0.0028970849234610796,10,{}
normal_corridor_base_6,0,none,34604,0.0011293322313576937,0.0008995511452667415,-0.07178836315870285,-35.3632621,149.1652374,-0.005,-0.02,0.02,0.0,-9.942245378624648e-05,9.445000614505261e-05,0.0,1000,1000,1000,1000,12600,0,0.0025509658735245466,0.0029090899042785168,0.0028155127074569464,10,{}
normal_corridor_base_6,0,none,34936,0.0011439145309850574,0.0009165738592855632,-0.07232347875833511,-35.3632621,149.1652374,-0.005,-0.02,0.02,0.0,-9.942236647475511e-05,9.444997704122216e-05,0.0,1000,1000,1000,1000,12600,0,0.0026398934423923492,0.0029597219545394182,0.0026594828814268112,10,{}
normal_corridor_base_6,0,none,35269,0.0011484483256936073,0.0009242455125786364,-0.0727207362651825,-35.3632621,149.1652374,-0.005,-0.02,0.02,0.0,-9.942236647475511e-05,9.444997704122216e-05,0.0,1000,1000,1000,1000,12600,0,0.003116828389465809,0.0027798607479780912,0.0027369277086108923,10,{}
normal_corridor_base_6,0,none,35601,0.0011572930961847305,0.0009309591841883957,-0.07311342656612396,-35.3632621,149.1652374,-0.005,-0.02,0.02,0.0,-9.942233737092465e-05,9.44499479373917e-05,0.0,1000,1000,1000,1000,12600,0,0.002904395340010524,0.0027292612940073013,0.0027678492479026318,10,{}
normal_corridor_base_6,0,none,35934,0.00116404565051198,0.0009336579823866487,-0.07360481470823288,-35.3632621,149.1652374,-0.005,-0.02,0.02,0.0,-9.942232281900942e-05,9.444991883356124e-05,0.0,1000,1000,1000,1000,12600,0,0.0027074150275439024,0.0028420777525752783,0.00286494311876595,10,{}
normal_corridor_base_6,0,none,36267,0.001170528121292591,0.0009464701870456338,-0.07391981780529022,-35.3632621,149.1652374,-0.005,-0.02,0.02,0.0,-9.942232281900942e-05,9.444991883356124e-05,0.0,1000,1000,1000,1000,12600,0,0.0030063323210924864,0.0027748432476073503,0.0029660577420145273,10,{}
normal_corridor_base_6,0,none,36602,0.0011802423978224397,0.0009602865902706981,-0.07430725544691086,-35.3632621,149.1652374,-0.005,-0.02,0.02,0.0,-9.94223082670942e-05,9.444990428164601e-05,0.0,1000,1000,1000,1000,12600,0,0.002993996487930417,0.002696947893127799,0.002558870706707239,10,{}
normal_corridor_base_6,0,none,36934,0.001190892537124455,0.0009795039659366012,-0.07480288296937943,-35.3632621,149.1652374,-0.005,-0.02,0.02,0.0,-9.942235192283988e-05,9.444990428164601e-05,0.0,1000,1000,1000,1000,12600,0,0.0026067981962114573,0.0027962801977992058,0.002691440051421523,10,{}
normal_corridor_base_6,0,none,37266,0.0012002853909507394,0.0009930649539455771,-0.07516741007566452,-35.3632621,149.1652374,-0.005,-0.02,0.02,0.0,-9.942235192283988e-05,9.444990428164601e-05,0.0,1000,1000,1000,1000,12600,0,0.002845699666067958,0.0026814022567123175,0.002892387332394719,10,{}
normal_corridor_base_6,0,none,37599,0.0012069232761859894,0.00100244814530015,-0.07553436607122421,-35.3632621,149.1652374,-0.005,-0.02,0.02,0.0,-9.942233737092465e-05,9.444987517781556e-05,0.0,1000,1000,1000,1000,12600,0,0.002640749327838421,0.0025346253532916307,0.0025908085517585278,10,{}
normal_corridor_base_6,0,none,37932,0.0012120612664148211,0.0010213989298790693,-0.07600623369216919,-35.3632621,149.1652374,-0.006,-0.02,0.02,0.0,-9.942235192283988e-05,9.444986790185794e-05,0.0,1000,1000,1000,1000,12600,0,0.0028776652179658413,0.0028452915139496326,0.0027681097853928804,10,{}
normal_corridor_base_6,0,none,38267,0.0012243296951055527,0.0010368941584601998,-0.07636692374944687,-35.3632621,149.1652374,-0.006,-0.02,0.02,0.0,-9.942235192283988e-05,9.444986790185794e-05,0.0,1000,1000,1000,1000,12600,0,0.002619947539642453,0.0026693367399275303,0.002804716117680073,10,{}
normal_corridor_base_6,0,none,38599,0.0012321793474256992,0.001041569048538804,-0.076711505651474,-35.3632621,149.1652374,-0.006,-0.02,0.02,0.0,-9.942231554305181e-05,9.444986062590033e-05,0.0,1000,1000,1000,1000,12600,0,0.002657511970028281,0.002919313032180071,0.002799984533339739,10,{}
normal_corridor_base_6,0,none,38931,0.0012467809719964862,0.001056250766851008,-0.07718399912118912,-35.3632621,149.1652374,-0.006,-0.02,0.02,0.0,-9.942229371517897e-05,9.444986062590033e-05,0.0,1000,1000,1000,1000,12600,0,0.002761031733825803,0.0031814048998057842,0.002721842611208558,10,{}
normal_corridor_base_6,0,none,39264,0.001251018955372274,0.0010669087059795856,-0.07752355933189392,-35.3632621,149.1652374,-0.006,-0.02,0.02,0.0,-9.942229371517897e-05,9.444986062590033e-05,0.0,1000,1000,1000,1000,12600,0,0.0027453196235001087,0.002706310711801052,0.0029431714210659266,10,{}
normal_corridor_base_6,0,none,39599,0.0012483095051720738,0.0010719659039750695,-0.07786239683628082,-35.3632621,149.1652374,-0.006,-0.02,0.02,0.0,-9.94222573353909e-05,9.444988972973078e-05,0.0,1000,1000,1000,1000,12600,0,0.002685908228158951,0.0027389845345169306,0.0027752993628382683,10,{}
normal_corridor_base_6,0,none,39932,0.0012581981718540192,0.0010775495320558548,-0.07829821854829788,-35.3632621,149.1652374,-0.006,-0.02,0.02,0.0,-9.942227188730612e-05,9.444988972973078e-05,0.0,1000,1000,1000,1000,12600,0,0.0027265208773314953,0.0027399712707847357,0.002548222430050373,10,{}
normal_corridor_base_6,0,none,40264,0.001266474719159305,0.0010839018505066633,-0.07862132042646408,-35.3632621,149.1652374,-0.006,-0.02,0.02,0.0,-9.942227188730612e-05,9.444988972973078e-05,0.0,1000,1000,1000,1000,12600,0,0.0028769117780029774,0.003050499362871051,0.003008700907230377,10,{}
normal_corridor_base_6,0,none,40597,0.001275261864066124,0.0010924915550276637,-0.07893265783786774,-35.3632621,149.1652374,-0.006,-0.02,0.02,0.0,-9.942228643922135e-05,9.444996248930693e-05,0.0,1000,1000,1000,1000,12600,0,0.002772029023617506,0.003015076508745551,0.0028692425694316626,10,{}
normal_corridor_base_6,0,none,40929,0.001284198835492134,0.0010967415291815996,-0.07930289208889008,-35.3632621,149.1652374,-0.006,-0.02,0.02,0.0,-9.942228643922135e-05,9.444995521334931e-05,0.0,1000,1000,1000,1000,12600,0,0.002429455518722534,0.0027092655654996634,0.002727352548390627,10,{}
normal_corridor_base_6,0,none,41264,0.0012893620878458023,0.0011096495436504483,-0.07959197461605072,-35.3632621,149.1652374,-0.006,-0.02,0.02,0.0,-9.942228643922135e-05,9.444995521334931e-05,0.0,1000,1000,1000,1000,12600,0,0.0029219104908406734,0.003043852047994733,0.0028220147360116243,10,{}
normal_corridor_base_6,0,none,41596,0.0012978478334844112,0.0011165151372551918,-0.0799042358994484,-35.3632621,149.1652374,-0.006,-0.02,0.02,0.0,-9.942229371517897e-05,9.444991155760363e-05,0.0,1000,1000,1000,1000,12600,0,0.002830440877005458,0.0027600598987191916,0.0028011733666062355,10,{}
normal_corridor_base_6,0,none,41929,0.0013474143343046308,0.0011693208944052458,-0.08030250668525696,-35.3632621,149.1652374,-0.006,0.0,0.0,0.0,-9.942233009496704e-05,9.444993338547647e-05,0.0,1000,1000,1000,1000,12600,0,0.003017103997990489,0.002755101304501295,0.0028395962435752153,10,{}
normal_corridor_base_6,0,none,42262,0.0014273561537265778,0.0012490579392760992,-0.08061246573925018,-35.3632621,149.1652374,-0.006,0.0,0.0,0.0,-9.942233009496704e-05,9.444993338547647e-05,0.0,1000,1000,1000,1000,12600,0,0.0027149904053658247,0.0027724613901227713,0.002844829112291336,10,{}
normal_corridor_base_6,0,none,42594,0.0014927689917385578,0.0013144504046067595,-0.08091738075017929,-35.3632621,149.1652374,-0.006,0.0,0.0,0.0,-9.942228643922135e-05,9.444993338547647e-05,0.0,1000,1000,1000,1000,12600,0,0.0029515926726162434,0.002837850945070386,0.0025943543296307325,10,{}
normal_corridor_base_6,0,none,42929,0.0015736034838482738,0.0013949210988357663,-0.08132001757621765,-35.3632621,149.1652374,-0.006,0.0,0.01,0.0,-9.942233009496704e-05,9.444993338547647e-05,0.0,1000,1000,1000,1000,12600,0,0.002792856888845563,0.0026168026961386204,0.002594417193904519,10,{}
normal_corridor_base_6,0,none,43261,0.001625368488021195,0.0014443688560277224,-0.08163236826658249,-35.3632621,149.1652374,-0.006,-0.01,0.01,0.0,-9.942233009496704e-05,9.444993338547647e-05,0.0,1000,1000,1000,1000,12600,0,0.00299764983355999,0.00278231268748641,0.0029957066290080547,10,{}
normal_corridor_base_6,0,none,43594,0.001647784374654293,0.0014652385143563151,-0.08194084465503693,-35.3632621,149.1652374,-0.006,-0.01,0.01,0.0,-9.942233737092465e-05,9.444988245377317e-05,0.0,1000,1000,1000,1000,12600,0,0.0027084287721663713,0.0030124629847705364,0.0027319316286593676,10,{}
normal_corridor_base_6,0,none,43926,0.0016577019123360515,0.001475161756388843,-0.08234555274248123,-35.3632621,149.1652374,-0.006,-0.01,0.01,0.0,-9.942237375071272e-05,9.444987517781556e-05,0.0,1000,1000,1000,1000,12600,0,0.00273703271523118,0.0031030364334583282,0.0025355115067213774,10,{}
normal_corridor_base_6,0,none,44259,0.0016491065034642816,0.001468662521801889,-0.08265255391597748,-35.3632621,149.1652374,-0.006,-0.01,0.01,0.0,-9.942237375071272e-05,9.444987517781556e-05,0.0,1000,1000,1000,1000,12600,0,0.002795279026031494,0.0027613239362835884,0.003208769718185067,10,{}
normal_corridor_base_6,0,none,44592,0.001617803005501628,0.0014299278846010566,-0.08294081687927246,-35.3632621,149.1652375,-0.006,-0.01,0.02,0.0,-9.942240285454318e-05,9.444990428164601e-05,0.0,1000,1000,1000,1000,12600,0,0.0029014195315539837,0.00293927569873631,0.002667220775038004,10,{}
normal_corridor_base_6,0,none,44927,0.0015574085991829634,0.0013748082565143704,-0.08331286907196045,-35.3632621,149.1652375,-0.006,-0.01,0.02,0.0,-9.942233009496704e-05,9.444985334994271e-05,0.0,1000,1000,1000,1000,12600,0,0.002825838979333639,0.00290915765799582,0.002909683855250478,10,{}
normal_corridor_base_6,0,none,45359,0.001479779719375074,0.0012987024383619428,-0.08371084183454514,-35.3632622,149.1652375,-0.006,-0.01,0.02,0.0,-9.942233009496704e-05,9.444985334994271e-05,0.0,1000,1000,1000,1000,12600,0,0.0027438264805823565,0.0028026618529111147,0.0027410935144871473,10,{}
normal_corridor_base_6,0,none,45609,0.0014392905868589878,0.0012611208949238062,-0.08392900973558426,-35.3632622,149.1652375,-0.006,-0.01,0.02,0.0,-9.942233737092465e-05,9.444988972973078e-05,0.0,1000,1000,1000,1000,12600,0,0.0027438264805823565,0.0028026618529111147,0.0027410935144871473,10,{}
normal_corridor_base_6,0,none,45859,0.0013833766570314765,0.0012024238239973783,-0.0841258093714714,-35.3632622,149.1652375,-0.006,-0.01,0.02,0.0,-9.942232281900942e-05,9.444988245377317e-05,0.0,1000,1000,1000,1000,12600,0,0.0030986382625997066,0.0027661113999783993,0.0028485991060733795,10,{}
normal_corridor_base_6,0,none,46109,0.0013420513132587075,0.001157171092927456,-0.0843360424041748,-35.3632622,149.1652375,-0.006,-0.01,0.01,0.0,-9.942230099113658e-05,9.444987517781556e-05,0.0,1000,1000,1000,1000,12600,0,0.002964441664516926,0.0029269512742757797,0.002818138338625431,10,{}
normal_corridor_base_6,0,none,46359,0.001302353455685079,0.0011119218543171883,-0.08450280129909515,-35.3632622,149.1652375,-0.006,-0.01,0.01,0.0,-9.942227916326374e-05,9.444988245377317e-05,0.0,1000,1000,1000,1000,12600,0,0.0026376990135759115,0.0026923753321170807,0.002795394277200103,10,{}
normal_corridor_base_6,0,none,46609,0.0012745825806632638,0.0010905761737376451,-0.0846693366765976,-35.3632622,149.1652375,-0.006,-0.01,0.01,0.0,-9.942231554305181e-05,9.444991883356124e-05,0.0,1000,1000,1000,1000,12600,0,0.002608353039249778,0.0027677789330482483,0.0025946777313947678,10,{}
normal_corridor_base_6,0,none,46859,0.0012297575594857335,0.0010503710946068168,-0.08486422151327133,-35.3632622,149.1652375,-0.006,-0.01,0.01,0.0,-9.942224278347567e-05,9.444988972973078e-05,0.0,1000,1000,1000,1000,12600,0,0.002910564886406064,0.002735384739935398,0.002434569178149104,10,{}
normal_corridor_base_6,0,none,47109,0.001197610516101122,0.001022752607241273,-0.08504755795001984,-35.3632621,149.1652375,-0.006,-0.01,0.01,0.0,-9.942224278347567e-05,9.444992610951886e-05,0.0,1000,1000,1000,1000,12600,0,0.002830331912264228,0.0026740948669612408,0.002407713560387492,10,{}
normal_corridor_base_6,0,none,47359,0.0011716082226485014,0.0010006602387875319,-0.08523144572973251,-35.3632621,149.1652375,-0.006,-0.01,0.01,0.0,-9.942222095560282e-05,9.444990428164601e-05,0.0,1000,1000,1000,1000,12600,0,0.002942302729934454,0.00285010295920074,0.0027276657056063414,10,{}
normal_corridor_base_6,0,none,47609,0.0011574157979339361,0.0009868261404335499,-0.08540232479572296,-35.3632621,149.1652375,-0.006,-0.01,0.01,0.0,-9.942217729985714e-05,9.444986790185794e-05,0.0,1000,1000,1000,1000,12600,0,0.0027303090319037437,0.0027330066077411175,0.002782264491543174,10,{}
normal_corridor_base_6,0,none,47859,0.0011315657757222652,0.0009639391209930182,-0.08558480441570282,-35.3632621,149.1652375,-0.006,-0.01,0.01,0.0,-9.942214819602668e-05,9.444982424611226e-05,0.0,1000,1000,1000,1000,12600,0,0.002810887759551406,0.002708232030272484,0.002716965042054653,10,{}
normal_corridor_base_6,0,none,48109,0.0011161502916365862,0.0009478863212279975,-0.08574502170085907,-35.3632621,149.1652375,-0.006,-0.01,0.01,0.0,-9.942212636815384e-05,9.444983152206987e-05,0.0,1000,1000,1000,1000,12600,0,0.0030491205397993326,0.002733191242441535,0.002740527968853712,10,{}
normal_corridor_base_6,0,none,48359,0.0011058845557272434,0.00093656504759565,-0.0859261080622673,-35.3632621,149.1652375,-0.006,-0.01,0.01,0.0,-9.9422104540281e-05,9.444981697015464e-05,0.0,1000,1000,1000,1000,12600,0,0.0027207722887396812,0.0029172629583626986,0.0028043659403920174,10,{}
normal_corridor_base_6,0,none,48609,0.001100630033761263,0.0009317060466855764,-0.08608795702457428,-35.3632621,149.1652375,-0.006,-0.01,0.01,0.0,-9.942208271240816e-05,9.444980969419703e-05,0.0,1000,1000,1000,1000,12600,0,0.0028970411513000727,0.002719205105677247,0.002963472856208682,10,{}
normal_corridor_base_6,0,none,48859,0.0010899169137701392,0.0009227179689332843,-0.08624119311571121,-35.3632621,149.1652375,-0.006,-0.01,0.01,0.0,-9.942207543645054e-05,9.444978786632419e-05,0.0,1000,1000,1000,1000,12600,0,0.0027527327183634043,0.003072954947128892,0.002835240913555026,10,{}
normal_corridor_base_6,0,none,49109,0.0010844735661521554,0.0009155903244391084,-0.08641602098941803,-35.3632621,149.1652375,-0.006,-0.01,0.01,0.0,-9.942202450474724e-05,9.444976603845134e-05,0.0,1000,1000,1000,1000,12600,0,0.0029563058633357286,0.002996875671669841,0.0026840369682759047,10,{}
normal_corridor_base_6,0,none,49359,0.0010836297878995538,0.0009114728891290724,-0.0865660011768341,-35.3632621,149.1652375,-0.006,-0.01,0.01,0.0,-9.942198812495917e-05,9.444977331440896e-05,0.0,1000,1000,1000,1000,12600,0,0.0026542518753558397,0.002578223589807749,0.00275064492598176,10,{}
normal_corridor_base_6,0,none,49609,0.001083314185962081,0.0009116774308495224,-0.08672421425580978,-35.3632621,149.1652375,-0.006,-0.01,0.01,0.0,-9.942197357304394e-05,9.444972965866327e-05,0.0,1000,1000,1000,1000,12600,0,0.0027467922773212194,0.0029318167362362146,0.0026389684062451124,10,{}
normal_corridor_base_6,0,none,49859,0.0010767091298475862,0.0009133914718404412,-0.08688103407621384,-35.3632621,149.1652375,-0.006,-0.01,0.01,0.0,-9.942198812495917e-05,9.444971510674804e-05,0.0,1000,1000,1000,1000,12600,0,0.0026736531872302294,0.0027801760006695986,0.0026876882184296846,10,{}
normal_corridor_base_6,0,none,50109,0.0010772880632430315,0.0009144202340394258,-0.08704080432653427,-35.3632621,149.1652375,-0.006,-0.01,0.01,0.0,-9.942198812495917e-05,9.444970055483282e-05,0.0,1000,1000,1000,1000,12600,0,0.002833524253219366,0.0027619735337793827,0.0027765596751123667,10,{}
normal_corridor_base_6,0,none,50359,0.0010808486258611083,0.0009159551118500531,-0.08718887716531754,-35.3632621,149.1652375,-0.006,-0.01,0.01,0.0,-9.942198084900156e-05,9.444967145100236e-05,0.0,1000,1000,1000,1000,12600,0,0.0024278932251036167,0.0027282009832561016,0.002920859958976507,10,{}
normal_corridor_base_6,0,none,50609,0.001082921284250915,0.00091378582874313,-0.08735262602567673,-35.3632621,149.1652375,-0.006,-0.01,0.01,0.0,-9.94219517451711e-05,9.44495914154686e-05,0.0,1000,1000,1000,1000,12600,0,0.0028795383404940367,0.002912558615207672,0.002705363789573312,10,{}
normal_corridor_base_6,0,none,50859,0.0010856396984308958,0.0009125049691647291,-0.08749187737703323,-35.3632621,149.1652375,-0.006,-0.01,0.01,0.0,-9.94219517451711e-05,9.444958413951099e-05,0.0,1000,1000,1000,1000,12600,0,0.002730251755565405,0.00309019279666245,0.0029180580750107765,10,{}
normal_corridor_base_6,0,none,51109,0.001086049946025014,0.0009131146362051368,-0.08764593303203583,-35.3632621,149.1652375,-0.006,-0.01,0.01,0.0,-9.942192991729826e-05,9.444955503568053e-05,0.0,1000,1000,1000,1000,12600,0,0.002759188413619995,0.0027631274424493313,0.002692399313673377,10,{}
normal_corridor_base_6,0,none,51359,0.0010868506506085396,0.0009175626910291612,-0.08778399229049683,-35.3632621,149.1652375,-0.006,-0.01,0.01,0.0,-9.942188626155257e-05,9.444951865589246e-05,0.0,1000,1000,1000,1000,12600,0,0.0028520594350993633,0.0027719265781342983,0.002561443718150258,10,{}
normal_corridor_base_6,0,none,51609,0.0010907595278695226,0.0009178295731544495,-0.08793086558580399,-35.3632621,149.1652375,-0.006,-0.01,0.01,0.0,-9.942188626155257e-05,9.444949682801962e-05,0.0,1000,1000,1000,1000,12600,0,0.0028616972267627716,0.0030034955125302076,0.002972721355035901,10,{}
normal_corridor_base_6,0,none,51859,0.0010945609537884593,0.0009136635926552117,-0.08806651085615158,-35.3632621,149.1652375,-0.006,-0.01,0.01,0.0,-9.94219008134678e-05,9.444951137993485e-05,0.0,1000,1000,1000,1000,12600,0,0.002981453202664852,0.0026728399097919464,0.0029063106048852205,10,{}
normal_corridor_base_6,0,none,52109,0.001098877633921802,0.0009065615013241768,-0.08821754157543182,-35.3632621,149.1652375,-0.006,-0.01,0.01,0.0,-9.94219008134678e-05,9.4449489552062e-05,0.0,1000,1000,1000,1000,12600,0,0.002923040883615613,0.0024742335081100464,0.0028510168194770813,10,{}
normal_corridor_base_6,0,none,52359,0.0011044458951801062,0.0009058786672540009,-0.08834592998027802,-35.3632621,149.1652375,-0.006,-0.01,0.01,0.0,-9.942188626155257e-05,9.444948227610439e-05,0.0,1000,1000,1000,1000,12600,0,0.002700075274333358,0.0028381752781569958,0.0027657821774482727,10,{}
normal_corridor_base_6,0,none,52609,0.0011101830750703812,0.0009166558738797903,-0.08846187591552734,-35.3632621,149.1652375,-0.006,-0.01,0.01,0.0,-9.942186443367973e-05,9.444945317227393e-05,0.0,1000,1000,1000,1000,12600,0,0.0030767873395234346,0.0026920665986835957,0.0027921046130359173,10,{}
normal_corridor_base_6,0,none,52859,0.001110072247684002,0.0009179531480185688,-0.08859670162200928,-35.3632621,149.1652375,-0.006,-0.01,0.01,0.0,-9.942185715772212e-05,9.444943134440109e-05,0.0,1000,1000,1000,1000,12600,0,0.002855975879356265,0.00301144877448678,0.002883042674511671,10,{}
normal_corridor_base_6,0,none,53109,0.0011106115998700261,0.0009145463118329644,-0.08872945606708527,-35.3632621,149.1652375,-0.006,-0.01,0.01,0.0,-9.942184260580689e-05,9.444942406844348e-05,0.0,1000,1000,1000,1000,12600,0,0.0026552360504865646,0.0027969314251095057,0.0027470001950860023,10,{}
normal_corridor_base_6,0,none,53359,0.0011165087344124913,0.0009218102204613388,-0.08887452632188797,-35.3632621,149.1652375,-0.006,-0.01,0.01,0.0,-9.942185715772212e-05,9.444944589631632e-05,0.0,1000,1000,1000,1000,12600,0,0.002825675532221794,0.0025820410810410976,0.002596509177237749,10,{}
normal_corridor_base_6,0,none,53609,0.001130168791860342,0.0009308191947638988,-0.0890049859881401,-35.3632621,149.1652375,-0.006,-0.01,0.01,0.0,-9.942181350197643e-05,9.444940951652825e-05,0.0,1000,1000,1000,1000,12600,0,0.002713617868721485,0.00301196682266891,0.0027076255064457655,10,{}
normal_corridor_base_6,0,none,53859,0.0011319947661831975,0.0009267268469557166,-0.08913467079401016,-35.3632621,149.1652375,-0.006,-0.01,0.01,0.0,-9.942180622601882e-05,9.444942406844348e-05,0.0,1000,1000,1000,1000,12600,0,0.002530421130359173,0.0027555502019822598,0.002873047022148967,10,{}
normal_corridor_base_6,0,none,54109,0.0011332229478284717,0.000935083138756454,-0.08926977217197418,-35.3632621,149.1652375,-0.006,-0.01,0.01,0.0,-9.942177712218836e-05,9.444941679248586e-05,0.0,1000,1000,1000,1000,12600,0,0.0029445025138556957,0.0027861802373081446,0.0029055504128336906,10,{}
normal_corridor_base_6,0,none,54359,0.0011347508989274502,0.0009401349816471338,-0.08939773589372635,-35.3632621,149.1652375,-0.006,-0.01,0.01,0.0,-9.942174074240029e-05,9.444936586078256e-05,0.0,1000,1000,1000,1000,12600,0,0.0029112566262483597,0.0028869768138974905,0.0029184368904680014,10,{}
normal_corridor_base_6,0,none,54609,0.001145130256190896,0.0009490324300713837,-0.0895230695605278,-35.3632621,149.1652375,-0.006,-0.01,0.01,0.0,-9.942173346644267e-05,9.444938041269779e-05,0.0,1000,1000,1000,1000,12600,0,0.002589056733995676,0.0028299414552748203,0.0026409763377159834,10,{}
normal_corridor_base_6,0,none,54859,0.001145048881880939,0.0009480275330133736,-0.0896439254283905,-35.3632621,149.1652375,-0.006,-0.01,0.01,0.0,-9.942174074240029e-05,9.444932948099449e-05,0.0,1000,1000,1000,1000,12600,0,0.003179901046678424,0.0028269935864955187,0.002934572286903858,10,{}
normal_corridor_base_6,0,none,55109,0.0011465181596577168,0.0009495709673501551,-0.08977226912975311,-35.3632621,149.1652375,-0.006,-0.01,0.01,0.0,-9.942173346644267e-05,9.444930037716404e-05,0.0,1000,1000,1000,1000,12600,0,0.0027986096683889627,0.0028150491416454315,0.002693748101592064,10,{}
normal_corridor_base_6,0,none,55359,0.001146455411799252,0.0009526344947516918,-0.08989261090755463,-35.3632621,149.1652375,-0.006,-0.01,0.01,0.0,-9.942174074240029e-05,9.444929310120642e-05,0.0,1000,1000,1000,1000,12600,0,0.0025653615593910217,0.002535554813221097,0.0026234781835228205,10,{}
normal_corridor_base_6,0,none,55609,0.0011497512459754944,0.0009569270769134164,-0.09002306312322617,-35.3632621,149.1652375,-0.006,-0.01,0.01,0.0,-9.942168981069699e-05,9.444924944546074e-05,0.0,1000,1000,1000,1000,12600,0,0.002817535540089011,0.003212274983525276,0.002643297892063856,10,{}
normal_corridor_base_6,0,none,55859,0.001146637019701302,0.0009505224879831076,-0.0901414081454277,-35.3632621,149.1652375,-0.006,-0.01,0.01,0.0,-9.942170436261222e-05,9.444929310120642e-05,0.0,1000,1000,1000,1000,12600,0,0.0026250488590449095,0.0027982108294963837,0.0025702097918838263,10,{}
normal_corridor_base_6,0,none,56109,0.0011456083739176393,0.0009517219150438905,-0.09026864171028137,-35.3632621,149.1652375,-0.006,-0.01,0.01,0.0,-9.942168253473938e-05,9.444927127333358e-05,0.0,1000,1000,1000,1000,12600,0,0.0027849364560097456,0.002856514183804393,0.003040461568161845,10,{}
normal_corridor_base_6,0,none,56359,0.001150742289610207,0.0009558619349263608,-0.09038730710744858,-35.3632621,149.1652375,-0.006,-0.01,0.01,0.0,-9.942167525878176e-05,9.444924216950312e-05,0.0,1000,1000,1000,1000,12600,0,0.0027203415520489216,0.002890425967052579,0.003163292771205306,10,{}
normal_corridor_base_6,0,none,56609,0.0011518693063408136,0.0009608949767425656,-0.09050985425710678,-35.3632621,149.1652375,-0.006,-0.01,0.01,0.0,-9.94216970866546e-05,9.444927127333358e-05,0.0,1000,1000,1000,1000,12600,0,0.0027449512854218483,0.0026981437113136053,0.0027362967375665903,10,{}
normal_corridor_base_6,0,none,56859,0.0011375400936231017,0.0009584983345121145,-0.0905952900648117,-35.3632621,149.1652375,-0.006,-0.01,0.01,0.0,-9.94217480183579e-05,9.444930037716404e-05,0.0,1000,1000,1000,1000,12600,0,0.0028893600683659315,0.0026930251624435186,0.0027068881317973137,10,{}
normal_corridor_base_6,0,none,57109,0.0011328201508149505,0.0009548915550112724,-0.09071136265993118,-35.3632621,149.1652375,-0.006,-0.01,0.01,0.0,-9.942180622601882e-05,9.444932220503688e-05,0.0,1000,1000,1000,1000,12600,0,0.00275367870926857,0.00308021972887218,0.0027672003488987684,10,{}
normal_corridor_base_6,0,none,57359,0.0011408270802348852,0.0009573363931849599,-0.09083059430122375,-35.3632621,149.1652375,-0.006,-0.01,0.01,0.0,-9.942182077793404e-05,9.444934403290972e-05,0.0,1000,1000,1000,1000,12600,0,0.002756827510893345,0.0028920324984937906,0.002678319113329053,10,{}
normal_corridor_base_6,0,none,57609,0.0011471644975245,0.0009653907036408782,-0.09094556421041489,-35.3632622,149.1652375,-0.006,-0.01,0.01,0.0,-9.942181350197643e-05,9.444935130886734e-05,0.0,1000,1000,1000,1000,12600,0,0.0026882162783294916,0.002612355398014188,0.002521827584132552,10,{}
normal_corridor_base_6,0,none,57859,0.0011461941758170724,0.0009619080810807645,-0.09105420857667923,-35.3632622,149.1652375,-0.006,-0.01,0.01,0.0,-9.942182805389166e-05,9.444936586078256e-05,0.0,1000,1000,1000,1000,12600,0,0.0026686876080930233,0.0025595328770577908,0.002613175194710493,10,{}
normal_corridor_base_6,0,none,58109,0.0011505525326356292,0.0009610041161067784,-0.09116332978010178,-35.3632621,149.1652375,-0.006,-0.01,0.01,0.0,-9.942185715772212e-05,9.444940224057063e-05,0.0,1000,1000,1000,1000,12600,0,0.0025921626947820187,0.002722289878875017,0.0025753893423825502,10,{}
normal_corridor_base_6,0,none,58359,0.001154232071712613,0.000966985709965229,-0.09127876162528992,-35.3632622,149.1652375,-0.006,-0.01,0.01,0.0,-9.94218498817645e-05,9.444938041269779e-05,0.0,1000,1000,1000,1000,12600,0,0.003136976854875684,0.00285535492002964,0.002741058124229312,10,{}
normal_corridor_base_6,0,none,58609,0.0011553011136129498,0.0009718756773509085,-0.09138531237840652,-35.3632622,149.1652375,-0.006,-0.01,0.01,0.0,-9.942191536538303e-05,9.444943134440109e-05,0.0,1000,1000,1000,1000,12600,0,0.0033145740162581205,0.0030581026803702116,0.0028399054426699877,10,{}
normal_corridor_base_6,0,none,58859,0.00115388969425112,0.0009682156960479915,-0.09149821102619171,-35.3632621,149.1652375,-0.006,-0.01,0.01,0.0,-9.94219517451711e-05,9.444946772418916e-05,0.0,1000,1000,1000,1000,12600,0,0.002873932244256139,0.002750982763245702,0.002643563784658909,10,{}
normal_corridor_base_6,0,none,59109,0.0011556694516912103,0.0009694803738966584,-0.09160532802343369,-35.3632621,149.1652375,-0.006,-0.01,0.01,0.0,-9.942192264134064e-05,9.444939496461302e-05,0.0,1000,1000,1000,1000,12600,0,0.002709657186642289,0.0027901530265808105,0.002635806333273649,10,{}
normal_corridor_base_6,0,none,59359,0.001157964114099741,0.0009754665661603212,-0.09170641750097275,-35.3632621,149.1652375,-0.006,-0.01,0.01,0.0,-9.942193719325587e-05,9.44493876886554e-05,0.0,1000,1000,1000,1000,12600,0,0.002986150560900569,0.0025646232534199953,0.0026288125663995743,10,{}
normal_corridor_base_6,0,none,59609,0.0011633834801614285,0.0009801442502066493,-0.09181450307369232,-35.3632622,149.1652375,-0.006,-0.01,0.01,0.0,-9.942194446921349e-05,9.444936586078256e-05,0.0,1000,1000,1000,1000,12600,0,0.0029572832863777876,0.0027076476253569126,0.0027441259007900953,10,{}
normal_corridor_base_6,0,none,59859,0.001150948228314519,0.0009753514314070344,-0.09191413968801498,-35.3632621,149.1652375,-0.006,-0.01,0.01,0.0,-9.942197357304394e-05,9.44493876886554e-05,0.0,1000,1000,1000,1000,12600,0,0.002691302914172411,0.0028327982872724533,0.002781176706776023,10,{}
normal_corridor_base_6,0,none,60109,0.001150992582552135,0.0009697595960460603,-0.0920155718922615,-35.3632621,149.1652375,-0.006,-0.01,0.01,0.0,-9.942198812495917e-05,9.444936586078256e-05,0.0,1000,1000,1000,1000,12600,0,0.0030766644049435854,0.0027686390094459057,0.0027320855297148228,10,{}
normal_corridor_base_6,0,none,60359,0.001152415294200182,0.0009686223929747939,-0.0921175554394722,-35.3632621,149.1652375,-0.006,-0.01,0.01,0.0,-9.942203178070486e-05,9.444936586078256e-05,0.0,1000,1000,1000,1000,12600,0,0.00264367600902915,0.0028392449021339417,0.0027064899913966656,10,{}
normal_corridor_base_6,0,none,60609,0.0011598190758377314,0.0009716156055219471,-0.09221701323986053,-35.3632622,149.1652375,-0.006,-0.01,0.01,0.0,-9.942204633262008e-05,9.444936586078256e-05,0.0,1000,1000,1000,1000,12600,0,0.0027707696426659822,0.002933873562142253,0.0028347743209451437,10,{}
normal_corridor_base_6,0,none,60859,0.0011506222654134035,0.0009574568248353899,-0.09232082962989807,-35.3632621,149.1652375,-0.006,-0.01,0.01,0.0,-9.942202450474724e-05,9.444936586078256e-05,0.0,1000,1000,1000,1000,12600,0,0.002845232840627432,0.0027584449853748083,0.00260436930693686,10,{}
normal_corridor_base_6,0,none,61109,0.0011541894637048244,0.0009530831011943519,-0.09242058545351028,-35.3632621,149.1652375,-0.006,-0.01,0.01,0.0,-9.94220536085777e-05,9.444938041269779e-05,0.0,1000,1000,1000,1000,12600,0,0.002466082340106368,0.0028912045527249575,0.00280753243714571,10,{}
normal_corridor_base_6,0,none,61359,0.001157370861619711,0.0009573562419973314,-0.09250995516777039,-35.3632622,149.1652375,-0.006,-0.01,0.01,0.0,-9.942203905666247e-05,9.444936586078256e-05,0.0,1000,1000,1000,1000,12600,0,0.0032029920257627964,0.0030849571339786053,0.0030326165724545717,10,{}
normal_corridor_base_6,0,none,61609,0.001163512235507369,0.0009605655213817954,-0.09260693937540054,-35.3632622,149.1652375,-0.006,-0.01,0.01,0.0,-9.942208271240816e-05,9.444936586078256e-05,0.0,1000,1000,1000,1000,12600,0,0.0027413039933890104,0.0028050777036696672,0.0029552169144153595,10,{}
normal_corridor_base_6,0,none,61859,0.0011544275330379605,0.0009527966612949967,-0.09268105775117874,-35.3632622,149.1652375,-0.006,-0.01,0.01,0.0,-9.942208998836577e-05,9.444940224057063e-05,0.0,1000,1000,1000,1000,12600,0,0.0028701815754175186,0.0027552323881536722,0.003020034870132804,10,{}
normal_corridor_base_6,0,none,62109,0.0011569677153602242,0.0009554944699630141,-0.09277230501174927,-35.3632622,149.1652375,-0.006,-0.01,0.01,0.0,-9.9422104540281e-05,9.444942406844348e-05,0.0,1000,1000,1000,1000,12600,0,0.002576263854280114,0.0028237842489033937,0.00281587615609169,10,{}
normal_corridor_base_6,0,none,62359,0.001162378117442131,0.0009543164051137865,-0.09286495298147202,-35.3632622,149.1652375,-0.006,-0.01,0.01,0.0,-9.942212636815384e-05,9.444945317227393e-05,0.0,1000,1000,1000,1000,12600,0,0.0026123153511434793,0.0026703509502112865,0.0027822148986160755,10,{}
normal_corridor_base_6,0,none,62609,0.0011630640365183353,0.0009633832378312945,-0.09295174479484558,-35.3632622,149.1652375,-0.006,-0.01,0.01,0.0,-9.942212636815384e-05,9.444947500014678e-05,0.0,1000,1000,1000,1000,12600,0,0.002607963513582945,0.00300018722191453,0.0027914310339838266,10,{}
normal_corridor_base_6,0,none,62859,0.0011604845058172941,0.0009619378834031522,-0.09304547309875488,-35.3632621,149.1652375,-0.006,-0.01,0.01,0.0,-9.942214092006907e-05,9.4449489552062e-05,0.0,1000,1000,1000,1000,12600,0,0.002651479560881853,0.003121313638985157,0.0026552302297204733,10,{}
normal_corridor_base_6,0,none,63109,0.0011601106962189078,0.0009673222666606307,-0.09314198791980743,-35.3632622,149.1652375,-0.006,-0.01,0.01,0.0,-9.942209726432338e-05,9.444941679248586e-05,0.0,1000,1000,1000,1000,12600,0,0.002965441904962063,0.002840616274625063,0.00271061179228127,10,{}
normal_corridor_base_6,0,none,63359,0.001159029663540423,0.000966163061093539,-0.09323614090681076,-35.3632622,149.1652375,-0.006,-0.01,0.01,0.0,-9.942212636815384e-05,9.444942406844348e-05,0.0,1000,1000,1000,1000,12600,0,0.002757894340902567,0.0027701384387910366,0.0028627743013203144,10,{}
normal_corridor_base_6,0,none,63609,0.0011627719504758716,0.0009760424145497382,-0.09332115203142166,-35.3632622,149.1652375,-0.006,-0.01,0.01,0.0,-9.942211181623861e-05,9.44493876886554e-05,0.0,1000,1000,1000,1000,12600,0,0.0028746810276061296,0.002498235320672393,0.002747178077697754,10,{}
normal_corridor_base_6,0,none,63859,0.0011575233656913042,0.0009708762518130243,-0.09340231865644455,-35.3632622,149.1652375,-0.006,-0.01,0.01,0.0,-9.942208998836577e-05,9.444940951652825e-05,0.0,1000,1000,1000,1000,12600,0,0.002889009192585945,0.0030402233824133873,0.0028160575311630964,10,{}
normal_corridor_base_6,0,none,64109,0.0011629948858171701,0.0009625497623346746,-0.09349004924297333,-35.3632622,149.1652375,-0.006,-0.01,0.01,0.0,-9.942211909219623e-05,9.444942406844348e-05,0.0,1000,1000,1000,1000,12600,0,0.0027221243362873793,0.003016339847818017,0.0031026387587189674,10,{}
normal_corridor_base_6,0,none,64359,0.0011643841862678528,0.0009647234110161662,-0.0935746431350708,-35.3632622,149.1652375,-0.006,-0.01,0.01,0.0,-9.942214819602668e-05,9.444943134440109e-05,0.0,1000,1000,1000,1000,12600,0,0.0028825874906033278,0.00287686032243073,0.002806844422593713,10,{}
normal_corridor_base_6,0,none,64609,0.0011742374626919627,0.0009671474690549076,-0.09366049617528915,-35.3632622,149.1652375,-0.006,-0.01,0.01,0.0,-9.942217002389953e-05,9.444946044823155e-05,0.0,1000,1000,1000,1000,12600,0,0.002824182389304042,0.0028840594459325075,0.0029115660581737757,10,{}
normal_corridor_base_6,0,none,64859,0.0011716042645275593,0.0009586861706338823,-0.09374558180570602,-35.3632621,149.1652375,-0.006,-0.01,0.01,0.0,-9.942219912772998e-05,9.444946772418916e-05,0.0,1000,1000,1000,1000,12600,0,0.0028020250611007214,0.0029560797847807407,0.0029144000727683306,10,{}
normal_corridor_base_6,0,none,65109,0.0011645675403997302,0.0009521180763840675,-0.09383203834295273,-35.3632621,149.1652375,-0.006,-0.01,0.01,0.0,-9.942217729985714e-05,9.444945317227393e-05,0.0,1000,1000,1000,1000,12600,0,0.002846860559657216,0.0030448264442384243,0.0027191070839762688,10,{}
normal_corridor_base_6,0,none,65359,0.0011631917441263795,0.0009598119067959487,-0.09391213208436966,-35.3632622,149.1652375,-0.006,-0.01,0.01,0.0,-9.942219185177237e-05,9.444947500014678e-05,0.0,1000,1000,1000,1000,12600,0,0.0028156533371657133,0.002865562215447426,0.0028732996433973312,10,{}
normal_corridor_base_6,0,none,65609,0.0011656945571303368,0.0009660765063017607,-0.09399912506341934,-35.3632622,149.1652375,-0.006,-0.01,0.01,0.0,-9.942219912772998e-05,9.4449489552062e-05,0.0,1000,1000,1000,1000,12600,0,0.0026665946934372187,0.002545934170484543,0.002667010063305497,10,{}
normal_corridor_base_6,0,none,65859,0.0011626722989603877,0.0009607851970940828,-0.09408099204301834,-35.3632621,149.1652375,-0.006,-0.01,0.01,0.0,-9.942219912772998e-05,9.4449489552062e-05,0.0,1000,1000,1000,1000,12600,0,0.0026679912116378546,0.0029578441753983498,0.002627108246088028,10,{}
normal_corridor_base_6,0,none,66109,0.0011652786051854491,0.0009615044109523296,-0.09416186809539795,-35.3632621,149.1652375,-0.006,-0.01,0.01,0.0,-9.942219185177237e-05,9.4449489552062e-05,0.0,1000,1000,1000,1000,12600,0,0.002651833463460207,0.002939603989943862,0.002944599138572812,10,{}
normal_corridor_base_6,0,none,66359,0.0011716493172571063,0.0009616982424631715,-0.0942365825176239,-35.3632621,149.1652375,-0.006,-0.01,0.01,0.0,-9.942219912772998e-05,9.444951137993485e-05,0.0,1000,1000,1000,1000,12600,0,0.0028581684455275536,0.002851201221346855,0.0026736941654235125,10,{}
normal_corridor_base_6,0,none,66609,0.0011715091532096267,0.0009742812835611403,-0.09432173520326614,-35.3632622,149.1652375,-0.006,-0.01,0.01,0.0,-9.942217729985714e-05,9.444947500014678e-05,0.0,1000,1000,1000,1000,12600,0,0.0029005699325352907,0.0027807378210127354,0.002708904445171356,10,{}
normal_corridor_base_6,0,none,66859,0.001172133139334619,0.0009718957007862628,-0.09439142793416977,-35.3632621,149.1652375,-0.006,-0.01,0.01,0.0,-9.942214819602668e-05,9.444947500014678e-05,0.0,1000,1000,1000,1000,12600,0,0.0024763979017734528,0.0028172589372843504,0.002990212058648467,10,{}
normal_corridor_base_6,0,none,67109,0.001171556068584323,0.000970413675531745,-0.09445430338382721,-35.3632621,149.1652375,-0.006,-0.01,0.01,0.0,-9.94221554719843e-05,9.444950410397723e-05,0.0,1000,1000,1000,1000,12600,0,0.0029315960127860308,0.002608770038932562,0.0031276470981538296,10,{}
normal_corridor_base_6,0,none,67359,0.0011740743648260832,0.0009744778508320451,-0.0945136770606041,-35.3632622,149.1652375,-0.006,-0.01,0.01,0.0,-9.942217002389953e-05,9.444951137993485e-05,0.0,1000,1000,1000,1000,12600,0,0.0030050098430365324,0.0028587067499756813,0.0028557695914059877,10,{}
normal_corridor_base_6,0,none,67609,0.0011759717017412186,0.0009822900174185634,-0.09459088742733002,-35.3632622,149.1652375,-0.006,-0.01,0.01,0.0,-9.94222064036876e-05,9.4449489552062e-05,0.0,1000,1000,1000,1000,12600,0,0.0025982896331697702,0.002940783742815256,0.002750343643128872,10,{}
normal_corridor_base_6,0,none,67859,0.001177049707621336,0.000982400611974299,-0.09466646611690521,-35.3632622,149.1652375,-0.006,-0.01,0.01,0.0,-9.942216274794191e-05,9.4449489552062e-05,0.0,1000,1000,1000,1000,12600,0,0.002685612067580223,0.0029180345591157675,0.0028259065002202988,10,{}
normal_corridor_base_6,0,none,68109,0.0011777249164879322,0.0009811946656554937,-0.09473525732755661,-35.3632622,149.1652375,-0.006,-0.01,0.01,0.0,-9.942214092006907e-05,9.444949682801962e-05,0.0,1000,1000,1000,1000,12600,0,0.003075391985476017,0.0026856856420636177,0.0024714276660233736,10,{}
normal_corridor_base_6,0,none,68359,0.0011827886337414384,0.0009911633096635342,-0.09480980038642883,-35.3632622,149.1652375,-0.006,-0.01,0.01,0.0,-9.942214092006907e-05,9.444946044823155e-05,0.0,1000,1000,1000,1000,12600,0,0.002987128449603915,0.002749452367424965,0.002868725685402751,10,{}
normal_corridor_base_6,0,none,68609,0.0011901033576577902,0.0009955057175830007,-0.09488175809383392,-35.3632622,149.1652375,-0.006,-0.01,0.01,0.0,-9.942213364411145e-05,9.44494386203587e-05,0.0,1000,1000,1000,1000,12600,0,0.0027335314080119133,0.0030491549987345934,0.002974350471049547,10,{}
normal_corridor_base_6,0,none,68859,0.0011899495730176568,0.0009861575672402978,-0.09495221078395844,-35.3632621,149.1652375,0.003,-0.01,0.01,0.0,-9.942213364411145e-05,9.44493876886554e-05,0.0,1000,1000,1000,1000,12600,0,0.002812271239235997,0.002663548570126295,0.00277336104772985,10,{}
normal_corridor_base_6,0,none,69109,0.0011942785931751132,0.0009882712038233876,-0.09502524882555008,-35.3632621,149.1652375,0.003,-0.01,0.01,0.0,-9.445306932320818e-05,8.972881914814934e-05,0.0,1000,1000,1000,1000,12600,0,0.0028260264080017805,0.0027292142622172832,0.0025134270545095205,10,{}
normal_corridor_base_6,0,none,69359,0.00121353380382061,0.0010025283554568887,-0.0950954481959343,-35.3632621,149.1652375,0.003,-0.01,0.01,0.0,-9.445309115108103e-05,8.972882642410696e-05,0.0,1000,1000,1000,1000,12600,0,0.002929061185568571,0.0027728548739105463,0.0028173173777759075,10,{}
