flight_id,label,attack_type,timestamp,att_roll,att_pitch,att_yaw,pos_lat,pos_lon,pos_alt_rel,pos_vx,pos_vy,pos_vz,nav_roll,nav_pitch,nav_alt_error,servo1_raw,servo2_raw,servo3_raw,servo4_raw,sys_voltage_battery,sys_load,vib_x,vib_y,vib_z,gps_sats_visible,attack_params_json
normal_corridor_base_14,0,none,10206,0.00019494966545607895,-3.8828056858619675e-05,-0.3386886715888977,-35.3632621,149.1652374,0.0,0.0,0.0,-0.03,-9.942174074240029e-05,9.444947500014678e-05,0.0,1000,1000,1000,1000,12600,0,0.0027980220038443804,0.0031190230511128902,0.0027427237946540117,3,{}
normal_corridor_base_14,0,none,10539,0.0001993595069507137,-2.8086269594496116e-05,-0.30744606256484985,-35.3632621,149.1652374,0.0,0.0,0.0,-0.03,-9.94216970866546e-05,9.444939496461302e-05,0.0,1000,1000,1000,1000,12600,0,0.002714611357077956,0.0026963346172124147,0.003207739442586899,10,{}
normal_corridor_base_14,0,none,10872,0.00020115135703235865,-1.9826917196041904e-05,-0.27879390120506287,-35.3632621,149.1652374,0.0,0.0,0.0,-0.03,-9.942166798282415e-05,9.444939496461302e-05,0.0,1000,1000,1000,1000,12600,0,0.002586434129625559,0.0025399192236363888,0.0027566838543862104,10,{}
normal_corridor_base_14,0,none,11204,0.00020688613585662097,-9.607862011762336e-06,-0.24503982067108154,-35.3632621,149.1652374,0.0,0.0,0.0,-0.03,-9.942166798282415e-05,9.444939496461302e-05,0.0,1000,1000,1000,1000,12600,0,0.002716240007430315,0.002714434638619423,0.003048680257052183,10,{}
normal_corridor_base_14,0,none,11537,0.0002105789171764627,1.8165941639836092e-07,-0.22192218899726868,-35.3632621,149.1652374,0.0,0.0,0.0,-0.03,-9.942155884345993e-05,9.444935130886734e-05,0.0,1000,1000,1000,1000,12600,0,0.0030595960561186075,0.002699060831218958,0.002882414497435093,10,{}
normal_corridor_base_14,0,none,11871,0.00022154947509989142,3.5983186990051763e-06,-0.2009289711713791,-35.3632621,149.1652374,0.0,0.0,0.0,-0.02,-9.942158794729039e-05,9.444940951652825e-05,0.0,1000,1000,1000,1000,12600,0,0.0030970450025051832,0.0025831579696387053,0.002646454842761159,10,{}
normal_corridor_base_14,0,none,12204,0.00022300232376437634,2.042105552391149e-05,-0.17657028138637543,-35.3632621,149.1652374,0.0,0.0,0.0,-0.02,-9.942158794729039e-05,9.444940951652825e-05,0.0,1000,1000,1000,1000,12600,0,0.002963609993457794,0.002595429075881839,0.002908106194809079,10,{}
normal_corridor_base_14,0,none,12536,0.00023207480262499303,2.6244024411425926e-05,-0.1605920046567917,-35.3632621,149.1652374,0.0,0.0,0.0,-0.02,-9.942168253473938e-05,9.444942406844348e-05,0.0,1000,1000,1000,1000,12600,0,0.002855055034160614,0.0030991944950073957,0.0028510531410574913,10,{}
normal_corridor_base_14,0,none,12869,0.00023970847541932017,3.512780676828697e-05,-0.14636388421058655,-35.3632621,149.1652374,0.0,0.0,0.0,-0.02,-9.942163160303608e-05,9.444935858482495e-05,0.0,1000,1000,1000,1000,12600,0,0.002635544165968895,0.002923080697655678,0.0027408020105212927,10,{}
normal_corridor_base_14,0,none,13202,0.00024919185671024024,4.1101946408161893e-05,-0.12988430261611938,-35.3632621,149.1652374,0.0,0.0,0.0,-0.02,-9.942163160303608e-05,9.444935858482495e-05,0.0,1000,1000,1000,1000,12600,0,0.002687344793230295,0.002690846798941493,0.0028112297877669334,10,{}
normal_corridor_base_14,0,none,13537,0.00025781505974009633,4.678450568462722e-05,-0.1192731037735939,-35.3632621,149.1652374,0.0,0.0,0.0,-0.01,-9.942163160303608e-05,9.44493876886554e-05,0.0,1000,1000,1000,1000,12600,0,0.00276288203895092,0.002687922678887844,0.0029047089628875256,10,{}
normal_corridor_base_14,0,none,13869,0.0002676949370652437,5.6506753026042134e-05,-0.10995759069919586,-35.3632621,149.1652374,0.0,0.0,0.0,-0.01,-9.942155156750232e-05,9.444936586078256e-05,0.0,1000,1000,1000,1000,12600,0,0.003016068134456873,0.002728319726884365,0.002759963506832719,10,{}
normal_corridor_base_14,0,none,14201,0.0002787006087601185,6.699298683088273e-05,-0.09929827600717545,-35.3632621,149.1652374,0.0,0.0,0.0,-0.01,-9.942155156750232e-05,9.444936586078256e-05,0.0,1000,1000,1000,1000,12600,0,0.002748232800513506,0.0027514579705893993,0.0027283262461423874,10,{}
normal_corridor_base_14,0,none,14534,0.0002871854230761528,7.934118912089616e-05,-0.09248536825180054,-35.3632621,149.1652374,0.0,0.0,0.0,-0.01,-9.942151518771425e-05,9.444934403290972e-05,0.0,1000,1000,1000,1000,12600,0,0.002779491012915969,0.002785337157547474,0.002331563038751483,10,{}
normal_corridor_base_14,0,none,14869,0.0003018627467099577,9.052379755303264e-05,-0.08652102202177048,-35.3632621,149.1652374,0.0,0.0,0.0,-0.01,-9.942151518771425e-05,9.444934403290972e-05,0.0,1000,1000,1000,1000,12600,0,0.0028897766023874283,0.002737191505730152,0.0028096020687371492,10,{}
normal_corridor_base_14,0,none,15352,0.0003202961233910173,0.00010656270023901016,-0.07727712392807007,-35.3632621,149.1652374,0.0,0.0,0.0,-0.01,-9.942146425601095e-05,9.444929310120642e-05,0.0,1000,1000,1000,1000,12600,0,0.002670988440513611,0.002727802377194166,0.0024855562951415777,10,{}
normal_corridor_base_14,0,none,15602,0.0003311962354928255,0.0001118296422646381,-0.07388365268707275,-35.3632621,149.1652374,0.0,0.0,0.0,-0.01,-9.942150063579902e-05,9.444935130886734e-05,0.0,1000,1000,1000,1000,12600,0,0.002670988440513611,0.002727802377194166,0.0024855562951415777,10,{}
normal_corridor_base_14,0,none,16184,0.0003452042583376169,0.00012997495650779456,-0.06826519221067429,-35.3632621,149.1652374,0.0,0.0,0.0,0.0,-9.942147880792618e-05,9.444936586078256e-05,0.0,1000,1000,1000,1000,12600,0,0.002869691699743271,0.002785970689728856,0.002647893503308296,10,{}
normal_corridor_base_14,0,none,16519,0.0003532669215928763,0.00013789819786325097,-0.06596497446298599,-35.3632621,149.1652374,0.0,0.0,0.0,0.0,-9.942150791175663e-05,9.444938041269779e-05,0.0,1000,1000,1000,1000,12600,0,0.0031085845548659563,0.002815792104229331,0.0027286061085760593,10,{}
normal_corridor_base_14,0,none,16851,0.00037636986235156655,0.00015473189705517143,-0.06244127079844475,-35.3632621,149.1652374,0.0,0.0,0.0,0.0,-9.942150063579902e-05,9.444938041269779e-05,0.0,1000,1000,1000,1000,12600,0,0.003117138985544443,0.0025906378868967295,0.002622335683554411,10,{}
normal_corridor_base_14,0,none,17184,0.0003875784750562161,0.0001590102765476331,-0.06053543463349342,-35.3632621,149.1652374,0.0,0.0,0.0,0.0,-9.94214933598414e-05,9.444936586078256e-05,0.0,1000,1000,1000,1000,12600,0,0.002925122855231166,0.002977222204208374,0.0028551104478538036,10,{}
normal_corridor_base_14,0,none,17517,0.00039978791028261185,0.0001737871061777696,-0.058466389775276184,-35.3632621,149.1652374,0.0,0.0,0.0,0.0,-9.9421595223248e-05,9.444939496461302e-05,0.0,1000,1000,1000,1000,12600,0,0.00296124373562634,0.0027103577740490437,0.0030167517252266407,10,{}
normal_corridor_base_14,0,none,17849,0.00041509055881761014,0.00018357764929533005,-0.057158101350069046,-35.3632621,149.1652374,0.0,0.0,0.0,0.0,-9.942161705112085e-05,9.444938041269779e-05,0.0,1000,1000,1000,1000,12600,0,0.0028974844608455896,0.002726002363488078,0.002933410694822669,10,{}
normal_corridor_base_14,0,none,18184,0.00042177841532975435,0.00020057125948369503,-0.056092847138643265,-35.3632621,149.1652374,0.0,0.0,0.0,0.0,-9.942168253473938e-05,9.444936586078256e-05,0.0,1000,1000,1000,1000,12600,0,0.003096189582720399,0.0028655794449150562,0.0029206406325101852,10,{}
normal_corridor_base_14,0,none,18516,0.0004407027445267886,0.00021669373381882906,-0.05494685471057892,-35.3632621,149.1652374,0.0,0.0,0.0,0.0,-9.942166070686653e-05,9.444932948099449e-05,0.0,1000,1000,1000,1000,12600,0,0.0027538498397916555,0.0027473787777125835,0.002610338618978858,10,{}
normal_corridor_base_14,0,none,18849,0.0004553403123281896,0.00023117971431929618,-0.054287709295749664,-35.3632621,149.1652374,0.0,0.0,0.0,0.0,-9.942166070686653e-05,9.444932948099449e-05,0.0,1000,1000,1000,1000,12600,0,0.0031419782899320126,0.0027713333256542683,0.0028757809195667505,10,{}
normal_corridor_base_14,0,none,19182,0.00047245752648450434,0.00024625411606393754,-0.05380382388830185,-35.3632621,149.1652374,0.0,0.0,0.0,0.0,-9.942165343090892e-05,9.444932220503688e-05,0.0,1000,1000,1000,1000,12600,0,0.0029050756711512804,0.0030795184429734945,0.0026965951547026634,10,{}
normal_corridor_base_14,0,none,19514,0.000488833524286747,0.0002587739145383239,-0.05332493409514427,-35.3632621,149.1652374,0.0,0.0,0.0,0.0,-9.942161705112085e-05,9.444935858482495e-05,0.0,1000,1000,1000,1000,12600,0,0.002877795835956931,0.0027960767038166523,0.0030017977114766836,10,{}
normal_corridor_base_14,0,none,19847,0.0005058954702690244,0.0002738113107625395,-0.0530519112944603,-35.3632621,149.1652374,0.0,0.0,0.0,0.0,-9.942161705112085e-05,9.444935858482495e-05,0.0,1000,1000,1000,1000,12600,0,0.0029035801999270916,0.0027904922608286142,0.0028686136938631535,10,{}
normal_corridor_base_14,0,none,20181,0.0005283189238980412,0.0002923205611295998,-0.052667390555143356,-35.3632621,149.1652374,0.004,0.0,0.0,0.0,-9.942168253473938e-05,9.444936586078256e-05,0.0,1000,1000,1000,1000,12600,0,0.00289448001421988,0.0027821881230920553,0.0026069623418152332,10,{}
normal_corridor_base_14,0,none,20514,0.0005458038649521768,0.00031448359368368983,-0.05259646475315094,-35.3632621,149.1652374,-0.008,0.0,0.0,0.0,-9.942170436261222e-05,9.444937313674018e-05,0.0,1000,1000,1000,1000,12600,0,0.0028495609294623137,0.0029452787712216377,0.0025970488786697388,10,{}
normal_corridor_base_14,0,none,20846,0.0005597581621259451,0.000327650282997638,-0.05264780670404434,-35.3632621,149.1652374,-0.007,0.0,0.0,0.0,-9.942170436261222e-05,9.444937313674018e-05,0.0,1000,1000,1000,1000,12600,0,0.00293834344483912,0.0028536978643387556,0.00301850913092494,10,{}
normal_corridor_base_14,0,none,21179,0.0005750380805693567,0.00034347677137702703,-0.052758533507585526,-35.3632621,149.1652374,-0.006,0.0,0.0,0.0,-9.942172619048506e-05,9.444936586078256e-05,0.0,1000,1000,1000,1000,12600,0,0.003003617050126195,0.0027255085296928883,0.0028830396477133036,10,{}
normal_corridor_base_14,0,none,21512,0.0005975492531433702,0.0003667576238512993,-0.05302949622273445,-35.3632621,149.1652374,-0.004,0.0,0.0,0.0,-9.942176984623075e-05,9.444938041269779e-05,0.0,1000,1000,1000,1000,12600,0,0.0028025491628795862,0.0028013845440000296,0.0027381437830626965,10,{}
normal_corridor_base_14,0,none,21847,0.0006176420138217509,0.00037952265120111406,-0.05323711410164833,-35.3632621,149.1652374,-0.002,0.0,0.0,0.0,-9.942176984623075e-05,9.444938041269779e-05,0.0,1000,1000,1000,1000,12600,0,0.003064702032133937,0.002794255269691348,0.0026439144276082516,10,{}
normal_corridor_base_14,0,none,22179,0.0006368840695358813,0.000393689755583182,-0.05349225178360939,-35.3632621,149.1652374,-0.001,0.0,0.01,0.0,-9.942182077793404e-05,9.444937313674018e-05,0.0,1000,1000,1000,1000,12600,0,0.002816522493958473,0.0026653555687516928,0.002824307419359684,10,{}
normal_corridor_base_14,0,none,22511,0.0006587286479771137,0.00042123341700062156,-0.05389435589313507,-35.3632621,149.1652374,0.0,0.0,0.01,0.0,-9.942192264134064e-05,9.444948227610439e-05,0.0,1000,1000,1000,1000,12600,0,0.0025606027338653803,0.00286624557338655,0.0029373248107731342,10,{}
normal_corridor_base_14,0,none,22844,0.0006778453243896365,0.0004417312447912991,-0.054236575961112976,-35.3632621,149.1652374,0.0,0.0,0.01,0.0,-9.942192264134064e-05,9.444948227610439e-05,0.0,1000,1000,1000,1000,12600,0,0.0027265448588877916,0.002573722042143345,0.003102024318650365,10,{}
normal_corridor_base_14,0,none,23179,0.0006959441234357655,0.00046240814845077693,-0.05459817498922348,-35.3632621,149.1652374,0.001,-0.01,0.01,0.0,-9.942198812495917e-05,9.444947500014678e-05,0.0,1000,1000,1000,1000,12600,0,0.00282025127671659,0.0026938850060105324,0.002881108783185482,10,{}
normal_corridor_base_14,0,none,23512,0.000713684014044702,0.00048604965559206903,-0.05517347529530525,-35.3632621,149.1652374,0.001,-0.01,0.01,0.0,-9.942187898559496e-05,9.444942406844348e-05,0.0,1000,1000,1000,1000,12600,0,0.002625339664518833,0.002735798479989171,0.002879812614992261,10,{}
normal_corridor_base_14,0,none,23844,0.0007288173655979335,0.0004969386500306427,-0.055568769574165344,-35.3632621,149.1652374,0.002,-0.01,0.01,0.0,-9.942187898559496e-05,9.444942406844348e-05,0.0,1000,1000,1000,1000,12600,0,0.0026031078305095434,0.0028217374347150326,0.002552906982600689,10,{}
normal_corridor_base_14,0,none,24176,0.0007441170164383948,0.0005177318234927952,-0.05600561946630478,-35.3632621,149.1652374,0.002,-0.01,0.01,0.0,-9.942180622601882e-05,9.444938041269779e-05,0.0,1000,1000,1000,1000,12600,0,0.002724241930991411,0.0027072231750935316,0.0025511845014989376,10,{}
normal_corridor_base_14,0,none,24509,0.0007607500883750618,0.000535528059117496,-0.05658193677663803,-35.3632621,149.1652374,0.002,-0.01,0.01,0.0,-9.942188626155257e-05,9.444941679248586e-05,0.0,1000,1000,1000,1000,12600,0,0.0025335943792015314,0.0028179502114653587,0.002724824473261833,10,{}
normal_corridor_base_14,0,none,24844,0.0007782093016430736,0.0005548226763494313,-0.057014670222997665,-35.3632621,149.1652374,0.002,-0.01,0.01,0.0,-9.942188626155257e-05,9.444941679248586e-05,0.0,1000,1000,1000,1000,12600,0,0.002728142077103257,0.0028912655543535948,0.0026227575726807117,10,{}
normal_corridor_base_14,0,none,25176,0.0007924170349724591,0.0005713526625186205,-0.057469822466373444,-35.3632621,149.1652374,0.003,-0.01,0.01,0.0,-9.942192991729826e-05,9.444950410397723e-05,0.0,1000,1000,1000,1000,12600,0,0.002852410078048706,0.0025721173733472824,0.002747512888163328,10,{}
normal_corridor_base_14,0,none,25509,0.0008093519136309624,0.0005872240872122347,-0.05804060399532318,-35.3632621,149.1652374,0.003,-0.01,0.01,0.0,-9.942188626155257e-05,9.444951865589246e-05,0.0,1000,1000,1000,1000,12600,0,0.002667082007974386,0.002872590208426118,0.0027194919530302286,10,{}
normal_corridor_base_14,0,none,25842,0.0008223532931879163,0.0006071670795790851,-0.058406341820955276,-35.3632621,149.1652374,0.002,-0.01,0.01,0.0,-9.942188626155257e-05,9.444951865589246e-05,0.0,1000,1000,1000,1000,12600,0,0.0027600808534771204,0.0028062358032912016,0.0030797957442700863,10,{}
normal_corridor_base_14,0,none,26174,0.0008406003471463919,0.0006192448199726641,-0.05889212340116501,-35.3632621,149.1652374,0.002,-0.01,0.01,0.0,-9.94219008134678e-05,9.444950410397723e-05,0.0,1000,1000,1000,1000,12600,0,0.002931049792096019,0.0028528242837637663,0.0031152195297181606,10,{}
normal_corridor_base_14,0,none,26509,0.0008577210828661919,0.0006249756552278996,-0.05954928696155548,-35.3632621,149.1652374,0.002,-0.01,0.01,0.0,-9.942190808942541e-05,9.44494386203587e-05,0.0,1000,1000,1000,1000,12600,0,0.002724975813180208,0.0027280186768621206,0.0029741523321717978,10,{}
normal_corridor_base_14,0,none,26841,0.0008729964611120522,0.0006320656975731254,-0.060041531920433044,-35.3632621,149.1652374,0.002,-0.01,0.01,0.0,-9.942190808942541e-05,9.44494386203587e-05,0.0,1000,1000,1000,1000,12600,0,0.0029054407496005297,0.002812065649777651,0.002598237246274948,10,{}
normal_corridor_base_14,0,none,27174,0.0008819803479127586,0.0006484614568762481,-0.060536086559295654,-35.3632621,149.1652374,0.002,-0.01,0.01,0.0,-9.942197357304394e-05,9.4449489552062e-05,0.0,1000,1000,1000,1000,12600,0,0.003105167066678405,0.0029087457805871964,0.002854072954505682,10,{}
normal_corridor_base_14,0,none,27507,0.000896052923053503,0.0006545111536979675,-0.061237335205078125,-35.3632621,149.1652374,0.002,-0.01,0.01,0.0,-9.942195902112871e-05,9.4449489552062e-05,0.0,1000,1000,1000,1000,12600,0,0.0026974035426974297,0.0027416571974754333,0.0027953628450632095,10,{}
normal_corridor_base_14,0,none,27839,0.0009094264241866767,0.0006712356116622686,-0.06173510476946831,-35.3632621,149.1652374,0.001,-0.01,0.01,0.0,-9.942195902112871e-05,9.4449489552062e-05,0.0,1000,1000,1000,1000,12600,0,0.0028059163596481085,0.0023753070272505283,0.002892039716243744,10,{}
normal_corridor_base_14,0,none,28172,0.000918144709430635,0.0006842489819973707,-0.06221742928028107,-35.3632621,149.1652374,0.001,-0.01,0.01,0.0,-9.942200995283201e-05,9.44495404837653e-05,0.0,1000,1000,1000,1000,12600,0,0.002723199315369129,0.003175830002874136,0.0027770022861659527,10,{}
normal_corridor_base_14,0,none,28506,0.0009345681173726916,0.0006979474565014243,-0.06288783997297287,-35.3632621,149.1652374,0.0,-0.01,0.01,0.0,-9.94220536085777e-05,9.444958413951099e-05,0.0,1000,1000,1000,1000,12600,0,0.0028388858772814274,0.0027506628539413214,0.0029007543344050646,10,{}
normal_corridor_base_14,0,none,28839,0.0009439164423383772,0.0007138393702916801,-0.06336349993944168,-35.3632621,149.1652374,0.0,-0.01,0.01,0.0,-9.94220536085777e-05,9.444958413951099e-05,0.0,1000,1000,1000,1000,12600,0,0.003099854802712798,0.002852208912372589,0.0030061875004321337,10,{}
normal_corridor_base_14,0,none,29171,0.0009569895337335765,0.0007302628364413977,-0.0638401061296463,-35.3632621,149.1652374,0.0,-0.01,0.01,0.0,-9.942216274794191e-05,9.444966417504475e-05,0.0,1000,1000,1000,1000,12600,0,0.002786667086184025,0.0027064341120421886,0.002400968223810196,10,{}
normal_corridor_base_14,0,none,29504,0.0009741400135681033,0.0007403463823720813,-0.0644695982336998,-35.3632621,149.1652374,0.0,-0.01,0.01,0.0,-9.942229371517897e-05,9.444972238270566e-05,0.0,1000,1000,1000,1000,12600,0,0.002850976539775729,0.0024465282913297415,0.002821905305609107,10,{}
normal_corridor_base_14,0,none,29837,0.0009818959515541792,0.0007542161038145423,-0.06496411561965942,-35.3632621,149.1652374,0.0,-0.01,0.02,0.0,-9.942229371517897e-05,9.444972238270566e-05,0.0,1000,1000,1000,1000,12600,0,0.0028113138396292925,0.0030287113040685654,0.002729200990870595,10,{}
normal_corridor_base_14,0,none,30102,0.0009911754168570042,0.000763328280299902,-0.06543919444084167,-35.3632621,149.1652374,0.0,-0.01,0.02,0.0,-9.942237375071272e-05,9.444977331440896e-05,0.0,1000,1000,1000,1000,12600,0,0.0030098757706582546,0.0027630997356027365,0.0028206300921738148,10,{}
normal_corridor_base_14,0,none,30352,0.0009988810634240508,0.0007762580644339323,-0.06582269817590714,-35.3632621,149.1652374,-0.001,-0.01,0.02,0.0,-9.942240285454318e-05,9.44497951422818e-05,0.0,1000,1000,1000,1000,12600,0,0.0030098757706582546,0.0027630997356027365,0.0028206300921738148,10,{}
normal_corridor_base_14,0,none,30604,0.0009988810634240508,0.0007762580644339323,-0.06582269817590714,-35.3632621,149.1652374,-0.001,-0.01,0.02,0.0,-9.942238102667034e-05,9.44497951422818e-05,0.0,1000,1000,1000,1000,12600,0,0.0028912292327731848,0.0026727893855422735,0.002809150842949748,10,{}
normal_corridor_base_14,0,none,30854,0.0010111576411873102,0.0007880271296016872,-0.06651388853788376,-35.3632621,149.1652374,-0.001,-0.01,0.02,0.0,-9.942244651028886e-05,9.444986062590033e-05,0.0,1000,1000,1000,1000,12600,0,0.002649520756676793,0.002705460647121072,0.0029449232388287783,10,{}
normal_corridor_base_14,0,none,31104,0.0010170686291530728,0.0007924888632260263,-0.06681642681360245,-35.3632621,149.1652374,-0.002,-0.01,0.02,0.0,-9.942250471794978e-05,9.444988972973078e-05,0.0,1000,1000,1000,1000,12600,0,0.0026380515191704035,0.0026918735820800066,0.0029353960417211056,10,{}
normal_corridor_base_14,0,none,31354,0.0010289095807820559,0.0007991534657776356,-0.06727198511362076,-35.3632621,149.1652374,-0.002,-0.01,0.02,0.0,-9.942250471794978e-05,9.444991883356124e-05,0.0,1000,1000,1000,1000,12600,0,0.002714283997192979,0.0029571945779025555,0.0028449641540646553,10,{}
normal_corridor_base_14,0,none,31602,0.00103667750954628,0.0008045579888857901,-0.06756091862916946,-35.3632621,149.1652374,-0.002,-0.01,0.02,0.0,-9.942253382178023e-05,9.444995521334931e-05,0.0,1000,1000,1000,1000,12600,0,0.002871585311368108,0.002759430557489395,0.002892202464863658,10,{}
normal_corridor_base_14,0,none,31852,0.001044028322212398,0.0008080877596512437,-0.06791597604751587,-35.3632621,149.1652374,-0.003,-0.01,0.02,0.0,-9.942251199390739e-05,9.444992610951886e-05,0.0,1000,1000,1000,1000,12600,0,0.0028023694176226854,0.0032802436035126448,0.002626372966915369,10,{}
normal_corridor_base_14,0,none,32102,0.001041832030750811,0.0008091912604868412,-0.06821612268686295,-35.3632621,149.1652374,-0.003,-0.01,0.02,0.0,-9.942249016603455e-05,9.444988972973078e-05,0.0,1000,1000,1000,1000,12600,0,0.0029443996027112007,0.00293141370639205,0.0025816690176725388,10,{}
normal_corridor_base_14,0,none,32352,0.0010532328160479665,0.0008186712511815131,-0.06865161657333374,-35.3632621,149.1652374,-0.003,-0.01,0.02,0.0,-9.942246833816171e-05,9.444992610951886e-05,0.0,1000,1000,1000,1000,12600,0,0.0029443996027112007,0.00293141370639205,0.0025816690176725388,10,{}
normal_corridor_base_14,0,none,32604,0.0010615108767524362,0.000825273513328284,-0.06896864622831345,-35.3632621,149.1652374,-0.003,-0.01,0.02,0.0,-9.942246833816171e-05,9.444995521334931e-05,0.0,1000,1000,1000,1000,12600,0,0.0029202846344560385,0.0028166824486106634,0.002962134312838316,10,{}
normal_corridor_base_14,0,none,32854,0.001066876808181405,0.0008373886812478304,-0.06939593702554703,-35.3632621,149.1652374,-0.004,-0.01,0.02,0.0,-9.942246833816171e-05,9.444995521334931e-05,0.0,1000,1000,1000,1000,12600,0,0.0025487320963293314,0.002496825996786356,0.00300008081831038,10,{}
normal_corridor_base_14,0,none,33104,0.001073513412848115,0.000845445494633168,-0.06968122720718384,-35.3632621,149.1652374,-0.004,-0.01,0.02,0.0,-9.942254837369546e-05,9.444994066143408e-05,0.0,1000,1000,1000,1000,12600,0,0.002772961976006627,0.0026477386709302664,0.002603142289444804,10,{}
normal_corridor_base_14,0,none,33354,0.0010887342505156994,0.0008565763127990067,-0.07011591643095016,-35.3632621,149.1652374,-0.004,-0.01,0.02,0.0,-9.942254837369546e-05,9.444994066143408e-05,0.0,1000,1000,1000,1000,12600,0,0.002772961976006627,0.0026477386709302664,0.002603142289444804,10,{}
normal_corridor_base_14,0,none,33404,0.0010913019068539143,0.0008620077860541642,-0.07025876641273499,-35.3632621,149.1652374,-0.004,-0.01,0.02,0.0,-9.942253382178023e-05,9.444992610951886e-05,0.0,1000,1000,1000,1000,12600,0,0.002772961976006627,0.0026477386709302664,0.002603142289444804,10,{}
normal_corridor_base_14,0,none,33737,0.0011045769788324833,0.0008718481985852122,-0.07067790627479553,-35.3632621,149.1652374,-0.004,-0.01,0.02,0.0,-9.942253382178023e-05,9.444992610951886e-05,0.0,1000,1000,1000,1000,12600,0,0.002872528275474906,0.002940606093034148,0.002801018999889493,10,{}
normal_corridor_base_14,0,none,34072,0.001115771709010005,0.0008773216977715492,-0.07110804319381714,-35.3632621,149.1652374,-0.005,-0.02,0.02,0.0,-9.942253382178023e-05,9.44499479373917e-05,0.0,1000,1000,1000,1000,12600,0,0.0025512955617159605,0.002942206570878625,0.002961707068607211,10,{}
normal_corridor_base_14,0,none,34404,0.0011207113275304437,0.0008875447674654424,-0.07151131331920624,-35.3632621,149.1652374,-0.005,-0.02,0.02,0.0,-9.942246106220409e-05,9.445002069696784e-05,0.0,1000,1000,1000,1000,12600,0,0.002811521990224719,0.0028392025269567966,0.0027417000383138657,10,{}
normal_corridor_base_14,0,none,34736,0.0011354488087818027,0.0009054658585228026,-0.07205396145582199,-35.3632621,149.1652374,-0.005,-0.02,0.02,0.0,-9.942246106220409e-05,9.445002069696784e-05,0.0,1000,1000,1000,1000,12600,0,0.0028289000038057566,0.002747564809396863,0.0030591494869440794,10,{}
normal_corridor_base_14,0,none,35069,0.0011479331878945231,0.0009157776366919279,-0.07244674861431122,-35.3632621,149.1652374,-0.005,-0.02,0.02,0.0,-9.942236647475511e-05,9.444996976526454e-05,0.0,1000,1000,1000,1000,12600,0,0.002713350811973214,0.0030030752532184124,0.002727657789364457,10,{}
normal_corridor_base_14,0,none,35404,0.0011512752389535308,0.0009287411230616271,-0.07284463942050934,-35.3632621,149.1652374,-0.005,-0.02,0.02,0.0,-9.942233737092465e-05,9.44499479373917e-05,0.0,1000,1000,1000,1000,12600,0,0.0026004300452768803,0.0028563833329826593,0.0024075121618807316,10,{}
normal_corridor_base_14,0,none,35736,0.001161355758085847,0.0009333632187917829,-0.07336713373661041,-35.3632621,149.1652374,-0.005,-0.02,0.02,0.0,-9.942233737092465e-05,9.44499479373917e-05,0.0,1000,1000,1000,1000,12600,0,0.002666792366653681,0.0028572427108883858,0.0028143879026174545,10,{}
normal_corridor_base_14,0,none,36069,0.0011652273824438453,0.0009362607961520553,-0.07368732243776321,-35.3632621,149.1652374,-0.005,-0.02,0.02,0.0,-9.942231554305181e-05,9.44498970056884e-05,0.0,1000,1000,1000,1000,12600,0,0.002734419656917453,0.0026906116399914026,0.0026598037220537663,10,{}
normal_corridor_base_14,0,none,36402,0.0011735428124666214,0.000949375971686095,-0.07403668016195297,-35.3632621,149.1652374,-0.005,-0.02,0.02,0.0,-9.942229371517897e-05,9.444991883356124e-05,0.0,1000,1000,1000,1000,12600,0,0.002887478331103921,0.002660144818946719,0.002783883363008499,10,{}
normal_corridor_base_14,0,none,36734,0.0011848965659737587,0.0009690718725323677,-0.07455794513225555,-35.3632621,149.1652374,-0.005,-0.02,0.02,0.0,-9.942229371517897e-05,9.444991883356124e-05,0.0,1000,1000,1000,1000,12600,0,0.0027827348094433546,0.002543648239225149,0.0027137123979628086,10,{}
normal_corridor_base_14,0,none,37069,0.0011951029300689697,0.0009866446489468217,-0.07491130381822586,-35.3632621,149.1652374,-0.005,-0.02,0.02,0.0,-9.942234464688227e-05,9.444991155760363e-05,0.0,1000,1000,1000,1000,12600,0,0.002607212867587805,0.002796305576339364,0.0027797354850918055,10,{}
normal_corridor_base_14,0,none,37401,0.001205108012072742,0.0009976217988878489,-0.07527758181095123,-35.3632621,149.1652374,-0.005,-0.02,0.02,0.0,-9.94223591987975e-05,9.444986790185794e-05,0.0,1000,1000,1000,1000,12600,0,0.003008038504049182,0.0030762378592044115,0.002734207548201084,10,{}
normal_corridor_base_14,0,none,37734,0.0012132880510762334,0.001009600586257875,-0.07575971633195877,-35.3632621,149.1652374,-0.005,-0.02,0.02,0.0,-9.94223591987975e-05,9.444986790185794e-05,0.0,1000,1000,1000,1000,12600,0,0.0028871356043964624,0.0030422366689890623,0.0025774699170142412,10,{}
normal_corridor_base_14,0,none,38067,0.0012153297429904342,0.0010272666113451123,-0.07612545043230057,-35.3632621,149.1652374,-0.006,-0.02,0.02,0.0,-9.942235192283988e-05,9.444988972973078e-05,0.0,1000,1000,1000,1000,12600,0,0.0029876078478991985,0.0027031530626118183,0.002496188273653388,10,{}
normal_corridor_base_14,0,none,38399,0.0012274878099560738,0.0010369688970968127,-0.07647319883108139,-35.3632621,149.1652374,-0.006,-0.02,0.02,0.0,-9.942232281900942e-05,9.444987517781556e-05,0.0,1000,1000,1000,1000,12600,0,0.002991836052387953,0.002952715614810586,0.0029192587826400995,10,{}
normal_corridor_base_14,0,none,38732,0.0012443099403753877,0.0010453715221956372,-0.07693485915660858,-35.3632621,149.1652374,-0.006,-0.02,0.02,0.0,-9.942232281900942e-05,9.444987517781556e-05,0.0,1000,1000,1000,1000,12600,0,0.0026633653324097395,0.002807407872751355,0.0027537988498806953,10,{}
normal_corridor_base_14,0,none,39066,0.001248638960532844,0.001060446142219007,-0.07728540897369385,-35.3632621,149.1652374,-0.006,-0.02,0.02,0.0,-9.942229371517897e-05,9.444986062590033e-05,0.0,1000,1000,1000,1000,12600,0,0.0029407069087028503,0.0031196263153105974,0.0028244408313184977,10,{}
normal_corridor_base_14,0,none,39399,0.0012521013850346208,0.001064875046722591,-0.07762666046619415,-35.3632621,149.1652374,-0.006,-0.02,0.02,0.0,-9.942227188730612e-05,9.444988972973078e-05,0.0,1000,1000,1000,1000,12600,0,0.0027225532103329897,0.002530822530388832,0.0028479257598519325,10,{}
normal_corridor_base_14,0,none,39731,0.0012546235229820013,0.0010745682520791888,-0.07806899398565292,-35.3632621,149.1652374,-0.006,-0.02,0.02,0.0,-9.942227188730612e-05,9.444988972973078e-05,0.0,1000,1000,1000,1000,12600,0,0.0028631435707211494,0.0027830798644572496,0.0026580267585814,10,{}
normal_corridor_base_14,0,none,40064,0.001261480851098895,0.0010788921499624848,-0.07840719074010849,-35.3632621,149.1652374,-0.006,-0.02,0.02,0.0,-9.942229371517897e-05,9.44498970056884e-05,0.0,1000,1000,1000,1000,12600,0,0.0026692424435168505,0.0030780485831201077,0.0026646554470062256,10,{}
normal_corridor_base_14,0,none,40397,0.0012693420285359025,0.001087901066057384,-0.07871845364570618,-35.3632621,149.1652374,-0.006,-0.02,0.02,0.0,-9.942229371517897e-05,9.444996976526454e-05,0.0,1000,1000,1000,1000,12600,0,0.002663097810000181,0.0028813183307647705,0.003041389863938093,10,{}
normal_corridor_base_14,0,none,40732,0.0012777869123965502,0.001093914033845067,-0.07913807034492493,-35.3632621,149.1652374,-0.006,-0.02,0.02,0.0,-9.942229371517897e-05,9.444996976526454e-05,0.0,1000,1000,1000,1000,12600,0,0.0025992693845182657,0.0029348069801926613,0.002809364115819335,10,{}
normal_corridor_base_14,0,none,41064,0.001285939710214734,0.0011006164131686091,-0.0793842226266861,-35.3632621,149.1652374,-0.006,-0.02,0.02,0.0,-9.942227188730612e-05,9.44499479373917e-05,0.0,1000,1000,1000,1000,12600,0,0.002608085051178932,0.0028547614347189665,0.002689342712983489,10,{}
normal_corridor_base_14,0,none,41396,0.00129282649140805,0.0011137044057250023,-0.07968845963478088,-35.3632621,149.1652374,-0.006,-0.02,0.02,0.0,-9.942228643922135e-05,9.444991883356124e-05,0.0,1000,1000,1000,1000,12600,0,0.002766722347587347,0.00313761574216187,0.002899116836488247,10,{}
normal_corridor_base_14,0,none,41729,0.0013066834071651101,0.0011295616859570146,-0.0800962746143341,-35.3632621,149.1652374,-0.006,0.0,0.0,0.0,-9.942228643922135e-05,9.444991883356124e-05,0.0,1000,1000,1000,1000,12600,0,0.0029071588069200516,0.0028554291930049658,0.002975603798404336,10,{}
normal_corridor_base_14,0,none,42062,0.0013738120906054974,0.0011933486675843596,-0.08039528876543045,-35.3632621,149.1652374,-0.006,0.0,0.0,0.0,-9.942232281900942e-05,9.444993338547647e-05,0.0,1000,1000,1000,1000,12600,0,0.0028263009153306484,0.002685785759240389,0.0027314391918480396,10,{}
normal_corridor_base_14,0,none,42397,0.001449149800464511,0.001270871958695352,-0.08070798963308334,-35.3632621,149.1652374,-0.006,0.0,0.0,0.0,-9.942228643922135e-05,9.444992610951886e-05,0.0,1000,1000,1000,1000,12600,0,0.0029752077534794807,0.003009514417499304,0.002704298822209239,10,{}
normal_corridor_base_14,0,none,42729,0.0015320591628551483,0.0013554490869864821,-0.08111091703176498,-35.3632621,149.1652374,-0.006,0.0,0.0,0.0,-9.942228643922135e-05,9.444992610951886e-05,0.0,1000,1000,1000,1000,12600,0,0.002842139219865203,0.002481055213138461,0.002393948147073388,10,{}
normal_corridor_base_14,0,none,43061,0.0015938146971166134,0.0014122520806267858,-0.08141732960939407,-35.3632621,149.1652374,-0.006,-0.01,0.01,0.0,-9.942234464688227e-05,9.444994066143408e-05,0.0,1000,1000,1000,1000,12600,0,0.0025230434257537127,0.0029914642218500376,0.0028036953881382942,10,{}
normal_corridor_base_14,0,none,43394,0.0016310404753312469,0.0014464702690020204,-0.08172939717769623,-35.3632621,149.1652374,-0.006,-0.01,0.01,0.0,-9.942232281900942e-05,9.444987517781556e-05,0.0,1000,1000,1000,1000,12600,0,0.0025860017631202936,0.003135175909847021,0.002769575687125325,10,{}
normal_corridor_base_14,0,none,43729,0.001658585388213396,0.0014707321533933282,-0.08213680237531662,-35.3632621,149.1652374,-0.006,-0.01,0.01,0.0,-9.942232281900942e-05,9.444987517781556e-05,0.0,1000,1000,1000,1000,12600,0,0.002508791396394372,0.002829937497153878,0.0027885930612683296,10,{}
normal_corridor_base_14,0,none,44061,0.0016624890267848969,0.0014798460761085153,-0.08244218677282333,-35.3632621,149.1652374,-0.006,-0.01,0.01,0.0,-9.942238102667034e-05,9.444988972973078e-05,0.0,1000,1000,1000,1000,12600,0,0.0028156449552625418,0.0031120372004806995,0.0027082995511591434,10,{}
normal_corridor_base_14,0,none,44394,0.0016353433020412922,0.0014522236306220293,-0.08274658024311066,-35.3632621,149.1652375,-0.006,-0.01,0.02,0.0,-9.942238830262795e-05,9.444986790185794e-05,0.0,1000,1000,1000,1000,12600,0,0.0028514491859823465,0.0028962709475308657,0.002820454305037856,10,{}
normal_corridor_base_14,0,none,44727,0.0015938819851726294,0.0014015071792528033,-0.08311950415372849,-35.3632621,149.1652375,-0.006,-0.01,0.02,0.0,-9.942238830262795e-05,9.444986790185794e-05,0.0,1000,1000,1000,1000,12600,0,0.0027496598195284605,0.002674039686098695,0.0025823735632002354,10,{}
normal_corridor_base_14,0,none,45059,0.0015513102989643812,0.0013680410338565707,-0.08340868353843689,-35.3632621,149.1652375,-0.006,-0.01,0.02,0.0,-9.942232281900942e-05,9.444986062590033e-05,0.0,1000,1000,1000,1000,12600,0,0.0027013325598090887,0.002869539661332965,0.0028392632957547903,10,{}
normal_corridor_base_14,0,none,45354,0.0014804797247052193,0.0012993920827284455,-0.08371040970087051,-35.3632621,149.1652375,-0.006,-0.01,0.02,0.0,-9.942232281900942e-05,9.444986062590033e-05,0.0,1000,1000,1000,1000,12600,0,0.0026428287383168936,0.002780470997095108,0.002772582694888115,10,{}
normal_corridor_base_14,0,none,45604,0.0014411400770768523,0.0012627006508409977,-0.0839231014251709,-35.3632622,149.1652375,-0.006,-0.01,0.02,0.0,-9.942233737092465e-05,9.444988972973078e-05,0.0,1000,1000,1000,1000,12600,0,0.0026428287383168936,0.002780470997095108,0.002772582694888115,10,{}
normal_corridor_base_14,0,none,45854,0.0013846403453499079,0.0012035705149173737,-0.08412586897611618,-35.3632622,149.1652375,-0.006,-0.01,0.02,0.0,-9.942232281900942e-05,9.444987517781556e-05,0.0,1000,1000,1000,1000,12600,0,0.0030863878782838583,0.0027566668577492237,0.002908692229539156,10,{}
normal_corridor_base_14,0,none,46104,0.0013428085949271917,0.001158235245384276,-0.08433030545711517,-35.3632622,149.1652375,-0.006,-0.01,0.01,0.0,-9.942230099113658e-05,9.444988245377317e-05,0.0,1000,1000,1000,1000,12600,0,0.002984887221828103,0.0028086963575333357,0.0028126961551606655,10,{}
normal_corridor_base_14,0,none,46352,0.0013025023508816957,0.0011123078875243664,-0.08450182527303696,-35.3632622,149.1652375,-0.006,-0.01,0.01,0.0,-9.942228643922135e-05,9.444988245377317e-05,0.0,1000,1000,1000,1000,12600,0,0.00257099443115294,0.002707461826503277,0.0028636532370001078,10,{}
normal_corridor_base_14,0,none,46602,0.0012772622285410762,0.0010922300862148404,-0.08466111123561859,-35.3632622,149.1652375,-0.006,-0.01,0.01,0.0,-9.942232281900942e-05,9.444991155760363e-05,0.0,1000,1000,1000,1000,12600,0,0.00264216517098248,0.002815608400851488,0.002646306762471795,10,{}
normal_corridor_base_14,0,none,46852,0.0012309965677559376,0.001052438747137785,-0.08486385643482208,-35.3632621,149.1652375,-0.006,-0.01,0.01,0.0,-9.942226461134851e-05,9.444991155760363e-05,0.0,1000,1000,1000,1000,12600,0,0.0029707022476941347,0.002645723056048155,0.0024611451663076878,10,{}
normal_corridor_base_14,0,none,47104,0.0011975904926657677,0.001022713491693139,-0.08504047244787216,-35.3632621,149.1652375,-0.006,-0.01,0.01,0.0,-9.942225005943328e-05,9.444992610951886e-05,0.0,1000,1000,1000,1000,12600,0,0.0028023007325828075,0.002653572941198945,0.002382361562922597,10,{}
normal_corridor_base_14,0,none,47354,0.0011719116009771824,0.001000384334474802,-0.08522963523864746,-35.3632621,149.1652375,-0.006,-0.01,0.01,0.0,-9.942221367964521e-05,9.44498970056884e-05,0.0,1000,1000,1000,1000,12600,0,0.00298507884144783,0.0028518245089799166,0.0027925963513553143,10,{}
normal_corridor_base_14,0,none,47604,0.0011588070774450898,0.000987262581475079,-0.08539555966854095,-35.3632621,149.1652375,-0.006,-0.01,0.01,0.0,-9.942217729985714e-05,9.444986062590033e-05,0.0,1000,1000,1000,1000,12600,0,0.0027651889249682426,0.00278066867031157,0.002833001781255007,10,{}
normal_corridor_base_14,0,none,47854,0.001132429693825543,0.0009647379629313946,-0.08558318018913269,-35.3632621,149.1652375,-0.006,-0.01,0.01,0.0,-9.942214819602668e-05,9.444982424611226e-05,0.0,1000,1000,1000,1000,12600,0,0.0028726437594741583,0.002711338922381401,0.0027382494881749153,10,{}
normal_corridor_base_14,0,none,48104,0.0011169440113008022,0.0009482037858106196,-0.08573798090219498,-35.3632621,149.1652375,-0.006,-0.01,0.01,0.0,-9.942211909219623e-05,9.444982424611226e-05,0.0,1000,1000,1000,1000,12600,0,0.0030948978383094072,0.0027696487959474325,0.002795629668980837,10,{}
normal_corridor_base_14,0,none,48352,0.0011059866519644856,0.0009370085899718106,-0.08592329174280167,-35.3632621,149.1652375,-0.006,-0.01,0.01,0.0,-9.9422104540281e-05,9.444980969419703e-05,0.0,1000,1000,1000,1000,12600,0,0.0026993537321686745,0.0029867307748645544,0.002863135654479265,10,{}
normal_corridor_base_14,0,none,48602,0.001099247019737959,0.0009307488217018545,-0.0860808938741684,-35.3632621,149.1652375,-0.006,-0.01,0.01,0.0,-9.942207543645054e-05,9.444980969419703e-05,0.0,1000,1000,1000,1000,12600,0,0.0028912005946040154,0.0027307234704494476,0.002998277312144637,10,{}
normal_corridor_base_14,0,none,48852,0.0010890064295381308,0.0009223561501130462,-0.08624280244112015,-35.3632621,149.1652375,-0.006,-0.01,0.01,0.0,-9.942206816049293e-05,9.444978786632419e-05,0.0,1000,1000,1000,1000,12600,0,0.002841594396159053,0.003061505500227213,0.0027512952219694853,10,{}
normal_corridor_base_14,0,none,49102,0.0010843920754268765,0.0009158637840300798,-0.08640726655721664,-35.3632621,149.1652375,-0.006,-0.01,0.01,0.0,-9.942202450474724e-05,9.444976603845134e-05,0.0,1000,1000,1000,1000,12600,0,0.0028043596539646387,0.0031085521914064884,0.0027516770642250776,10,{}
normal_corridor_base_14,0,none,49354,0.0010827458463609219,0.0009113935520872474,-0.08656544238328934,-35.3632621,149.1652375,-0.006,-0.01,0.01,0.0,-9.942195902112871e-05,9.444973693462089e-05,0.0,1000,1000,1000,1000,12600,0,0.002732842927798629,0.0026489251758903265,0.002798243658617139,10,{}
normal_corridor_base_14,0,none,49604,0.001083318260498345,0.0009119200403802097,-0.08671832084655762,-35.3632621,149.1652375,-0.006,-0.01,0.01,0.0,-9.942197357304394e-05,9.444972238270566e-05,0.0,1000,1000,1000,1000,12600,0,0.002705017104744911,0.0028584597166627645,0.002694720169529319,10,{}
normal_corridor_base_14,0,none,49854,0.0010778730502352118,0.0009135783184319735,-0.08688031882047653,-35.3632621,149.1652375,-0.006,-0.01,0.01,0.0,-9.942198812495917e-05,9.444972238270566e-05,0.0,1000,1000,1000,1000,12600,0,0.0026668154168874025,0.002837886568158865,0.002634619129821658,10,{}
normal_corridor_base_14,0,none,50104,0.001077523222193122,0.0009146906668320298,-0.08703603595495224,-35.3632621,149.1652375,-0.006,-0.01,0.01,0.0,-9.942198812495917e-05,9.444970055483282e-05,0.0,1000,1000,1000,1000,12600,0,0.0028905768413096666,0.0027850077021867037,0.0027597155421972275,10,{}
normal_corridor_base_14,0,none,50352,0.001080704852938652,0.0009156184969469905,-0.08718600124120712,-35.3632621,149.1652375,-0.006,-0.01,0.01,0.0,-9.94219517451711e-05,9.444964962312952e-05,0.0,1000,1000,1000,1000,12600,0,0.0024053682573139668,0.002637889701873064,0.002970012603327632,10,{}
normal_corridor_base_14,0,none,50602,0.0010835247812792659,0.0009137835004366934,-0.08734474331140518,-35.3632621,149.1652375,-0.006,-0.01,0.01,0.0,-9.942196629708633e-05,9.444961324334145e-05,0.0,1000,1000,1000,1000,12600,0,0.002823560731485486,0.003015998052433133,0.002757385838776827,10,{}
normal_corridor_base_14,0,none,50852,0.001085303258150816,0.0009118804591707885,-0.08749375492334366,-35.3632621,149.1652375,-0.006,-0.01,0.01,0.0,-9.942192991729826e-05,9.444955503568053e-05,0.0,1000,1000,1000,1000,12600,0,0.002834909362718463,0.003081076079979539,0.0029645063914358616,10,{}
normal_corridor_base_14,0,none,51102,0.0010853878920897841,0.0009120735921896994,-0.08763807266950607,-35.3632621,149.1652375,-0.006,-0.01,0.01,0.0,-9.942192264134064e-05,9.444954775972292e-05,0.0,1000,1000,1000,1000,12600,0,0.0026799850165843964,0.00263270759023726,0.0027050108183175325,10,{}
normal_corridor_base_14,0,none,51354,0.0010858133900910616,0.0009175768354907632,-0.08778438717126846,-35.3632621,149.1652375,-0.006,-0.01,0.01,0.0,-9.942189353751019e-05,9.444951865589246e-05,0.0,1000,1000,1000,1000,12600,0,0.0029122401028871536,0.0027383274864405394,0.0025523535441607237,10,{}
normal_corridor_base_14,0,none,51604,0.0010916340397670865,0.0009184255613945425,-0.08792717009782791,-35.3632621,149.1652375,-0.006,-0.01,0.01,0.0,-9.942188626155257e-05,9.444950410397723e-05,0.0,1000,1000,1000,1000,12600,0,0.002893341239541769,0.0029222385492175817,0.0029246697667986155,10,{}
normal_corridor_base_14,0,none,51854,0.0010946730617433786,0.0009140240726992488,-0.08806680142879486,-35.3632621,149.1652375,-0.006,-0.01,0.01,0.0,-9.942190808942541e-05,9.444951865589246e-05,0.0,1000,1000,1000,1000,12600,0,0.002978250617161393,0.002636110410094261,0.0029025685507804155,10,{}
normal_corridor_base_14,0,none,52104,0.001099464832805097,0.0009063141187652946,-0.08821365237236023,-35.3632621,149.1652375,-0.006,-0.01,0.01,0.0,-9.94219008134678e-05,9.4449489552062e-05,0.0,1000,1000,1000,1000,12600,0,0.002980356104671955,0.0025234532076865435,0.0028609002474695444,10,{}
normal_corridor_base_14,0,none,52354,0.0011040210956707597,0.0009052871610037982,-0.08834532648324966,-35.3632621,149.1652375,-0.006,-0.01,0.01,0.0,-9.942187898559496e-05,9.4449489552062e-05,0.0,1000,1000,1000,1000,12600,0,0.0027319409418851137,0.002879194915294647,0.0028401061426848173,10,{}
normal_corridor_base_14,0,none,52602,0.001108131487853825,0.0009157033637166023,-0.08845441788434982,-35.3632621,149.1652375,-0.006,-0.01,0.01,0.0,-9.942186443367973e-05,9.444945317227393e-05,0.0,1000,1000,1000,1000,12600,0,0.003151178127154708,0.0027405773289501667,0.002797189634293318,10,{}
normal_corridor_base_14,0,none,52852,0.0011104063596576452,0.0009180120541714132,-0.08859742432832718,-35.3632621,149.1652375,-0.006,-0.01,0.01,0.0,-9.942183532984927e-05,9.444941679248586e-05,0.0,1000,1000,1000,1000,12600,0,0.002935736207291484,0.0030668750405311584,0.002910713432356715,10,{}
normal_corridor_base_14,0,none,53102,0.0011100290575996041,0.0009140246547758579,-0.08872392773628235,-35.3632621,149.1652375,-0.006,-0.01,0.01,0.0,-9.942186443367973e-05,9.444943134440109e-05,0.0,1000,1000,1000,1000,12600,0,0.0027094644028693438,0.0028501420747488737,0.002694841008633375,10,{}
normal_corridor_base_14,0,none,53354,0.0011169607751071453,0.0009218837949447334,-0.08887330442667007,-35.3632621,149.1652375,-0.006,-0.01,0.01,0.0,-9.942185715772212e-05,9.444944589631632e-05,0.0,1000,1000,1000,1000,12600,0,0.0027912037912756205,0.0025407737120985985,0.0025785721372812986,10,{}
normal_corridor_base_14,0,none,53604,0.0011289530666545033,0.0009298947406932712,-0.08899985998868942,-35.3632621,149.1652375,-0.006,-0.01,0.01,0.0,-9.942184260580689e-05,9.444943134440109e-05,0.0,1000,1000,1000,1000,12600,0,0.0027636028826236725,0.003063402371481061,0.0027509357314556837,10,{}
normal_corridor_base_14,0,none,53854,0.0011316254967823625,0.0009272624738514423,-0.08913362771272659,-35.3632621,149.1652375,-0.006,-0.01,0.01,0.0,-9.942180622601882e-05,9.444941679248586e-05,0.0,1000,1000,1000,1000,12600,0,0.002527629490941763,0.002687640953809023,0.002939477562904358,10,{}
normal_corridor_base_14,0,none,54104,0.0011331761488690972,0.000935543270315975,-0.08926473557949066,-35.3632621,149.1652375,-0.006,-0.01,0.01,0.0,-9.942177712218836e-05,9.444940951652825e-05,0.0,1000,1000,1000,1000,12600,0,0.003024512203410268,0.0028088903054594994,0.00287444656714797,10,{}
normal_corridor_base_14,0,none,54354,0.0011349148117005825,0.000939006800763309,-0.08939656615257263,-35.3632621,149.1652375,-0.006,-0.01,0.01,0.0,-9.94217480183579e-05,9.444936586078256e-05,0.0,1000,1000,1000,1000,12600,0,0.0028915447182953358,0.00294332392513752,0.0030009583570063114,10,{}
normal_corridor_base_14,0,none,54602,0.0011444736737757921,0.000948312459513545,-0.08951593935489655,-35.3632621,149.1652375,-0.006,-0.01,0.01,0.0,-9.942172619048506e-05,9.444937313674018e-05,0.0,1000,1000,1000,1000,12600,0,0.00264536845497787,0.0027557071298360825,0.002671495545655489,10,{}
normal_corridor_base_14,0,none,54852,0.0011443330440670252,0.0009473909740336239,-0.08964529633522034,-35.3632621,149.1652375,-0.006,-0.01,0.01,0.0,-9.942174074240029e-05,9.444934403290972e-05,0.0,1000,1000,1000,1000,12600,0,0.003174790646880865,0.0029127050656825304,0.0029006493277847767,10,{}
normal_corridor_base_14,0,none,55102,0.0011466871947050095,0.0009494174737483263,-0.08976775407791138,-35.3632621,149.1652375,-0.006,-0.01,0.01,0.0,-9.942173346644267e-05,9.444930037716404e-05,0.0,1000,1000,1000,1000,12600,0,0.002807936631143093,0.002824501832947135,0.0025800231378525496,10,{}
normal_corridor_base_14,0,none,55352,0.0011457601794973016,0.0009510644595138729,-0.08989112079143524,-35.3632621,149.1652375,-0.006,-0.01,0.01,0.0,-9.94217480183579e-05,9.444930037716404e-05,0.0,1000,1000,1000,1000,12600,0,0.0025631352327764034,0.0025228960439562798,0.0025725215673446655,10,{}
normal_corridor_base_14,0,none,55604,0.0011502888519316912,0.000956373056396842,-0.09001854807138443,-35.3632621,149.1652375,-0.006,-0.01,0.01,0.0,-9.942168981069699e-05,9.444925672141835e-05,0.0,1000,1000,1000,1000,12600,0,0.002765510929748416,0.003074964974075556,0.002696338575333357,10,{}
normal_corridor_base_14,0,none,55854,0.0011466194409877062,0.0009505181224085391,-0.09014086425304413,-35.3632621,149.1652375,-0.006,-0.01,0.01,0.0,-9.942168253473938e-05,9.444926399737597e-05,0.0,1000,1000,1000,1000,12600,0,0.0026970626786351204,0.002862347289919853,0.0025826371274888515,10,{}
normal_corridor_base_14,0,none,56104,0.0011461584363132715,0.0009513688273727894,-0.0902649387717247,-35.3632621,149.1652375,-0.006,-0.01,0.01,0.0,-9.942168253473938e-05,9.444926399737597e-05,0.0,1000,1000,1000,1000,12600,0,0.002768162405118346,0.0028675596695393324,0.0030393858905881643,10,{}
normal_corridor_base_14,0,none,56354,0.0011502844281494617,0.0009554664720781147,-0.09038625657558441,-35.3632621,149.1652375,-0.006,-0.01,0.01,0.0,-9.942167525878176e-05,9.444924216950312e-05,0.0,1000,1000,1000,1000,12600,0,0.0027056431863456964,0.0029029136057943106,0.0030944880563765764,10,{}
normal_corridor_base_14,0,none,56602,0.0011527383467182517,0.00096181157277897,-0.09050453454256058,-35.3632621,149.1652375,-0.006,-0.01,0.01,0.0,-9.94216970866546e-05,9.44492785492912e-05,0.0,1000,1000,1000,1000,12600,0,0.002758015412837267,0.002629471942782402,0.0027786518912762403,10,{}
normal_corridor_base_14,0,none,56852,0.0011381834046915174,0.0009591942653059959,-0.0905950516462326,-35.3632621,149.1652375,-0.006,-0.01,0.01,0.0,-9.942175529431552e-05,9.444930765312165e-05,0.0,1000,1000,1000,1000,12600,0,0.002888137474656105,0.002761377254500985,0.002772427164018154,10,{}
normal_corridor_base_14,0,none,57102,0.0011330320267006755,0.0009540771134197712,-0.09070689976215363,-35.3632621,149.1652375,-0.006,-0.01,0.01,0.0,-9.942178439814597e-05,9.444930037716404e-05,0.0,1000,1000,1000,1000,12600,0,0.002785005373880267,0.0029907100833952427,0.002825937932357192,10,{}
normal_corridor_base_14,0,none,57352,0.0011409764410927892,0.0009569668327458203,-0.09082821756601334,-35.3632621,149.1652375,-0.006,-0.01,0.01,0.0,-9.942182805389166e-05,9.444933675695211e-05,0.0,1000,1000,1000,1000,12600,0,0.002815601183101535,0.0029023857787251472,0.002774878405034542,10,{}
normal_corridor_base_14,0,none,57604,0.0011460911482572556,0.0009644821984693408,-0.09094139188528061,-35.3632622,149.1652375,-0.006,-0.01,0.01,0.0,-9.942182805389166e-05,9.444937313674018e-05,0.0,1000,1000,1000,1000,12600,0,0.002687373198568821,0.002643563784658909,0.0024666949175298214,10,{}
normal_corridor_base_14,0,none,57854,0.0011466119904071093,0.000962508434895426,-0.0910528376698494,-35.3632621,149.1652375,-0.006,-0.01,0.01,0.0,-9.942181350197643e-05,9.444936586078256e-05,0.0,1000,1000,1000,1000,12600,0,0.0026802695356309414,0.0025301838759332895,0.0026132501661777496,10,{}
normal_corridor_base_14,0,none,58104,0.0011502383276820183,0.0009602914215065539,-0.09115958958864212,-35.3632621,149.1652375,-0.006,-0.01,0.01,0.0,-9.942185715772212e-05,9.444939496461302e-05,0.0,1000,1000,1000,1000,12600,0,0.0026224867906421423,0.002778815571218729,0.002571041928604245,10,{}
normal_corridor_base_14,0,none,58354,0.0011542538413777947,0.0009660207433626056,-0.09127738326787949,-35.3632621,149.1652375,-0.006,-0.01,0.01,0.0,-9.942185715772212e-05,9.444938041269779e-05,0.0,1000,1000,1000,1000,12600,0,0.0030612251721322536,0.0027113177347928286,0.002757216105237603,10,{}
normal_corridor_base_14,0,none,58604,0.0011546610621735454,0.0009717983193695545,-0.09138084948062897,-35.3632622,149.1652375,-0.006,-0.01,0.01,0.0,-9.942191536538303e-05,9.444943134440109e-05,0.0,1000,1000,1000,1000,12600,0,0.003133420366793871,0.003081529401242733,0.0028623209800571203,10,{}
normal_corridor_base_14,0,none,58852,0.0011538100661709905,0.0009683509124442935,-0.09149660915136337,-35.3632621,149.1652375,-0.006,-0.01,0.01,0.0,-9.942192991729826e-05,9.44494386203587e-05,0.0,1000,1000,1000,1000,12600,0,0.0029170187190175056,0.0027995863929390907,0.002555648796260357,10,{}
normal_corridor_base_14,0,none,59102,0.0011551947100088,0.0009697854402475059,-0.09160082787275314,-35.3632621,149.1652375,-0.006,-0.01,0.01,0.0,-9.942192991729826e-05,9.444942406844348e-05,0.0,1000,1000,1000,1000,12600,0,0.0026698396541178226,0.002687668427824974,0.0025346761103719473,10,{}
normal_corridor_base_14,0,none,59352,0.0011575749376788735,0.0009746067225933075,-0.09170693159103394,-35.3632621,149.1652375,-0.006,-0.01,0.01,0.0,-9.942192991729826e-05,9.444938041269779e-05,0.0,1000,1000,1000,1000,12600,0,0.002957551274448633,0.002569808391854167,0.002684804145246744,10,{}
normal_corridor_base_14,0,none,59604,0.0011625707847997546,0.000980509095825255,-0.09181113541126251,-35.3632622,149.1652375,-0.006,-0.01,0.01,0.0,-9.942194446921349e-05,9.444936586078256e-05,0.0,1000,1000,1000,1000,12600,0,0.0030077449046075344,0.0027688895352184772,0.002743503777310252,10,{}
normal_corridor_base_14,0,none,59854,0.0011516455560922623,0.0009753592894412577,-0.09191368520259857,-35.3632621,149.1652375,-0.006,-0.01,0.01,0.0,-9.942198812495917e-05,9.444939496461302e-05,0.0,1000,1000,1000,1000,12600,0,0.0026662040036171675,0.002803605981171131,0.002736208261922002,10,{}
normal_corridor_base_14,0,none,60104,0.0011504569556564093,0.0009703016839921474,-0.09201113879680634,-35.3632621,149.1652375,-0.006,-0.01,0.01,0.0,-9.942199540091679e-05,9.444936586078256e-05,0.0,1000,1000,1000,1000,12600,0,0.0030158718582242727,0.0027474574744701385,0.002700456418097019,10,{}
normal_corridor_base_14,0,none,60354,0.0011522154090926051,0.0009683694806881249,-0.09211692214012146,-35.3632622,149.1652375,-0.006,-0.01,0.01,0.0,-9.942202450474724e-05,9.444936586078256e-05,0.0,1000,1000,1000,1000,12600,0,0.0026820385828614235,0.002776504959911108,0.0027320347726345062,10,{}
normal_corridor_base_14,0,none,60604,0.0011581178987398744,0.0009714451734907925,-0.0922129899263382,-35.3632622,149.1652375,-0.006,-0.01,0.01,0.0,-9.942203905666247e-05,9.444936586078256e-05,0.0,1000,1000,1000,1000,12600,0,0.002713428344577551,0.0028823455795645714,0.002858642488718033,10,{}
normal_corridor_base_14,0,none,60852,0.0011499288957566023,0.000958397111389786,-0.09232009947299957,-35.3632621,149.1652375,-0.006,-0.01,0.01,0.0,-9.942202450474724e-05,9.444935858482495e-05,0.0,1000,1000,1000,1000,12600,0,0.0028073571156710386,0.0027939474675804377,0.0025490240659564734,10,{}
normal_corridor_base_14,0,none,61102,0.0011544747976586223,0.0009527129586786032,-0.09241677075624466,-35.3632622,149.1652375,-0.006,-0.01,0.01,0.0,-9.94220536085777e-05,9.444938041269779e-05,0.0,1000,1000,1000,1000,12600,0,0.002510633785277605,0.0029175973031669855,0.002739523071795702,10,{}
normal_corridor_base_14,0,none,61352,0.0011564003070816398,0.0009571516420692205,-0.0925113782286644,-35.3632622,149.1652375,-0.006,-0.01,0.01,0.0,-9.942203905666247e-05,9.444936586078256e-05,0.0,1000,1000,1000,1000,12600,0,0.003003196557983756,0.003056483343243599,0.002976182149723172,10,{}
normal_corridor_base_14,0,none,61602,0.0011645826743915677,0.0009608317050151527,-0.0926024466753006,-35.3632622,149.1652375,-0.006,-0.01,0.01,0.0,-9.942208271240816e-05,9.444936586078256e-05,0.0,1000,1000,1000,1000,12600,0,0.0027469261549413204,0.002822626382112503,0.002925677690654993,10,{}
normal_corridor_base_14,0,none,61854,0.0011553490767255425,0.0009530881070531905,-0.09267980605363846,-35.3632622,149.1652375,-0.006,-0.01,0.01,0.0,-9.942209726432338e-05,9.444940951652825e-05,0.0,1000,1000,1000,1000,12600,0,0.002903211396187544,0.002813684055581689,0.0030312021262943745,10,{}
normal_corridor_base_14,0,none,62104,0.001157258404418826,0.0009556295699439943,-0.09276822954416275,-35.3632621,149.1652375,-0.006,-0.01,0.01,0.0,-9.942209726432338e-05,9.444942406844348e-05,0.0,1000,1000,1000,1000,12600,0,0.002529751742258668,0.0028320522978901863,0.002814509440213442,10,{}
normal_corridor_base_14,0,none,62354,0.0011614286340773106,0.0009541811887174845,-0.09286416321992874,-35.3632622,149.1652375,-0.006,-0.01,0.01,0.0,-9.942213364411145e-05,9.444946044823155e-05,0.0,1000,1000,1000,1000,12600,0,0.002675029681995511,0.002683610888198018,0.002634878735989332,10,{}
normal_corridor_base_14,0,none,62604,0.001163510256446898,0.0009637571638450027,-0.09294836223125458,-35.3632622,149.1652375,-0.006,-0.01,0.01,0.0,-9.942212636815384e-05,9.444947500014678e-05,0.0,1000,1000,1000,1000,12600,0,0.0026495237834751606,0.0029550199396908283,0.0028511269483715296,10,{}
normal_corridor_base_14,0,none,62852,0.001160728163085878,0.0009621633216738701,-0.09304382652044296,-35.3632621,149.1652375,-0.006,-0.01,0.01,0.0,-9.942213364411145e-05,9.4449489552062e-05,0.0,1000,1000,1000,1000,12600,0,0.0026120177935808897,0.0031740327831357718,0.0026498541701585054,10,{}
normal_corridor_base_14,0,none,63102,0.001159900100901723,0.000967455271165818,-0.09313782304525375,-35.3632621,149.1652375,-0.006,-0.01,0.01,0.0,-9.942211181623861e-05,9.44494386203587e-05,0.0,1000,1000,1000,1000,12600,0,0.002932027680799365,0.0028574655298143625,0.002698762807995081,10,{}
normal_corridor_base_14,0,none,63352,0.0011587125482037663,0.0009649535641074181,-0.0932362824678421,-35.3632622,149.1652375,-0.006,-0.01,0.01,0.0,-9.9422104540281e-05,9.444940951652825e-05,0.0,1000,1000,1000,1000,12600,0,0.0027855681255459785,0.0026213510427623987,0.0028815087862312794,10,{}
normal_corridor_base_14,0,none,63602,0.0011617381824180484,0.0009743143455125391,-0.0933159589767456,-35.3632622,149.1652375,-0.006,-0.01,0.01,0.0,-9.9422104540281e-05,9.444938041269779e-05,0.0,1000,1000,1000,1000,12600,0,0.0029318092856556177,0.0025605331175029278,0.0025548480916768312,10,{}
normal_corridor_base_14,0,none,63854,0.0011584690073505044,0.0009707882418297231,-0.09340238571166992,-35.3632622,149.1652375,-0.006,-0.01,0.01,0.0,-9.942209726432338e-05,9.444941679248586e-05,0.0,1000,1000,1000,1000,12600,0,0.0029751271940767765,0.0029373522847890854,0.0029288255609571934,10,{}
normal_corridor_base_14,0,none,64104,0.0011628748616203666,0.0009624826489016414,-0.09348593652248383,-35.3632622,149.1652375,-0.006,-0.01,0.01,0.0,-9.942211909219623e-05,9.444942406844348e-05,0.0,1000,1000,1000,1000,12600,0,0.0027495338581502438,0.0030118876602500677,0.0031028869561851025,10,{}
normal_corridor_base_14,0,none,64354,0.0011642989702522755,0.0009641905198805034,-0.09357450902462006,-35.3632622,149.1652375,-0.006,-0.01,0.01,0.0,-9.94221554719843e-05,9.44494386203587e-05,0.0,1000,1000,1000,1000,12600,0,0.0029476762283593416,0.0028871356043964624,0.002852474106475711,10,{}
normal_corridor_base_14,0,none,64604,0.0011741885682567954,0.0009669042192399502,-0.09365779906511307,-35.3632622,149.1652375,-0.006,-0.01,0.01,0.0,-9.942217002389953e-05,9.444946044823155e-05,0.0,1000,1000,1000,1000,12600,0,0.002898129168897867,0.0029549153987318277,0.002889412920922041,10,{}
normal_corridor_base_14,0,none,64854,0.001171768642961979,0.0009591298294253647,-0.09374520927667618,-35.3632622,149.1652375,-0.006,-0.01,0.01,0.0,-9.94222064036876e-05,9.444946044823155e-05,0.0,1000,1000,1000,1000,12600,0,0.0028465164359658957,0.00294336024671793,0.002842680085450411,10,{}
normal_corridor_base_14,0,none,65102,0.001164199085906148,0.0009521534666419029,-0.09382757544517517,-35.3632621,149.1652375,-0.006,-0.01,0.01,0.0,-9.942217729985714e-05,9.444944589631632e-05,0.0,1000,1000,1000,1000,12600,0,0.002917112782597542,0.0030844872817397118,0.002727409591898322,10,{}
normal_corridor_base_14,0,none,65352,0.0011632529785856605,0.0009587622480466962,-0.09391269832849503,-35.3632622,149.1652375,-0.006,-0.01,0.01,0.0,-9.942219912772998e-05,9.444947500014678e-05,0.0,1000,1000,1000,1000,12600,0,0.0028165739495307207,0.0026213927194476128,0.0029441467486321926,10,{}
normal_corridor_base_14,0,none,65602,0.0011653007240965962,0.0009651315049268305,-0.09399529546499252,-35.3632622,149.1652375,-0.006,-0.01,0.01,0.0,-9.942222095560282e-05,9.444951137993485e-05,0.0,1000,1000,1000,1000,12600,0,0.0027411801274865866,0.0025626991409808397,0.002770032500848174,10,{}
normal_corridor_base_14,0,none,65854,0.0011631697416305542,0.0009609948610886931,-0.09408164024353027,-35.3632621,149.1652375,-0.006,-0.01,0.01,0.0,-9.942218457581475e-05,9.4449489552062e-05,0.0,1000,1000,1000,1000,12600,0,0.0027194644790142775,0.002993851201608777,0.0026798939798027277,10,{}
normal_corridor_base_14,0,none,66104,0.0011659893207252026,0.0009625441743992269,-0.09415919333696365,-35.3632621,149.1652375,-0.006,-0.01,0.01,0.0,-9.942219912772998e-05,9.4449489552062e-05,0.0,1000,1000,1000,1000,12600,0,0.0026407046243548393,0.0029035003390163183,0.0028565218672156334,10,{}
normal_corridor_base_14,0,none,66354,0.0011718731839209795,0.0009609108092263341,-0.0942363440990448,-35.3632621,149.1652375,-0.006,-0.01,0.01,0.0,-9.942219912772998e-05,9.444950410397723e-05,0.0,1000,1000,1000,1000,12600,0,0.0027958459686487913,0.00286304485052824,0.0027418937534093857,10,{}
normal_corridor_base_14,0,none,66604,0.0011726110242307186,0.0009753918275237083,-0.09431953728199005,-35.3632621,149.1652375,-0.006,-0.01,0.01,0.0,-9.942219912772998e-05,9.444949682801962e-05,0.0,1000,1000,1000,1000,12600,0,0.0029651187360286713,0.0026440012734383345,0.002666248008608818,10,{}
normal_corridor_base_14,0,none,66854,0.0011725417571142316,0.0009709883597679436,-0.09439033269882202,-35.3632621,149.1652375,-0.006,-0.01,0.01,0.0,-9.94221554719843e-05,9.444948227610439e-05,0.0,1000,1000,1000,1000,12600,0,0.0024607828818261623,0.0028213772457093,0.0029791288543492556,10,{}
normal_corridor_base_14,0,none,67102,0.0011723568895831704,0.0009706027340143919,-0.09445023536682129,-35.3632621,149.1652375,-0.006,-0.01,0.01,0.0,-9.942216274794191e-05,9.444951137993485e-05,0.0,1000,1000,1000,1000,12600,0,0.002986763371154666,0.0026000149082392454,0.0031203904654830694,10,{}
normal_corridor_base_14,0,none,67352,0.001173321041278541,0.0009732607868500054,-0.09451431781053543,-35.3632621,149.1652375,-0.006,-0.01,0.01,0.0,-9.94221554719843e-05,9.4449489552062e-05,0.0,1000,1000,1000,1000,12600,0,0.002960223238915205,0.002874573227018118,0.0029355392325669527,10,{}
normal_corridor_base_14,0,none,67602,0.00117766042239964,0.0009827303001657128,-0.09458618611097336,-35.3632622,149.1652375,-0.006,-0.01,0.01,0.0,-9.942222095560282e-05,9.4449489552062e-05,0.0,1000,1000,1000,1000,12600,0,0.002562410430982709,0.002971244975924492,0.0027293353341519833,10,{}
normal_corridor_base_14,0,none,67852,0.001176556572318077,0.0009819908300414681,-0.09466645121574402,-35.3632621,149.1652375,-0.006,-0.01,0.01,0.0,-9.942214092006907e-05,9.444947500014678e-05,0.0,1000,1000,1000,1000,12600,0,0.002663783263415098,0.002971030306071043,0.0027500344440340996,10,{}
normal_corridor_base_14,0,none,68104,0.0011775109451264143,0.0009816321544349194,-0.09473291039466858,-35.3632621,149.1652375,-0.006,-0.01,0.01,0.0,-9.942214092006907e-05,9.444949682801962e-05,0.0,1000,1000,1000,1000,12600,0,0.0031104327645152807,0.002690546913072467,0.0024643922224640846,10,{}
normal_corridor_base_14,0,none,68354,0.0011824790854007006,0.0009904473554342985,-0.09480943530797958,-35.3632622,149.1652375,-0.006,-0.01,0.01,0.0,-9.942217002389953e-05,9.444948227610439e-05,0.0,1000,1000,1000,1000,12600,0,0.0030359053052961826,0.0027874791994690895,0.0028328639455139637,10,{}
