flight_id,label,attack_type,timestamp,att_roll,att_pitch,att_yaw,pos_lat,pos_lon,pos_alt_rel,pos_vx,pos_vy,pos_vz,nav_roll,nav_pitch,nav_alt_error,servo1_raw,servo2_raw,servo3_raw,servo4_raw,sys_voltage_battery,sys_load,vib_x,vib_y,vib_z,gps_sats_visible,attack_params_json
normal_corridor_base_3,0,none,10269,0.00019650626927614212,-3.907189966412261e-05,-0.3350064754486084,-35.3632621,149.1652374,0.0,0.0,0.0,-0.03,-9.94216970866546e-05,9.44494386203587e-05,0.0,1000,1000,1000,1000,12600,0,0.002705612685531378,0.002981967991217971,0.0026729258242994547,10,{}
normal_corridor_base_3,0,none,10601,0.0001975795312318951,-2.441759170324076e-05,-0.30336320400238037,-35.3632621,149.1652374,0.0,0.0,0.0,-0.03,-9.942171163856983e-05,9.444940224057063e-05,0.0,1000,1000,1000,1000,12600,0,0.002457976108416915,0.0026221424341201782,0.0029635915998369455,10,{}
normal_corridor_base_3,0,none,10934,0.00020435814803931862,-1.650588819757104e-05,-0.26665347814559937,-35.3632621,149.1652374,0.0,0.0,0.0,-0.03,-9.942171163856983e-05,9.444940224057063e-05,0.0,1000,1000,1000,1000,12600,0,0.0025762070436030626,0.0025111567229032516,0.00269678863696754,10,{}
normal_corridor_base_3,0,none,11267,0.00020800890342798084,-8.797042937658262e-06,-0.2417832612991333,-35.3632621,149.1652374,0.0,0.0,0.0,-0.03,-9.942160977516323e-05,9.44493876886554e-05,0.0,1000,1000,1000,1000,12600,0,0.002945489715784788,0.002549637109041214,0.003012712812051177,10,{}
normal_corridor_base_3,0,none,11602,0.00021158004528842866,-9.578807294019498e-07,-0.21897238492965698,-35.3632621,149.1652374,0.0,0.0,0.0,-0.03,-9.942158794729039e-05,9.444940224057063e-05,0.0,1000,1000,1000,1000,12600,0,0.0028763385489583015,0.0027737230993807316,0.0030609217938035727,10,{}
normal_corridor_base_3,0,none,11934,0.0002219281013822183,9.974645763577428e-06,-0.19201774895191193,-35.3632621,149.1652374,0.0,0.0,0.0,-0.02,-9.942158794729039e-05,9.444940224057063e-05,0.0,1000,1000,1000,1000,12600,0,0.002851552562788129,0.002619426930323243,0.002693312941119075,10,{}
normal_corridor_base_3,0,none,12266,0.00022343633463606238,2.0303208657423966e-05,-0.1743670105934143,-35.3632621,149.1652374,0.0,0.0,0.0,-0.02,-9.942165343090892e-05,9.444940224057063e-05,0.0,1000,1000,1000,1000,12600,0,0.0030273168813437223,0.0028153781313449144,0.002703951671719551,10,{}
normal_corridor_base_3,0,none,12599,0.00023432468879036605,2.936094460892491e-05,-0.15862713754177094,-35.3632621,149.1652374,0.0,0.0,0.0,-0.02,-9.942168253473938e-05,9.444938041269779e-05,0.0,1000,1000,1000,1000,12600,0,0.0028784361202269793,0.002796587534248829,0.002783508040010929,10,{}
normal_corridor_base_3,0,none,12932,0.0002429971646051854,3.53156247001607e-05,-0.1403321623802185,-35.3632621,149.1652374,0.0,0.0,0.0,-0.02,-9.942168253473938e-05,9.444938041269779e-05,0.0,1000,1000,1000,1000,12600,0,0.00250119436532259,0.0029354621656239033,0.002681905869394541,10,{}
normal_corridor_base_3,0,none,13267,0.0002489274775143713,4.336113852332346e-05,-0.12849491834640503,-35.3632621,149.1652374,0.0,0.0,0.0,-0.02,-9.942161705112085e-05,9.444936586078256e-05,0.0,1000,1000,1000,1000,12600,0,0.0026710815727710724,0.002973760711029172,0.002766761463135481,10,{}
normal_corridor_base_3,0,none,13599,0.0002607688948046416,4.762706157634966e-05,-0.11806952953338623,-35.3632621,149.1652374,0.0,0.0,0.0,-0.01,-9.942160977516323e-05,9.444939496461302e-05,0.0,1000,1000,1000,1000,12600,0,0.0026149931363761425,0.002618987113237381,0.002866359893232584,10,{}
normal_corridor_base_3,0,none,13931,0.0002672059345059097,5.588762724073604e-05,-0.10889174789190292,-35.3632621,149.1652374,0.0,0.0,0.0,-0.01,-9.942160977516323e-05,9.444939496461302e-05,0.0,1000,1000,1000,1000,12600,0,0.0027764998376369476,0.002680391538888216,0.002693921560421586,10,{}
normal_corridor_base_3,0,none,14264,0.00027903198497369885,6.70419613015838e-05,-0.0984220877289772,-35.3632621,149.1652374,0.0,0.0,0.0,-0.01,-9.942151518771425e-05,9.444934403290972e-05,0.0,1000,1000,1000,1000,12600,0,0.0028859965968877077,0.0028781972359865904,0.002838394371792674,10,{}
normal_corridor_base_3,0,none,14599,0.0002910624898504466,8.16701358417049e-05,-0.09170471131801605,-35.3632621,149.1652374,0.0,0.0,0.0,-0.01,-9.942152973962948e-05,9.444935130886734e-05,0.0,1000,1000,1000,1000,12600,0,0.003037726739421487,0.003032260574400425,0.0027129719965159893,10,{}
normal_corridor_base_3,0,none,14931,0.0003008707717526704,9.209158451994881e-05,-0.08584767580032349,-35.3632621,149.1652374,0.0,0.0,0.0,-0.01,-9.942152973962948e-05,9.444935130886734e-05,0.0,1000,1000,1000,1000,12600,0,0.0029383732471615076,0.002721411408856511,0.002929374575614929,10,{}
normal_corridor_base_3,0,none,15354,0.00032044018735177815,0.00010651403135852888,-0.07721276581287384,-35.3632621,149.1652374,0.0,0.0,0.0,-0.01,-9.942151518771425e-05,9.444936586078256e-05,0.0,1000,1000,1000,1000,12600,0,0.0027776588685810566,0.0026889352593570948,0.0026347427628934383,10,{}
normal_corridor_base_3,0,none,15604,0.0003307894803583622,0.00011132283543702215,-0.0738353282213211,-35.3632621,149.1652374,0.0,0.0,0.0,-0.01,-9.942150063579902e-05,9.444934403290972e-05,0.0,1000,1000,1000,1000,12600,0,0.0027776588685810566,0.0026889352593570948,0.0026347427628934383,10,{}
normal_corridor_base_3,0,none,15854,0.0003366611781530082,0.00012025694741168991,-0.07094002515077591,-35.3632621,149.1652374,0.0,0.0,0.0,0.0,-9.94214933598414e-05,9.444936586078256e-05,0.0,1000,1000,1000,1000,12600,0,0.0027072629891335964,0.002762735588476062,0.0025704740546643734,10,{}
normal_corridor_base_3,0,none,16104,0.0003452042583376169,0.00012997495650779456,-0.06826519221067429,-35.3632621,149.1652374,0.0,0.0,0.0,0.0,-9.94214933598414e-05,9.444938041269779e-05,0.0,1000,1000,1000,1000,12600,0,0.0026779365725815296,0.002950527472421527,0.002540488727390766,10,{}
normal_corridor_base_3,0,none,16354,0.0003532669215928763,0.00013789819786325097,-0.06596497446298599,-35.3632621,149.1652374,0.0,0.0,0.0,0.0,-9.94214933598414e-05,9.444938041269779e-05,0.0,1000,1000,1000,1000,12600,0,0.002869691699743271,0.002785970689728856,0.002647893503308296,10,{}
normal_corridor_base_3,0,none,16604,0.00036598052247427404,0.00014508528693113476,-0.06390956789255142,-35.3632621,149.1652374,0.0,0.0,0.0,0.0,-9.94214933598414e-05,9.444936586078256e-05,0.0,1000,1000,1000,1000,12600,0,0.0031085845548659563,0.002815792104229331,0.0027286061085760593,10,{}
normal_corridor_base_3,0,none,16854,0.00037629168946295977,0.00015352379705291241,-0.06214262917637825,-35.3632621,149.1652374,0.0,0.0,0.0,0.0,-9.94214933598414e-05,9.444936586078256e-05,0.0,1000,1000,1000,1000,12600,0,0.003117138985544443,0.0025906378868967295,0.002622335683554411,10,{}
normal_corridor_base_3,0,none,17264,0.00038718560244888067,0.0001591964828548953,-0.060529809445142746,-35.3632621,149.1652374,0.0,0.0,0.0,0.0,-9.942148608388379e-05,9.444940224057063e-05,0.0,1000,1000,1000,1000,12600,0,0.0028861563187092543,0.0029514983762055635,0.002837456064298749,10,{}
normal_corridor_base_3,0,none,17597,0.00040330798947252333,0.0001755739067448303,-0.057993315160274506,-35.3632621,149.1652374,0.0,0.0,0.0,0.0,-9.942157339537516e-05,9.444936586078256e-05,0.0,1000,1000,1000,1000,12600,0,0.002972843823954463,0.002656242111697793,0.0030318403150886297,10,{}
normal_corridor_base_3,0,none,17931,0.0004176555958110839,0.00019048838294111192,-0.05676867067813873,-35.3632621,149.1652374,0.0,0.0,0.0,0.0,-9.94216461549513e-05,9.444936586078256e-05,0.0,1000,1000,1000,1000,12600,0,0.003081863047555089,0.002794626634567976,0.002985062077641487,10,{}
normal_corridor_base_3,0,none,18264,0.00042763040983118117,0.00020454186596907675,-0.0557561032474041,-35.3632621,149.1652374,0.0,0.0,0.0,0.0,-9.94216461549513e-05,9.444936586078256e-05,0.0,1000,1000,1000,1000,12600,0,0.0025776501279324293,0.002685323590412736,0.0028172358870506287,10,{}
normal_corridor_base_3,0,none,18596,0.0004429516557138413,0.00022259043180383742,-0.054694999009370804,-35.3632621,149.1652374,0.0,0.0,0.0,0.0,-9.942167525878176e-05,9.444935858482495e-05,0.0,1000,1000,1000,1000,12600,0,0.002730297390371561,0.0028875148855149746,0.0030948719941079617,10,{}
normal_corridor_base_3,0,none,18929,0.00046123802894726396,0.0002347964036744088,-0.05407606065273285,-35.3632621,149.1652374,0.0,0.0,0.0,0.0,-9.942163160303608e-05,9.444931492907926e-05,0.0,1000,1000,1000,1000,12600,0,0.0031286601442843676,0.0028172535821795464,0.002912181429564953,10,{}
normal_corridor_base_3,0,none,19262,0.00047843705397099257,0.000249236065428704,-0.05363389477133751,-35.3632621,149.1652374,0.0,0.0,0.0,0.0,-9.942163160303608e-05,9.444931492907926e-05,0.0,1000,1000,1000,1000,12600,0,0.0027236032765358686,0.003083204384893179,0.0026165014132857323,10,{}
normal_corridor_base_3,0,none,19597,0.0004954575560986996,0.0002635915298014879,-0.05315730720758438,-35.3632621,149.1652374,0.0,0.0,0.0,0.0,-9.942158067133278e-05,9.444934403290972e-05,0.0,1000,1000,1000,1000,12600,0,0.0027683626394718885,0.0029147358145564795,0.0028165134135633707,10,{}
normal_corridor_base_3,0,none,19929,0.0005132735823281109,0.00027774806949310005,-0.0528777539730072,-35.3632621,149.1652374,0.0,0.0,0.0,0.0,-9.942168253473938e-05,9.444937313674018e-05,0.0,1000,1000,1000,1000,12600,0,0.0029706156346946955,0.0027355847414582968,0.0027990248054265976,10,{}
normal_corridor_base_3,0,none,20261,0.0005302687641233206,0.000298947881674394,-0.052587393671274185,-35.3632621,149.1652374,-0.006,0.0,0.0,0.0,-9.942168253473938e-05,9.444937313674018e-05,0.0,1000,1000,1000,1000,12600,0,0.0028134165331721306,0.0029192259535193443,0.0026545298751443624,10,{}
normal_corridor_base_3,0,none,20594,0.0005516763194464147,0.00031930243130773306,-0.05257171019911766,-35.3632621,149.1652374,-0.008,0.0,0.0,0.0,-9.942172619048506e-05,9.44493876886554e-05,0.0,1000,1000,1000,1000,12600,0,0.0028001077007502317,0.0028381471056491137,0.0025745679158717394,10,{}
normal_corridor_base_3,0,none,20929,0.000565923866815865,0.0003333084750920534,-0.05265210568904877,-35.3632621,149.1652374,-0.007,0.0,0.0,0.0,-9.942173346644267e-05,9.444936586078256e-05,0.0,1000,1000,1000,1000,12600,0,0.0028497364837676287,0.0027831473853439093,0.003020036034286022,10,{}
normal_corridor_base_3,0,none,21262,0.0005797134363092482,0.00034893694100901484,-0.052763961255550385,-35.3632621,149.1652374,-0.005,0.0,0.0,0.0,-9.942173346644267e-05,9.444936586078256e-05,0.0,1000,1000,1000,1000,12600,0,0.002892788266763091,0.002811742015182972,0.002855867613106966,10,{}
normal_corridor_base_3,0,none,21594,0.0006026604678481817,0.00037181793595664203,-0.053020820021629333,-35.3632621,149.1652374,-0.004,0.0,0.0,0.0,-9.942176984623075e-05,9.44493876886554e-05,0.0,1000,1000,1000,1000,12600,0,0.002682867692783475,0.003024191362783313,0.002730908337980509,10,{}
normal_corridor_base_3,0,none,21927,0.0006229152786545455,0.0003826463071163744,-0.05324704945087433,-35.3632621,149.1652374,-0.002,0.0,0.0,0.0,-9.942180622601882e-05,9.444936586078256e-05,0.0,1000,1000,1000,1000,12600,0,0.002957372460514307,0.0029925103299319744,0.0027900482527911663,10,{}
normal_corridor_base_3,0,none,22259,0.0006407619803212583,0.0004011096025351435,-0.05352969095110893,-35.3632621,149.1652374,-0.001,0.0,0.01,0.0,-9.942180622601882e-05,9.444936586078256e-05,0.0,1000,1000,1000,1000,12600,0,0.0026783226057887077,0.0026105004362761974,0.0027756846975535154,10,{}
normal_corridor_base_3,0,none,22594,0.0006617451435886323,0.00042860256507992744,-0.05394104868173599,-35.3632621,149.1652374,0.0,0.0,0.01,0.0,-9.942191536538303e-05,9.444947500014678e-05,0.0,1000,1000,1000,1000,12600,0,0.0027828065212816,0.0028035053983330727,0.0028529048431664705,10,{}
normal_corridor_base_3,0,none,22926,0.000682868470903486,0.0004475666210055351,-0.05430207401514053,-35.3632621,149.1652374,0.0,0.0,0.01,0.0,-9.942197357304394e-05,9.444948227610439e-05,0.0,1000,1000,1000,1000,12600,0,0.0026805922389030457,0.0024497259873896837,0.0030389379244297743,10,{}
normal_corridor_base_3,0,none,23259,0.0006981349433772266,0.0004635928780771792,-0.054659511893987656,-35.3632621,149.1652374,0.001,-0.01,0.01,0.0,-9.942197357304394e-05,9.444948227610439e-05,0.0,1000,1000,1000,1000,12600,0,0.003134280676022172,0.002784458687528968,0.002732418943196535,10,{}
normal_corridor_base_3,0,none,23592,0.0007199409301392734,0.0004881036002188921,-0.055222287774086,-35.3632621,149.1652374,0.001,-0.01,0.01,0.0,-9.942187898559496e-05,9.444942406844348e-05,0.0,1000,1000,1000,1000,12600,0,0.002744171302765608,0.002817413304001093,0.002592245116829872,10,{}
normal_corridor_base_3,0,none,23924,0.0007334374822676182,0.0005045922589488328,-0.05561773478984833,-35.3632621,149.1652374,0.002,-0.01,0.01,0.0,-9.942180622601882e-05,9.444938041269779e-05,0.0,1000,1000,1000,1000,12600,0,0.0024299260694533587,0.0026205256581306458,0.0027225727681070566,10,{}
normal_corridor_base_3,0,none,24259,0.0007474291487596929,0.000522959977388382,-0.05608165264129639,-35.3632621,149.1652374,0.002,-0.01,0.01,0.0,-9.942180622601882e-05,9.444938041269779e-05,0.0,1000,1000,1000,1000,12600,0,0.002601055661216378,0.0027097132988274097,0.0025678109377622604,10,{}
normal_corridor_base_3,0,none,24591,0.0007656357483938336,0.0005406889831647277,-0.05665256828069687,-35.3632621,149.1652374,0.002,-0.01,0.01,0.0,-9.942188626155257e-05,9.444941679248586e-05,0.0,1000,1000,1000,1000,12600,0,0.0027481771539896727,0.0028236538637429476,0.0028289102483540773,10,{}
normal_corridor_base_3,0,none,24924,0.0007821943727321923,0.0005564051098190248,-0.05710531771183014,-35.3632621,149.1652374,0.003,-0.01,0.01,0.0,-9.942192991729826e-05,9.444951137993485e-05,0.0,1000,1000,1000,1000,12600,0,0.0027203937061131,0.00319813285022974,0.002699592849239707,10,{}
normal_corridor_base_3,0,none,25256,0.0007942708907648921,0.0005746126989834011,-0.057561878114938736,-35.3632621,149.1652374,0.003,-0.01,0.01,0.0,-9.942192991729826e-05,9.444951137993485e-05,0.0,1000,1000,1000,1000,12600,0,0.002731695771217346,0.002757738344371319,0.0027469538617879152,10,{}
normal_corridor_base_3,0,none,25589,0.0008175753755494952,0.0005944650620222092,-0.058082785457372665,-35.3632621,149.1652374,0.003,-0.01,0.01,0.0,-9.942190808942541e-05,9.444953320780769e-05,0.0,1000,1000,1000,1000,12600,0,0.0028154924511909485,0.0028709315229207277,0.002803717041388154,10,{}
normal_corridor_base_3,0,none,25922,0.0008276380249299109,0.0006121722399257123,-0.058508336544036865,-35.3632621,149.1652374,0.002,-0.01,0.01,0.0,-9.94219008134678e-05,9.444950410397723e-05,0.0,1000,1000,1000,1000,12600,0,0.002895076759159565,0.002973466645926237,0.002850183052942157,10,{}
normal_corridor_base_3,0,none,26256,0.0008464288548566401,0.0006200165371410549,-0.0590033084154129,-35.3632621,149.1652374,0.002,-0.01,0.01,0.0,-9.94219008134678e-05,9.444950410397723e-05,0.0,1000,1000,1000,1000,12600,0,0.0029589496552944183,0.002638463629409671,0.0030021872371435165,10,{}
normal_corridor_base_3,0,none,26589,0.0008644084446132183,0.0006301003159023821,-0.05966237559914589,-35.3632621,149.1652374,0.002,-0.01,0.01,0.0,-9.942187898559496e-05,9.444943134440109e-05,0.0,1000,1000,1000,1000,12600,0,0.0025426310021430254,0.0027518682181835175,0.0027532526291906834,10,{}
normal_corridor_base_3,0,none,26921,0.000874471734277904,0.0006397272227331996,-0.06015447899699211,-35.3632621,149.1652374,0.002,-0.01,0.01,0.0,-9.94219517451711e-05,9.444947500014678e-05,0.0,1000,1000,1000,1000,12600,0,0.0027610803954303265,0.002652582945302129,0.0027052038349211216,10,{}
normal_corridor_base_3,0,none,27254,0.0008874867344275117,0.00065250089392066,-0.06065775826573372,-35.3632621,149.1652374,0.002,-0.01,0.01,0.0,-9.94219517451711e-05,9.444947500014678e-05,0.0,1000,1000,1000,1000,12600,0,0.0027428758330643177,0.0029378095641732216,0.0028148971032351255,10,{}
normal_corridor_base_3,0,none,27587,0.0009005285683088005,0.0006613877485506237,-0.06134139001369476,-35.3632621,149.1652374,0.001,-0.01,0.01,0.0,-9.942195902112871e-05,9.4449489552062e-05,0.0,1000,1000,1000,1000,12600,0,0.0026299706660211086,0.0028423196636140347,0.0025694307405501604,10,{}
normal_corridor_base_3,0,none,27922,0.0009135968284681439,0.0006741650286130607,-0.061815667897462845,-35.3632621,149.1652374,0.001,-0.01,0.01,0.0,-9.942199540091679e-05,9.444952593185008e-05,0.0,1000,1000,1000,1000,12600,0,0.0026975376531481743,0.002917128847911954,0.00289027183316648,10,{}
normal_corridor_base_3,0,none,28254,0.0009231375297531486,0.0006864254246465862,-0.06231645867228508,-35.3632621,149.1652374,0.001,-0.01,0.01,0.0,-9.942199540091679e-05,9.444952593185008e-05,0.0,1000,1000,1000,1000,12600,0,0.0027732020244002342,0.0029259936418384314,0.002668489469215274,10,{}
normal_corridor_base_3,0,none,28586,0.0009380322881042957,0.0007030603592284024,-0.06297631561756134,-35.3632621,149.1652374,0.0,-0.01,0.01,0.0,-9.94220536085777e-05,9.44495914154686e-05,0.0,1000,1000,1000,1000,12600,0,0.002575882012024522,0.0026529342867434025,0.0029310653917491436,10,{}
normal_corridor_base_3,0,none,28919,0.0009476494160480797,0.0007172647165134549,-0.06345710158348083,-35.3632621,149.1652374,0.0,-0.01,0.01,0.0,-9.942217002389953e-05,9.444967145100236e-05,0.0,1000,1000,1000,1000,12600,0,0.002928131725639105,0.0027743843384087086,0.00258034304715693,10,{}
normal_corridor_base_3,0,none,29254,0.0009613267029635608,0.0007356692221947014,-0.0639399066567421,-35.3632621,149.1652374,0.0,-0.01,0.01,0.0,-9.942217002389953e-05,9.444967145100236e-05,0.0,1000,1000,1000,1000,12600,0,0.0028754142113029957,0.002576056169345975,0.002657001605257392,10,{}
normal_corridor_base_3,0,none,29587,0.0009755455539561808,0.0007441023481078446,-0.06457266211509705,-35.3632621,149.1652374,0.0,-0.01,0.01,0.0,-9.942228643922135e-05,9.444970783079043e-05,0.0,1000,1000,1000,1000,12600,0,0.0029961804393678904,0.0026795321609824896,0.0029853414744138718,10,{}
normal_corridor_base_3,0,none,29919,0.000988533953204751,0.000757324043661356,-0.06505753099918365,-35.3632621,149.1652374,0.0,-0.01,0.02,0.0,-9.942236647475511e-05,9.444976603845134e-05,0.0,1000,1000,1000,1000,12600,0,0.0027168788947165012,0.002757460344582796,0.0029137921519577503,10,{}
normal_corridor_base_3,0,none,30354,0.000998976523987949,0.0007765424088574946,-0.06582401692867279,-35.3632621,149.1652374,-0.001,-0.01,0.02,0.0,-9.942236647475511e-05,9.444976603845134e-05,0.0,1000,1000,1000,1000,12600,0,0.0025919629260897636,0.002938266610726714,0.00310297729447484,10,{}
normal_corridor_base_3,0,none,30604,0.0010026745731011033,0.0007829213282093406,-0.06621085107326508,-35.3632621,149.1652374,-0.001,-0.01,0.02,0.0,-9.942236647475511e-05,9.444978059036657e-05,0.0,1000,1000,1000,1000,12600,0,0.002867642557248473,0.0026614689268171787,0.0028687918093055487,10,{}
normal_corridor_base_3,0,none,30854,0.001014680601656437,0.0007896236493252218,-0.06658640503883362,-35.3632621,149.1652374,-0.001,-0.01,0.02,0.0,-9.942244651028886e-05,9.444986062590033e-05,0.0,1000,1000,1000,1000,12600,0,0.002649520756676793,0.002705460647121072,0.0029449232388287783,10,{}
normal_corridor_base_3,0,none,31249,0.0010177631629630923,0.0007951052393764257,-0.0669742152094841,-35.3632621,149.1652374,-0.002,-0.01,0.02,0.0,-9.942250471794978e-05,9.444991883356124e-05,0.0,1000,1000,1000,1000,12600,0,0.002714283997192979,0.0029571945779025555,0.0028449641540646553,10,{}
normal_corridor_base_3,0,none,31581,0.0010303289163857698,0.0007989954319782555,-0.06734567135572433,-35.3632621,149.1652374,-0.002,-0.01,0.02,0.0,-9.942253382178023e-05,9.444995521334931e-05,0.0,1000,1000,1000,1000,12600,0,0.002871585311368108,0.002759430557489395,0.002892202464863658,10,{}
normal_corridor_base_3,0,none,31914,0.0010421305196359754,0.0008077323436737061,-0.06800517439842224,-35.3632621,149.1652374,-0.003,-0.01,0.02,0.0,-9.942249016603455e-05,9.444988972973078e-05,0.0,1000,1000,1000,1000,12600,0,0.0026984631549566984,0.002922730753198266,0.002783539704978466,10,{}
normal_corridor_base_3,0,none,32247,0.0010524613317102194,0.0008167854975908995,-0.06845378130674362,-35.3632621,149.1652374,-0.003,-0.01,0.02,0.0,-9.942247561411932e-05,9.444992610951886e-05,0.0,1000,1000,1000,1000,12600,0,0.002937933197245002,0.002877194434404373,0.002677073935046792,10,{}
normal_corridor_base_3,0,none,32579,0.0010614341590553522,0.0008247299119830132,-0.06891307979822159,-35.3632621,149.1652374,-0.003,-0.01,0.02,0.0,-9.942244651028886e-05,9.444993338547647e-05,0.0,1000,1000,1000,1000,12600,0,0.0030995041597634554,0.002709648571908474,0.0028001698665320873,10,{}
normal_corridor_base_3,0,none,32914,0.001068970188498497,0.000844457361381501,-0.06948345899581909,-35.3632621,149.1652374,-0.004,-0.01,0.02,0.0,-9.942254837369546e-05,9.444994066143408e-05,0.0,1000,1000,1000,1000,12600,0,0.0027342941612005234,0.0026675250846892595,0.0031415275298058987,10,{}
normal_corridor_base_3,0,none,33246,0.0010816854191944003,0.0008547889883629978,-0.06991353631019592,-35.3632621,149.1652374,-0.004,-0.01,0.02,0.0,-9.942254109773785e-05,9.444991883356124e-05,0.0,1000,1000,1000,1000,12600,0,0.002813327591866255,0.002932952484115958,0.0026978396344929934,10,{}
normal_corridor_base_3,0,none,33579,0.0010961040388792753,0.0008658719598315656,-0.07034062594175339,-35.3632621,149.1652374,-0.004,-0.01,0.02,0.0,-9.942253382178023e-05,9.444992610951886e-05,0.0,1000,1000,1000,1000,12600,0,0.0027927064802497625,0.00280678435228765,0.002854487858712673,10,{}
normal_corridor_base_3,0,none,33912,0.001112981466576457,0.0008761732024140656,-0.07092279195785522,-35.3632621,149.1652374,-0.004,-0.02,0.02,0.0,-9.942253382178023e-05,9.44499479373917e-05,0.0,1000,1000,1000,1000,12600,0,0.002545477356761694,0.0028996693436056376,0.002719758078455925,10,{}
normal_corridor_base_3,0,none,34244,0.0011184589238837361,0.0008827286656014621,-0.0713309720158577,-35.3632621,149.1652374,-0.005,-0.02,0.02,0.0,-9.942253382178023e-05,9.44499479373917e-05,0.0,1000,1000,1000,1000,12600,0,0.0032935491763055325,0.002470319624990225,0.002919071353971958,10,{}
normal_corridor_base_3,0,none,34579,0.00112870242446661,0.0008979905396699905,-0.07173299789428711,-35.3632621,149.1652374,-0.005,-0.02,0.02,0.0,-9.942245378624648e-05,9.445002069696784e-05,0.0,1000,1000,1000,1000,12600,0,0.00276155024766922,0.0029038069769740105,0.0028333510272204876,10,{}
normal_corridor_base_3,0,none,34911,0.0011425273260101676,0.0009154401486739516,-0.0722666010260582,-35.3632621,149.1652374,-0.005,-0.02,0.02,0.0,-9.94223591987975e-05,9.444996976526454e-05,0.0,1000,1000,1000,1000,12600,0,0.002384501276537776,0.0028898976743221283,0.0027730814181268215,10,{}
normal_corridor_base_3,0,none,35244,0.0011488829040899873,0.0009237252525053918,-0.07266230136156082,-35.3632621,149.1652374,-0.005,-0.02,0.02,0.0,-9.94223591987975e-05,9.444996976526454e-05,0.0,1000,1000,1000,1000,12600,0,0.003034491091966629,0.002908081281930208,0.0026871308218687773,10,{}
normal_corridor_base_3,0,none,35576,0.0011570288334041834,0.000931933056563139,-0.0730530247092247,-35.3632621,149.1652374,-0.005,-0.02,0.02,0.0,-9.942231554305181e-05,9.444993338547647e-05,0.0,1000,1000,1000,1000,12600,0,0.0026393476873636246,0.002728042658418417,0.002645203610882163,10,{}
normal_corridor_base_3,0,none,35909,0.0011642709141597152,0.0009330179309472442,-0.07356665283441544,-35.3632621,149.1652374,-0.005,-0.02,0.02,0.0,-9.942233009496704e-05,9.444991883356124e-05,0.0,1000,1000,1000,1000,12600,0,0.0027221492491662502,0.0027540933806449175,0.002934487536549568,10,{}
normal_corridor_base_3,0,none,36242,0.001169059774838388,0.0009467318886891007,-0.07387341558933258,-35.3632621,149.1652374,-0.005,-0.02,0.02,0.0,-9.942233009496704e-05,9.444991883356124e-05,0.0,1000,1000,1000,1000,12600,0,0.0030365220736712217,0.002760553266853094,0.0029405588284134865,10,{}
normal_corridor_base_3,0,none,36577,0.0011796497274190187,0.0009589814580976963,-0.0742516741156578,-35.3632621,149.1652374,-0.005,-0.02,0.02,0.0,-9.942230099113658e-05,9.444990428164601e-05,0.0,1000,1000,1000,1000,12600,0,0.003087260527536273,0.0026460709050297737,0.002706602681428194,10,{}
normal_corridor_base_3,0,none,36909,0.0011912599438801408,0.0009807386668398976,-0.07474914193153381,-35.3632621,149.1652374,-0.005,-0.02,0.02,0.0,-9.94223591987975e-05,9.444991155760363e-05,0.0,1000,1000,1000,1000,12600,0,0.0026050934102386236,0.0027981996536254883,0.002622776897624135,10,{}
normal_corridor_base_3,0,none,37241,0.0011994231026619673,0.0009936167625710368,-0.07511194795370102,-35.3632621,149.1652374,-0.005,-0.02,0.02,0.0,-9.94223591987975e-05,9.444991155760363e-05,0.0,1000,1000,1000,1000,12600,0,0.002956477226689458,0.002846020506694913,0.0027477650437504053,10,{}
normal_corridor_base_3,0,none,37574,0.0012102443724870682,0.0010024257935583591,-0.07547422498464584,-35.3632621,149.1652374,-0.005,-0.02,0.02,0.0,-9.942234464688227e-05,9.444986062590033e-05,0.0,1000,1000,1000,1000,12600,0,0.0026805135421454906,0.0024963992182165384,0.0026848691049963236,10,{}
normal_corridor_base_3,0,none,37907,0.0012111517135053873,0.001021234318614006,-0.07595428079366684,-35.3632621,149.1652374,-0.006,-0.02,0.02,0.0,-9.942233009496704e-05,9.444986790185794e-05,0.0,1000,1000,1000,1000,12600,0,0.0027748316060751677,0.002743612742051482,0.002831879537552595,10,{}
normal_corridor_base_3,0,none,38242,0.0012241611257195473,0.0010364357149228454,-0.07632020860910416,-35.3632621,149.1652374,-0.006,-0.02,0.02,0.0,-9.942233009496704e-05,9.444986790185794e-05,0.0,1000,1000,1000,1000,12600,0,0.0027646790258586407,0.0027631509583443403,0.002819669432938099,10,{}
normal_corridor_base_3,0,none,38574,0.0012318928493186831,0.0010410157265141606,-0.07666470855474472,-35.3632621,149.1652374,-0.006,-0.02,0.02,0.0,-9.942233009496704e-05,9.444987517781556e-05,0.0,1000,1000,1000,1000,12600,0,0.002872333163395524,0.0029351646080613136,0.002842735266312957,10,{}
normal_corridor_base_3,0,none,38906,0.0012466678163036704,0.0010568237630650401,-0.07713290303945541,-35.3632621,149.1652374,-0.006,-0.02,0.02,0.0,-9.942230099113658e-05,9.444986062590033e-05,0.0,1000,1000,1000,1000,12600,0,0.0025894735008478165,0.0029196850955486298,0.0027410858310759068,10,{}
normal_corridor_base_3,0,none,39239,0.0012512918328866363,0.0010673973010852933,-0.07747243344783783,-35.3632621,149.1652374,-0.006,-0.02,0.02,0.0,-9.942230099113658e-05,9.444986062590033e-05,0.0,1000,1000,1000,1000,12600,0,0.0028495865408331156,0.002867085160687566,0.0028418595902621746,10,{}
normal_corridor_base_3,0,none,39574,0.0012482203310355544,0.0010726363398134708,-0.07780928164720535,-35.3632621,149.1652374,-0.006,-0.02,0.02,0.0,-9.942227188730612e-05,9.444988972973078e-05,0.0,1000,1000,1000,1000,12600,0,0.002615527482703328,0.0027471790090203285,0.002967891050502658,10,{}
normal_corridor_base_3,0,none,39906,0.0012597026070579886,0.0010801901808008552,-0.07824915647506714,-35.3632621,149.1652374,-0.006,-0.02,0.02,0.0,-9.942227188730612e-05,9.444988972973078e-05,0.0,1000,1000,1000,1000,12600,0,0.0027780882082879543,0.002879319479689002,0.0025637622456997633,10,{}
normal_corridor_base_3,0,none,40239,0.001266692066565156,0.0010849082609638572,-0.07858268171548843,-35.3632621,149.1652374,-0.006,-0.02,0.02,0.0,-9.942227188730612e-05,9.444988972973078e-05,0.0,1000,1000,1000,1000,12600,0,0.002773126121610403,0.0031252470798790455,0.003216010285541415,10,{}
normal_corridor_base_3,0,none,40572,0.0012749511515721679,0.0010947948321700096,-0.0788932740688324,-35.3632621,149.1652374,-0.006,-0.02,0.02,0.0,-9.942229371517897e-05,9.444997704122216e-05,0.0,1000,1000,1000,1000,12600,0,0.0026430487632751465,0.0030586100183427334,0.0027989582158625126,10,{}
normal_corridor_base_3,0,none,40904,0.001286115264520049,0.0010969944996759295,-0.07926518470048904,-35.3632621,149.1652374,-0.006,-0.02,0.02,0.0,-9.942226461134851e-05,9.444994066143408e-05,0.0,1000,1000,1000,1000,12600,0,0.002635553479194641,0.002750574378296733,0.002673871349543333,10,{}
normal_corridor_base_3,0,none,41239,0.0012902714079245925,0.0011086951708421111,-0.07955051958560944,-35.3632621,149.1652374,-0.006,-0.02,0.02,0.0,-9.942226461134851e-05,9.444994066143408e-05,0.0,1000,1000,1000,1000,12600,0,0.002926739864051342,0.0029517929069697857,0.0028163925744593143,10,{}
normal_corridor_base_3,0,none,41571,0.0012986280489712954,0.001117072650231421,-0.07985859364271164,-35.3632621,149.1652374,-0.006,-0.02,0.02,0.0,-9.942229371517897e-05,9.444991883356124e-05,0.0,1000,1000,1000,1000,12600,0,0.0028567523695528507,0.0029096812941133976,0.002716682618483901,10,{}
normal_corridor_base_3,0,none,41904,0.0013411141699180007,0.001162729924544692,-0.0802626982331276,-35.3632621,149.1652374,-0.006,0.0,0.0,0.0,-9.942233009496704e-05,9.444994066143408e-05,0.0,1000,1000,1000,1000,12600,0,0.0029403227381408215,0.0027411116752773523,0.00287065003067255,10,{}
normal_corridor_base_3,0,none,42237,0.0014229868538677692,0.0012445622123777866,-0.0805724710226059,-35.3632621,149.1652374,-0.006,0.0,0.0,0.0,-9.942233009496704e-05,9.444994066143408e-05,0.0,1000,1000,1000,1000,12600,0,0.0027265832759439945,0.0026968596503138542,0.002913632895797491,10,{}
normal_corridor_base_3,0,none,42569,0.0014885121490806341,0.0013093485031276941,-0.08087581396102905,-35.3632621,149.1652374,-0.006,0.0,0.0,0.0,-9.942227188730612e-05,9.444990428164601e-05,0.0,1000,1000,1000,1000,12600,0,0.0030430895276367664,0.002794854575768113,0.0027094383258372545,10,{}
normal_corridor_base_3,0,none,42904,0.001568819279782474,0.0013911572750657797,-0.0812738835811615,-35.3632621,149.1652374,-0.006,0.0,0.01,0.0,-9.942233737092465e-05,9.44499479373917e-05,0.0,1000,1000,1000,1000,12600,0,0.002717282623052597,0.002687489613890648,0.0025946383830159903,10,{}
normal_corridor_base_3,0,none,43236,0.0016203542472794652,0.0014407276175916195,-0.0815865620970726,-35.3632621,149.1652374,-0.006,-0.01,0.01,0.0,-9.942233737092465e-05,9.44499479373917e-05,0.0,1000,1000,1000,1000,12600,0,0.002977044554427266,0.0027640927582979202,0.0028959247283637524,10,{}
normal_corridor_base_3,0,none,43569,0.0016478700563311577,0.0014640229055657983,-0.08189526200294495,-35.3632621,149.1652374,-0.006,-0.01,0.01,0.0,-9.94223082670942e-05,9.444986062590033e-05,0.0,1000,1000,1000,1000,12600,0,0.0028146447148174047,0.0029807090759277344,0.0028358472045511007,10,{}
normal_corridor_base_3,0,none,43901,0.0016569349681958556,0.0014758510515093803,-0.08229751884937286,-35.3632621,149.1652374,-0.006,-0.01,0.01,0.0,-9.942237375071272e-05,9.444988245377317e-05,0.0,1000,1000,1000,1000,12600,0,0.0029408440459519625,0.0030819172970950603,0.002535538747906685,10,{}
normal_corridor_base_3,0,none,44234,0.0016478209290653467,0.00146617426071316,-0.08261644095182419,-35.3632621,149.1652374,-0.006,-0.01,0.01,0.0,-9.942237375071272e-05,9.444988245377317e-05,0.0,1000,1000,1000,1000,12600,0,0.002754655433818698,0.00288203451782465,0.003103417344391346,10,{}
normal_corridor_base_3,0,none,44567,0.001619261223822832,0.0014319211477413774,-0.08290441334247589,-35.3632621,149.1652375,-0.006,-0.01,0.02,0.0,-9.942238830262795e-05,9.444987517781556e-05,0.0,1000,1000,1000,1000,12600,0,0.0027946638874709606,0.0028540974017232656,0.002594121964648366,10,{}
normal_corridor_base_3,0,none,44902,0.001562687335535884,0.0013795517152175307,-0.08327683061361313,-35.3632621,149.1652375,-0.006,-0.01,0.02,0.0,-9.942233009496704e-05,9.444986062590033e-05,0.0,1000,1000,1000,1000,12600,0,0.002718118019402027,0.0029168236069381237,0.0026421567890793085,10,{}
normal_corridor_base_3,0,none,45354,0.0014804797247052193,0.0012993920827284455,-0.08371040970087051,-35.3632621,149.1652375,-0.006,-0.01,0.02,0.0,-9.942233009496704e-05,9.444986062590033e-05,0.0,1000,1000,1000,1000,12600,0,0.002782233525067568,0.002893297467380762,0.0026140876580029726,10,{}
normal_corridor_base_3,0,none,45604,0.0014411400770768523,0.0012627006508409977,-0.0839231014251709,-35.3632622,149.1652375,-0.006,-0.01,0.02,0.0,-9.942233737092465e-05,9.444988972973078e-05,0.0,1000,1000,1000,1000,12600,0,0.002572518540546298,0.0029621843714267015,0.0026198888663202524,10,{}
normal_corridor_base_3,0,none,45854,0.0013846403453499079,0.0012035705149173737,-0.08412586897611618,-35.3632622,149.1652375,-0.006,-0.01,0.02,0.0,-9.942232281900942e-05,9.444987517781556e-05,0.0,1000,1000,1000,1000,12600,0,0.0030863878782838583,0.0027566668577492237,0.002908692229539156,10,{}
normal_corridor_base_3,0,none,46104,0.0013428085949271917,0.001158235245384276,-0.08433030545711517,-35.3632622,149.1652375,-0.006,-0.01,0.01,0.0,-9.942230099113658e-05,9.444988245377317e-05,0.0,1000,1000,1000,1000,12600,0,0.002984887221828103,0.0028086963575333357,0.0028126961551606655,10,{}
normal_corridor_base_3,0,none,46354,0.0013024138752371073,0.0011126159224659204,-0.08450206369161606,-35.3632622,149.1652375,-0.006,-0.01,0.01,0.0,-9.942228643922135e-05,9.444988245377317e-05,0.0,1000,1000,1000,1000,12600,0,0.00257099443115294,0.002707461826503277,0.0028636532370001078,10,{}
normal_corridor_base_3,0,none,46604,0.0012766898144036531,0.0010916851460933685,-0.08466178178787231,-35.3632622,149.1652375,-0.006,-0.01,0.01,0.0,-9.942231554305181e-05,9.444991883356124e-05,0.0,1000,1000,1000,1000,12600,0,0.002620919141918421,0.002777625108137727,0.002617625752463937,10,{}
normal_corridor_base_3,0,none,46854,0.001230591326020658,0.001052033738233149,-0.08486263453960419,-35.3632622,149.1652375,-0.006,-0.01,0.01,0.0,-9.942226461134851e-05,9.444991155760363e-05,0.0,1000,1000,1000,1000,12600,0,0.002952817128971219,0.0026925774291157722,0.0024197085294872522,10,{}
normal_corridor_base_3,0,none,47104,0.0011975904926657677,0.001022713491693139,-0.08504047244787216,-35.3632621,149.1652375,-0.006,-0.01,0.01,0.0,-9.942224278347567e-05,9.444992610951886e-05,0.0,1000,1000,1000,1000,12600,0,0.0028693967033177614,0.0027131151873618364,0.002412908710539341,10,{}
normal_corridor_base_3,0,none,47354,0.0011719116009771824,0.001000384334474802,-0.08522963523864746,-35.3632621,149.1652375,-0.006,-0.01,0.01,0.0,-9.942221367964521e-05,9.44498970056884e-05,0.0,1000,1000,1000,1000,12600,0,0.00298507884144783,0.0028518245089799166,0.0027925963513553143,10,{}
normal_corridor_base_3,0,none,47604,0.0011588070774450898,0.000987262581475079,-0.08539555966854095,-35.3632621,149.1652375,-0.006,-0.01,0.01,0.0,-9.942217729985714e-05,9.444986062590033e-05,0.0,1000,1000,1000,1000,12600,0,0.0027651889249682426,0.00278066867031157,0.002833001781255007,10,{}
normal_corridor_base_3,0,none,47854,0.001132429693825543,0.0009647379629313946,-0.08558318018913269,-35.3632621,149.1652375,-0.006,-0.01,0.01,0.0,-9.942214819602668e-05,9.444982424611226e-05,0.0,1000,1000,1000,1000,12600,0,0.0028726437594741583,0.002711338922381401,0.0027382494881749153,10,{}
normal_corridor_base_3,0,none,48104,0.0011169440113008022,0.0009482037858106196,-0.08573798090219498,-35.3632621,149.1652375,-0.006,-0.01,0.01,0.0,-9.942211909219623e-05,9.444982424611226e-05,0.0,1000,1000,1000,1000,12600,0,0.0030948978383094072,0.0027696487959474325,0.002795629668980837,10,{}
normal_corridor_base_3,0,none,48354,0.0011058682575821877,0.0009368909522891045,-0.08592379093170166,-35.3632621,149.1652375,-0.006,-0.01,0.01,0.0,-9.9422104540281e-05,9.444980969419703e-05,0.0,1000,1000,1000,1000,12600,0,0.0026993537321686745,0.0029867307748645544,0.002863135654479265,10,{}
normal_corridor_base_3,0,none,48604,0.0010995513293892145,0.0009312676847912371,-0.08608142286539078,-35.3632621,149.1652375,-0.006,-0.01,0.01,0.0,-9.942207543645054e-05,9.444980969419703e-05,0.0,1000,1000,1000,1000,12600,0,0.002893059281632304,0.0027123545296490192,0.0029777023009955883,10,{}
normal_corridor_base_3,0,none,48854,0.0010902679059654474,0.0009226369438692927,-0.086240254342556,-35.3632621,149.1652375,-0.006,-0.01,0.01,0.0,-9.942206816049293e-05,9.444978786632419e-05,0.0,1000,1000,1000,1000,12600,0,0.0028329838532954454,0.0030252898577600718,0.0027380716055631638,10,{}
normal_corridor_base_3,0,none,49104,0.0010844389908015728,0.0009157435270026326,-0.08641047775745392,-35.3632621,149.1652375,-0.006,-0.01,0.01,0.0,-9.942201722878963e-05,9.444976603845134e-05,0.0,1000,1000,1000,1000,12600,0,0.0029291175305843353,0.003083036979660392,0.0026995802763849497,10,{}
normal_corridor_base_3,0,none,49354,0.0010827458463609219,0.0009113935520872474,-0.08656544238328934,-35.3632621,149.1652375,-0.006,-0.01,0.01,0.0,-9.942198812495917e-05,9.444975876249373e-05,0.0,1000,1000,1000,1000,12600,0,0.002702003810554743,0.002649150090292096,0.0028011698741465807,10,{}
normal_corridor_base_3,0,none,49604,0.001083318260498345,0.0009119200403802097,-0.08671832084655762,-35.3632621,149.1652375,-0.006,-0.01,0.01,0.0,-9.942197357304394e-05,9.444972238270566e-05,0.0,1000,1000,1000,1000,12600,0,0.002705017104744911,0.0028584597166627645,0.002694720169529319,10,{}
normal_corridor_base_3,0,none,49854,0.0010778730502352118,0.0009135783184319735,-0.08688031882047653,-35.3632621,149.1652375,-0.006,-0.01,0.01,0.0,-9.942198812495917e-05,9.444972238270566e-05,0.0,1000,1000,1000,1000,12600,0,0.0026668154168874025,0.002837886568158865,0.002634619129821658,10,{}
normal_corridor_base_3,0,none,50104,0.001077523222193122,0.0009146906668320298,-0.08703603595495224,-35.3632621,149.1652375,-0.006,-0.01,0.01,0.0,-9.942198812495917e-05,9.444970055483282e-05,0.0,1000,1000,1000,1000,12600,0,0.0028905768413096666,0.0027850077021867037,0.0027597155421972275,10,{}
normal_corridor_base_3,0,none,50354,0.001080995425581932,0.0009159547043964267,-0.08718706667423248,-35.3632621,149.1652375,-0.006,-0.01,0.01,0.0,-9.94219517451711e-05,9.444964962312952e-05,0.0,1000,1000,1000,1000,12600,0,0.0024053682573139668,0.002637889701873064,0.002970012603327632,10,{}
normal_corridor_base_3,0,none,50604,0.0010840295581147075,0.0009139911853708327,-0.08734746277332306,-35.3632621,149.1652375,-0.006,-0.01,0.01,0.0,-9.942197357304394e-05,9.444961324334145e-05,0.0,1000,1000,1000,1000,12600,0,0.0028041983023285866,0.002979018958285451,0.0027300340589135885,10,{}
normal_corridor_base_3,0,none,50854,0.0010853197891265154,0.0009125409997068346,-0.08749181777238846,-35.3632621,149.1652375,-0.006,-0.01,0.01,0.0,-9.94219517451711e-05,9.444958413951099e-05,0.0,1000,1000,1000,1000,12600,0,0.0027916368562728167,0.0030360035598278046,0.0029243880417197943,10,{}
normal_corridor_base_3,0,none,51104,0.001085422933101654,0.0009122409392148256,-0.08764086663722992,-35.3632621,149.1652375,-0.006,-0.01,0.01,0.0,-9.942192264134064e-05,9.444954775972292e-05,0.0,1000,1000,1000,1000,12600,0,0.0027790528256446123,0.002731712069362402,0.00267804809845984,10,{}
normal_corridor_base_3,0,none,51354,0.0010858133900910616,0.0009175768354907632,-0.08778438717126846,-35.3632621,149.1652375,-0.006,-0.01,0.01,0.0,-9.942189353751019e-05,9.444952593185008e-05,0.0,1000,1000,1000,1000,12600,0,0.0028894292190670967,0.002777308924123645,0.002556513762101531,10,{}
normal_corridor_base_3,0,none,51604,0.0010916340397670865,0.0009184255613945425,-0.08792717009782791,-35.3632621,149.1652375,-0.006,-0.01,0.01,0.0,-9.942188626155257e-05,9.444950410397723e-05,0.0,1000,1000,1000,1000,12600,0,0.002893341239541769,0.0029222385492175817,0.0029246697667986155,10,{}
normal_corridor_base_3,0,none,51854,0.0010946730617433786,0.0009140240726992488,-0.08806680142879486,-35.3632621,149.1652375,-0.006,-0.01,0.01,0.0,-9.942190808942541e-05,9.444951865589246e-05,0.0,1000,1000,1000,1000,12600,0,0.002978250617161393,0.002636110410094261,0.0029025685507804155,10,{}
normal_corridor_base_3,0,none,52104,0.001099464832805097,0.0009063141187652946,-0.08821365237236023,-35.3632621,149.1652375,-0.006,-0.01,0.01,0.0,-9.94219008134678e-05,9.4449489552062e-05,0.0,1000,1000,1000,1000,12600,0,0.002980356104671955,0.0025234532076865435,0.0028609002474695444,10,{}
normal_corridor_base_3,0,none,52354,0.0011040210956707597,0.0009052871610037982,-0.08834532648324966,-35.3632621,149.1652375,-0.006,-0.01,0.01,0.0,-9.942187898559496e-05,9.4449489552062e-05,0.0,1000,1000,1000,1000,12600,0,0.0027319409418851137,0.002879194915294647,0.0028401061426848173,10,{}
normal_corridor_base_3,0,none,52604,0.0011083127465099096,0.0009164477814920247,-0.08845674991607666,-35.3632621,149.1652375,-0.006,-0.01,0.01,0.0,-9.942186443367973e-05,9.444945317227393e-05,0.0,1000,1000,1000,1000,12600,0,0.003151178127154708,0.0027405773289501667,0.002797189634293318,10,{}
normal_corridor_base_3,0,none,52854,0.001110413228161633,0.0009184700320474803,-0.08859589695930481,-35.3632621,149.1652375,-0.006,-0.01,0.01,0.0,-9.942185715772212e-05,9.44494386203587e-05,0.0,1000,1000,1000,1000,12600,0,0.002894546603783965,0.003078615292906761,0.002956736832857132,10,{}
normal_corridor_base_3,0,none,53104,0.0011105206795036793,0.0009143298375420272,-0.08872396498918533,-35.3632621,149.1652375,-0.006,-0.01,0.01,0.0,-9.942186443367973e-05,9.44494386203587e-05,0.0,1000,1000,1000,1000,12600,0,0.00268617644906044,0.0027981665916740894,0.002734322566539049,10,{}
normal_corridor_base_3,0,none,53354,0.0011169607751071453,0.0009218837949447334,-0.08887330442667007,-35.3632621,149.1652375,-0.006,-0.01,0.01,0.0,-9.942185715772212e-05,9.444944589631632e-05,0.0,1000,1000,1000,1000,12600,0,0.0027527203783392906,0.002606996800750494,0.002653568284586072,10,{}
normal_corridor_base_3,0,none,53604,0.0011289530666545033,0.0009298947406932712,-0.08899985998868942,-35.3632621,149.1652375,-0.006,-0.01,0.01,0.0,-9.942184260580689e-05,9.444943134440109e-05,0.0,1000,1000,1000,1000,12600,0,0.0027636028826236725,0.003063402371481061,0.0027509357314556837,10,{}
normal_corridor_base_3,0,none,53854,0.0011316254967823625,0.0009272624738514423,-0.08913362771272659,-35.3632621,149.1652375,-0.006,-0.01,0.01,0.0,-9.942180622601882e-05,9.444941679248586e-05,0.0,1000,1000,1000,1000,12600,0,0.002527629490941763,0.002687640953809023,0.002939477562904358,10,{}
normal_corridor_base_3,0,none,54104,0.0011331761488690972,0.000935543270315975,-0.08926473557949066,-35.3632621,149.1652375,-0.006,-0.01,0.01,0.0,-9.942177712218836e-05,9.444940951652825e-05,0.0,1000,1000,1000,1000,12600,0,0.003024512203410268,0.0028088903054594994,0.00287444656714797,10,{}
normal_corridor_base_3,0,none,54354,0.0011349148117005825,0.000939006800763309,-0.08939656615257263,-35.3632621,149.1652375,-0.006,-0.01,0.01,0.0,-9.94217480183579e-05,9.444936586078256e-05,0.0,1000,1000,1000,1000,12600,0,0.0028915447182953358,0.00294332392513752,0.0030009583570063114,10,{}
normal_corridor_base_3,0,none,54604,0.0011451811296865344,0.0009487511706538498,-0.08951857686042786,-35.3632621,149.1652375,-0.006,-0.01,0.01,0.0,-9.942172619048506e-05,9.444937313674018e-05,0.0,1000,1000,1000,1000,12600,0,0.00264536845497787,0.0027557071298360825,0.002671495545655489,10,{}
normal_corridor_base_3,0,none,54854,0.0011447860160842538,0.0009474707767367363,-0.08964414894580841,-35.3632621,149.1652375,-0.006,-0.01,0.01,0.0,-9.942174074240029e-05,9.444933675695211e-05,0.0,1000,1000,1000,1000,12600,0,0.0031946594826877117,0.002871209755539894,0.002958940574899316,10,{}
normal_corridor_base_3,0,none,55104,0.0011465268908068538,0.0009494362166151404,-0.08976765722036362,-35.3632621,149.1652375,-0.006,-0.01,0.01,0.0,-9.942172619048506e-05,9.444929310120642e-05,0.0,1000,1000,1000,1000,12600,0,0.0027622513007372618,0.002842006739228964,0.0025625121779739857,10,{}
normal_corridor_base_3,0,none,55354,0.001145709422416985,0.0009513864060863853,-0.08989137411117554,-35.3632621,149.1652375,-0.006,-0.01,0.01,0.0,-9.942171891452745e-05,9.44492785492912e-05,0.0,1000,1000,1000,1000,12600,0,0.0025743211153894663,0.002526539610698819,0.002598595805466175,10,{}
normal_corridor_base_3,0,none,55604,0.0011502888519316912,0.000956373056396842,-0.09001854807138443,-35.3632621,149.1652375,-0.006,-0.01,0.01,0.0,-9.942168981069699e-05,9.444925672141835e-05,0.0,1000,1000,1000,1000,12600,0,0.0027310329023748636,0.0030370140448212624,0.002656299155205488,10,{}
normal_corridor_base_3,0,none,55854,0.0011466194409877062,0.0009505181224085391,-0.09014086425304413,-35.3632621,149.1652375,-0.006,-0.01,0.01,0.0,-9.942168253473938e-05,9.444926399737597e-05,0.0,1000,1000,1000,1000,12600,0,0.0026970626786351204,0.002862347289919853,0.0025826371274888515,10,{}
normal_corridor_base_3,0,none,56104,0.0011461584363132715,0.0009513688273727894,-0.0902649387717247,-35.3632621,149.1652375,-0.006,-0.01,0.01,0.0,-9.942168253473938e-05,9.444926399737597e-05,0.0,1000,1000,1000,1000,12600,0,0.002768162405118346,0.0028675596695393324,0.0030393858905881643,10,{}
normal_corridor_base_3,0,none,56354,0.0011502844281494617,0.0009554664720781147,-0.09038625657558441,-35.3632621,149.1652375,-0.006,-0.01,0.01,0.0,-9.942167525878176e-05,9.444924216950312e-05,0.0,1000,1000,1000,1000,12600,0,0.0027056431863456964,0.0029029136057943106,0.0030944880563765764,10,{}
normal_corridor_base_3,0,none,56604,0.0011520669795572758,0.0009616498136892915,-0.09050621092319489,-35.3632621,149.1652375,-0.006,-0.01,0.01,0.0,-9.94216970866546e-05,9.44492785492912e-05,0.0,1000,1000,1000,1000,12600,0,0.002758015412837267,0.002629471942782402,0.0027786518912762403,10,{}
normal_corridor_base_3,0,none,56854,0.0011378041235730052,0.0009589302353560925,-0.09059517085552216,-35.3632621,149.1652375,-0.006,-0.01,0.01,0.0,-9.94217480183579e-05,9.444930037716404e-05,0.0,1000,1000,1000,1000,12600,0,0.0028746500611305237,0.0027444204315543175,0.0027303637471050024,10,{}
normal_corridor_base_3,0,none,57104,0.0011330507695674896,0.0009548586676828563,-0.09070738404989243,-35.3632621,149.1652375,-0.006,-0.01,0.01,0.0,-9.942180622601882e-05,9.444932220503688e-05,0.0,1000,1000,1000,1000,12600,0,0.0027636894956231117,0.0029823353979736567,0.002821451285853982,10,{}
normal_corridor_base_3,0,none,57354,0.0011411132290959358,0.0009567404049448669,-0.09082932025194168,-35.3632621,149.1652375,-0.006,-0.01,0.01,0.0,-9.942182805389166e-05,9.444934403290972e-05,0.0,1000,1000,1000,1000,12600,0,0.0028101527132093906,0.00288074160926044,0.0027481201104819775,10,{}
normal_corridor_base_3,0,none,57604,0.0011460911482572556,0.0009644821984693408,-0.09094139188528061,-35.3632622,149.1652375,-0.006,-0.01,0.01,0.0,-9.942180622601882e-05,9.444935130886734e-05,0.0,1000,1000,1000,1000,12600,0,0.0026839966885745525,0.002638594014570117,0.0024834731593728065,10,{}
normal_corridor_base_3,0,none,57854,0.0011466119904071093,0.000962508434895426,-0.0910528376698494,-35.3632621,149.1652375,-0.006,-0.01,0.01,0.0,-9.942181350197643e-05,9.444936586078256e-05,0.0,1000,1000,1000,1000,12600,0,0.0026802695356309414,0.0025301838759332895,0.0026132501661777496,10,{}
normal_corridor_base_3,0,none,58104,0.0011502383276820183,0.0009602914215065539,-0.09115958958864212,-35.3632621,149.1652375,-0.006,-0.01,0.01,0.0,-9.942185715772212e-05,9.444939496461302e-05,0.0,1000,1000,1000,1000,12600,0,0.0026224867906421423,0.002778815571218729,0.002571041928604245,10,{}
normal_corridor_base_3,0,none,58354,0.0011542538413777947,0.0009660207433626056,-0.09127738326787949,-35.3632621,149.1652375,-0.006,-0.01,0.01,0.0,-9.942185715772212e-05,9.444938041269779e-05,0.0,1000,1000,1000,1000,12600,0,0.0030612251721322536,0.0027113177347928286,0.002757216105237603,10,{}
normal_corridor_base_3,0,none,58604,0.0011546610621735454,0.0009717983193695545,-0.09138084948062897,-35.3632622,149.1652375,-0.006,-0.01,0.01,0.0,-9.942191536538303e-05,9.444943134440109e-05,0.0,1000,1000,1000,1000,12600,0,0.003133420366793871,0.003081529401242733,0.0028623209800571203,10,{}
normal_corridor_base_3,0,none,58854,0.0011546151945367455,0.0009683403768576682,-0.09149707108736038,-35.3632621,149.1652375,-0.006,-0.01,0.01,0.0,-9.942192991729826e-05,9.44494386203587e-05,0.0,1000,1000,1000,1000,12600,0,0.0029170187190175056,0.0027995863929390907,0.002555648796260357,10,{}
normal_corridor_base_3,0,none,59104,0.0011554536176845431,0.0009693910251371562,-0.09160121530294418,-35.3632621,149.1652375,-0.006,-0.01,0.01,0.0,-9.942192264134064e-05,9.444939496461302e-05,0.0,1000,1000,1000,1000,12600,0,0.002669022884219885,0.0027965314220637083,0.00266708480194211,10,{}
normal_corridor_base_3,0,none,59354,0.0011581500293686986,0.0009752632468007505,-0.09170494228601456,-35.3632621,149.1652375,-0.006,-0.01,0.01,0.0,-9.942192991729826e-05,9.444938041269779e-05,0.0,1000,1000,1000,1000,12600,0,0.0029818303883075714,0.0025442561600357294,0.0026877284981310368,10,{}
normal_corridor_base_3,0,none,59604,0.0011625707847997546,0.000980509095825255,-0.09181113541126251,-35.3632622,149.1652375,-0.006,-0.01,0.01,0.0,-9.942192264134064e-05,9.444933675695211e-05,0.0,1000,1000,1000,1000,12600,0,0.0030010531190782785,0.002750415587797761,0.002713508438318968,10,{}
normal_corridor_base_3,0,none,59854,0.0011516455560922623,0.0009753592894412577,-0.09191368520259857,-35.3632621,149.1652375,-0.006,-0.01,0.01,0.0,-9.942198812495917e-05,9.444939496461302e-05,0.0,1000,1000,1000,1000,12600,0,0.0026662040036171675,0.002803605981171131,0.002736208261922002,10,{}
normal_corridor_base_3,0,none,60104,0.0011504569556564093,0.0009703016839921474,-0.09201113879680634,-35.3632621,149.1652375,-0.006,-0.01,0.01,0.0,-9.942199540091679e-05,9.444936586078256e-05,0.0,1000,1000,1000,1000,12600,0,0.0030158718582242727,0.0027474574744701385,0.002700456418097019,10,{}
normal_corridor_base_3,0,none,60354,0.0011522154090926051,0.0009683694806881249,-0.09211692214012146,-35.3632622,149.1652375,-0.006,-0.01,0.01,0.0,-9.942202450474724e-05,9.444936586078256e-05,0.0,1000,1000,1000,1000,12600,0,0.0026820385828614235,0.002776504959911108,0.0027320347726345062,10,{}
normal_corridor_base_3,0,none,60604,0.0011581178987398744,0.0009714451734907925,-0.0922129899263382,-35.3632622,149.1652375,-0.006,-0.01,0.01,0.0,-9.942203905666247e-05,9.444936586078256e-05,0.0,1000,1000,1000,1000,12600,0,0.002713428344577551,0.0028823455795645714,0.002858642488718033,10,{}
normal_corridor_base_3,0,none,60854,0.001150410738773644,0.0009578220779076219,-0.09232048690319061,-35.3632621,149.1652375,-0.006,-0.01,0.01,0.0,-9.942202450474724e-05,9.444935858482495e-05,0.0,1000,1000,1000,1000,12600,0,0.0028073571156710386,0.0027939474675804377,0.0025490240659564734,10,{}
normal_corridor_base_3,0,none,61104,0.0011544468579813838,0.0009534537675790489,-0.09241681545972824,-35.3632621,149.1652375,-0.006,-0.01,0.01,0.0,-9.94220536085777e-05,9.444938041269779e-05,0.0,1000,1000,1000,1000,12600,0,0.0024771462194621563,0.002921856939792633,0.002871362492442131,10,{}
normal_corridor_base_3,0,none,61354,0.0011568383779376745,0.0009573406423442066,-0.09250973165035248,-35.3632622,149.1652375,-0.006,-0.01,0.01,0.0,-9.942203905666247e-05,9.444936586078256e-05,0.0,1000,1000,1000,1000,12600,0,0.0030547152273356915,0.003092537634074688,0.0030781265813857317,10,{}
normal_corridor_base_3,0,none,61604,0.0011642789468169212,0.0009606921812519431,-0.09260385483503342,-35.3632622,149.1652375,-0.006,-0.01,0.01,0.0,-9.942208998836577e-05,9.444937313674018e-05,0.0,1000,1000,1000,1000,12600,0,0.002779454691335559,0.002832135884091258,0.002989922184497118,10,{}
normal_corridor_base_3,0,none,61854,0.0011553490767255425,0.0009530881070531905,-0.09267980605363846,-35.3632622,149.1652375,-0.006,-0.01,0.01,0.0,-9.942208998836577e-05,9.444940951652825e-05,0.0,1000,1000,1000,1000,12600,0,0.002935419324785471,0.0027865516021847725,0.0030348747968673706,10,{}
normal_corridor_base_3,0,none,62104,0.001157258404418826,0.0009556295699439943,-0.09276822954416275,-35.3632621,149.1652375,-0.006,-0.01,0.01,0.0,-9.942209726432338e-05,9.444942406844348e-05,0.0,1000,1000,1000,1000,12600,0,0.002529751742258668,0.0028320522978901863,0.002814509440213442,10,{}
normal_corridor_base_3,0,none,62354,0.0011614286340773106,0.0009541811887174845,-0.09286416321992874,-35.3632622,149.1652375,-0.006,-0.01,0.01,0.0,-9.942213364411145e-05,9.444946044823155e-05,0.0,1000,1000,1000,1000,12600,0,0.002675029681995511,0.002683610888198018,0.002634878735989332,10,{}
normal_corridor_base_3,0,none,62604,0.001163510256446898,0.0009637571638450027,-0.09294836223125458,-35.3632622,149.1652375,-0.006,-0.01,0.01,0.0,-9.942212636815384e-05,9.444947500014678e-05,0.0,1000,1000,1000,1000,12600,0,0.0026495237834751606,0.0029550199396908283,0.0028511269483715296,10,{}
normal_corridor_base_3,0,none,62854,0.0011605904437601566,0.0009622889338061213,-0.09304437786340714,-35.3632621,149.1652375,-0.006,-0.01,0.01,0.0,-9.942213364411145e-05,9.4449489552062e-05,0.0,1000,1000,1000,1000,12600,0,0.0026120177935808897,0.0031740327831357718,0.0026498541701585054,10,{}
normal_corridor_base_3,0,none,63104,0.0011594954412430525,0.0009676155168563128,-0.09313931316137314,-35.3632621,149.1652375,-0.006,-0.01,0.01,0.0,-9.942211181623861e-05,9.44494386203587e-05,0.0,1000,1000,1000,1000,12600,0,0.0029464049730449915,0.002858156571164727,0.002694616559892893,10,{}
normal_corridor_base_3,0,none,63354,0.0011588280322030187,0.0009658740018494427,-0.09323497116565704,-35.3632622,149.1652375,-0.006,-0.01,0.01,0.0,-9.942212636815384e-05,9.444942406844348e-05,0.0,1000,1000,1000,1000,12600,0,0.0027962704189121723,0.002633239608258009,0.002851770492270589,10,{}
normal_corridor_base_3,0,none,63604,0.001162234926596284,0.0009747346048243344,-0.09331740438938141,-35.3632622,149.1652375,-0.006,-0.01,0.01,0.0,-9.942211181623861e-05,9.44493876886554e-05,0.0,1000,1000,1000,1000,12600,0,0.0028849670197814703,0.002517062472179532,0.002650013891980052,10,{}
normal_corridor_base_3,0,none,63854,0.0011584690073505044,0.0009707882418297231,-0.09340238571166992,-35.3632622,149.1652375,-0.006,-0.01,0.01,0.0,-9.942208998836577e-05,9.444940951652825e-05,0.0,1000,1000,1000,1000,12600,0,0.002952449256554246,0.0029838234186172485,0.002890804084017873,10,{}
normal_corridor_base_3,0,none,64104,0.0011628748616203666,0.0009624826489016414,-0.09348593652248383,-35.3632622,149.1652375,-0.006,-0.01,0.01,0.0,-9.942211909219623e-05,9.444942406844348e-05,0.0,1000,1000,1000,1000,12600,0,0.0027495338581502438,0.0030118876602500677,0.0031028869561851025,10,{}
normal_corridor_base_3,0,none,64354,0.0011642989702522755,0.0009641905198805034,-0.09357450902462006,-35.3632622,149.1652375,-0.006,-0.01,0.01,0.0,-9.94221554719843e-05,9.44494386203587e-05,0.0,1000,1000,1000,1000,12600,0,0.0029476762283593416,0.0028871356043964624,0.002852474106475711,10,{}
normal_corridor_base_3,0,none,64604,0.0011741885682567954,0.0009669042192399502,-0.09365779906511307,-35.3632622,149.1652375,-0.006,-0.01,0.01,0.0,-9.942217002389953e-05,9.444946044823155e-05,0.0,1000,1000,1000,1000,12600,0,0.002898129168897867,0.0029549153987318277,0.002889412920922041,10,{}
normal_corridor_base_3,0,none,64854,0.001171768642961979,0.0009591298294253647,-0.09374520927667618,-35.3632622,149.1652375,-0.006,-0.01,0.01,0.0,-9.94222064036876e-05,9.444946044823155e-05,0.0,1000,1000,1000,1000,12600,0,0.0028465164359658957,0.00294336024671793,0.002842680085450411,10,{}
normal_corridor_base_3,0,none,65104,0.0011643279576674104,0.0009521925821900368,-0.09382952749729156,-35.3632622,149.1652375,-0.006,-0.01,0.01,0.0,-9.942217729985714e-05,9.444944589631632e-05,0.0,1000,1000,1000,1000,12600,0,0.002917112782597542,0.0030844872817397118,0.002727409591898322,10,{}
normal_corridor_base_3,0,none,65354,0.0011631908128038049,0.0009588183602318168,-0.09391146153211594,-35.3632622,149.1652375,-0.006,-0.01,0.01,0.0,-9.942219185177237e-05,9.444948227610439e-05,0.0,1000,1000,1000,1000,12600,0,0.0027859716210514307,0.0027978583239018917,0.0029240730218589306,10,{}
normal_corridor_base_3,0,none,65604,0.0011660548625513911,0.0009660825016908348,-0.09399561583995819,-35.3632622,149.1652375,-0.006,-0.01,0.01,0.0,-9.942219185177237e-05,9.4449489552062e-05,0.0,1000,1000,1000,1000,12600,0,0.0027187808882445097,0.0025703967548906803,0.0027245362289249897,10,{}
normal_corridor_base_3,0,none,65854,0.0011631697416305542,0.0009609948610886931,-0.09408164024353027,-35.3632621,149.1652375,-0.006,-0.01,0.01,0.0,-9.942218457581475e-05,9.4449489552062e-05,0.0,1000,1000,1000,1000,12600,0,0.0027193487621843815,0.003015837399289012,0.00267512584105134,10,{}
normal_corridor_base_3,0,none,66104,0.0011659893207252026,0.0009625441743992269,-0.09415919333696365,-35.3632621,149.1652375,-0.006,-0.01,0.01,0.0,-9.942219912772998e-05,9.4449489552062e-05,0.0,1000,1000,1000,1000,12600,0,0.0026407046243548393,0.0029035003390163183,0.0028565218672156334,10,{}
normal_corridor_base_3,0,none,66354,0.0011718731839209795,0.0009609108092263341,-0.0942363440990448,-35.3632621,149.1652375,-0.006,-0.01,0.01,0.0,-9.942219912772998e-05,9.444950410397723e-05,0.0,1000,1000,1000,1000,12600,0,0.0027958459686487913,0.00286304485052824,0.0027418937534093857,10,{}
normal_corridor_base_3,0,none,66604,0.0011726110242307186,0.0009753918275237083,-0.09431953728199005,-35.3632621,149.1652375,-0.006,-0.01,0.01,0.0,-9.942219912772998e-05,9.444949682801962e-05,0.0,1000,1000,1000,1000,12600,0,0.0029651187360286713,0.0026440012734383345,0.002666248008608818,10,{}
normal_corridor_base_3,0,none,66854,0.0011725417571142316,0.0009709883597679436,-0.09439033269882202,-35.3632621,149.1652375,-0.006,-0.01,0.01,0.0,-9.94221554719843e-05,9.444948227610439e-05,0.0,1000,1000,1000,1000,12600,0,0.0024607828818261623,0.0028213772457093,0.0029791288543492556,10,{}
normal_corridor_base_3,0,none,67104,0.0011720649199560285,0.000970599998254329,-0.09445139020681381,-35.3632621,149.1652375,-0.006,-0.01,0.01,0.0,-9.942216274794191e-05,9.444951137993485e-05,0.0,1000,1000,1000,1000,12600,0,0.002986763371154666,0.0026000149082392454,0.0031203904654830694,10,{}
normal_corridor_base_3,0,none,67354,0.0011736855376511812,0.0009737202199175954,-0.0945129543542862,-35.3632621,149.1652375,-0.006,-0.01,0.01,0.0,-9.94221554719843e-05,9.4449489552062e-05,0.0,1000,1000,1000,1000,12600,0,0.0029520175885409117,0.0028427555225789547,0.0029353294521570206,10,{}
normal_corridor_base_3,0,none,67604,0.0011774547165259719,0.0009826241293922067,-0.09458655118942261,-35.3632622,149.1652375,-0.006,-0.01,0.01,0.0,-9.942219185177237e-05,9.444947500014678e-05,0.0,1000,1000,1000,1000,12600,0,0.002626737579703331,0.0030123775359243155,0.0027331847231835127,10,{}
normal_corridor_base_3,0,none,67854,0.0011767955729737878,0.0009818702237680554,-0.09466635435819626,-35.3632621,149.1652375,-0.006,-0.01,0.01,0.0,-9.942214092006907e-05,9.444948227610439e-05,0.0,1000,1000,1000,1000,12600,0,0.002703384729102254,0.002967151813209057,0.002734323963522911,10,{}
normal_corridor_base_3,0,none,68104,0.0011775109451264143,0.0009816321544349194,-0.09473291039466858,-35.3632621,149.1652375,-0.006,-0.01,0.01,0.0,-9.942217002389953e-05,9.444952593185008e-05,0.0,1000,1000,1000,1000,12600,0,0.003103573340922594,0.002661065198481083,0.00245024636387825,10,{}
normal_corridor_base_3,0,none,68354,0.0011824790854007006,0.0009904473554342985,-0.09480943530797958,-35.3632622,149.1652375,-0.006,-0.01,0.01,0.0,-9.942217002389953e-05,9.444948227610439e-05,0.0,1000,1000,1000,1000,12600,0,0.0030359053052961826,0.0027874791994690895,0.0028328639455139637,10,{}
normal_corridor_base_3,0,none,68604,0.0011907374719157815,0.0009965590434148908,-0.09487823396921158,-35.3632622,149.1652375,-0.006,-0.01,0.01,0.0,-9.942212636815384e-05,9.44494386203587e-05,0.0,1000,1000,1000,1000,12600,0,0.0028010692913085222,0.0031360036227852106,0.0030197782907634974,10,{}
normal_corridor_base_3,0,none,68854,0.0011922343401238322,0.0009897721465677023,-0.09495138376951218,-35.3632622,149.1652375,-0.006,-0.01,0.01,0.0,-9.942212636815384e-05,9.444939496461302e-05,0.0,1000,1000,1000,1000,12600,0,0.0027713514864444733,0.0026820129714906216,0.0027829583268612623,10,{}
normal_corridor_base_3,0,none,69104,0.0011966930469498038,0.0009912839159369469,-0.09502143412828445,-35.3632622,149.1652375,-0.006,-0.01,0.01,0.0,-9.942219185177237e-05,9.44494386203587e-05,0.0,1000,1000,1000,1000,12600,0,0.002785666845738888,0.0026549294125288725,0.0025459681637585163,10,{}
normal_corridor_base_3,0,none,69354,0.001199518097564578,0.0009883670136332512,-0.09509479999542236,-35.3632622,149.1652375,-0.006,-0.01,0.01,0.0,-9.94222064036876e-05,9.444945317227393e-05,0.0,1000,1000,1000,1000,12600,0,0.0029509668238461018,0.00276006362400949,0.0028207944706082344,10,{}
